municipio,provincia,municipio_nombre_humano,codigo_INE,lat,lon
Ababuj,Teruel,Ababuj,44001,40.54908,-0.80758
Abades,Segovia,Abades,40001,40.911905,-4.271385
Abadía,Cáceres,Abadía,10001,40.25922,-5.97828
Abadín,Lugo,Abadín,27001,43.36667,-7.48333
Abadiño,Bizkaia,Abadiño,48001,43.1511,-2.60942
Abáigar,Navarra,Abáigar,31001,42.64823,-2.14182
Abajas,Burgos,Abajas,9001,42.6231,-3.58086
Ábalos,La Rioja,Ábalos,26001,42.57154,-2.70956
Abaltzisketa,Gipuzkoa,Abaltzisketa,20001,43.034673,-2.105744
Abánades,Guadalajara,Abánades,19001,40.89261,-2.48526
Abanilla,Murcia,Abanilla,30001,38.206794,-1.040845
Abanto,Zaragoza,Abanto,50001,41.13751,-1.69818
Abanto y Ciérvana-Abanto Zierbena,Bizkaia,Abanto y Ciérvana-Abanto Zierbena,48002,43.309951,-3.08805
Abarán,Murcia,Abarán,30002,38.20553,-1.398906
Abarca de Campos,Palencia,Abarca de Campos,34001,42.058327,-4.84697
Abárzuza/Abartzuza,Navarra,Abárzuza/Abartzuza,31002,42.727478,-2.02117
Abaurregaina/Abaurrea Alta,Navarra,Abaurregaina/Abaurrea Alta,31003,42.9,-1.2
Abaurrepea/Abaurrea Baja,Navarra,Abaurrepea/Abaurrea Baja,31004,42.915641,-1.202067
Abegondo,A Coruña,Abegondo,15001,43.21667,-8.28333
Abejar,Soria,Abejar,42001,41.80755,-2.78407
Abejuela,Teruel,Abejuela,44002,39.91039,-0.89444
Abella de la Conca,Lleida,Abella de la Conca,25001,42.16163,1.09228
Abengibre,Albacete,Abengibre,2001,39.209727,-1.541551
Abenójar,Ciudad Real,Abenójar,13001,38.879732,-4.355776
Aberin,Navarra,Aberin,31005,42.61868,-2.00706
Abertura,Cáceres,Abertura,10002,39.24352,-5.81394
Abezames,Zamora,Abezames,49002,41.62642,-5.42577
Abia de la Obispalía,Cuenca,Abia de la Obispalía,16001,40.01836,-2.39499
Abia de las Torres,Palencia,Abia de las Torres,34003,42.42016,-4.42131
Abiego,Huesca,Abiego,22001,42.12094,-0.06873
Abizanda,Huesca,Abizanda,22002,42.24236,0.19717
Abla,Almería,Abla,4001,37.141895,-2.778084
Ablanque,Guadalajara,Ablanque,19002,40.89818,-2.22523
Ablitas,Navarra,Ablitas,31006,41.974773,-1.640204
Abrera,Barcelona,Abrera,8001,41.49669,1.900894
Abrucena,Almería,Abrucena,4002,37.133457,-2.796909
Abusejo,Salamanca,Abusejo,37001,40.709,-6.14074
Acebeda (La),Madrid,La Acebeda,28001,41.086971,-3.62523
Acebedo,León,Acebedo,24001,43.03969,-5.116
Acebo,Cáceres,Acebo,10003,40.2017,-6.7172
Acebrón (El),Cuenca,El Acebrón,16002,39.90706,-2.987499
Acedera,Badajoz,Acedera,6001,39.08414,-5.625607
Acehúche,Cáceres,Acehúche,10004,39.802203,-6.633267
Aceituna,Cáceres,Aceituna,10005,40.15008,-6.33292
Acered,Zaragoza,Acered,50002,41.01667,-1.6
Aceuchal,Badajoz,Aceuchal,6002,38.645953,-6.48728
Adahuesca,Huesca,Adahuesca,22003,42.1461,-0.00804
Adalia,Valladolid,Adalia,47001,41.64894,-5.12107
Adamuz,Córdoba,Adamuz,14001,38.027055,-4.521938
Adanero,Ávila,Adanero,5001,40.94487,-4.60561
Adeje,Santa Cruz de Tenerife,Adeje,38001,28.122365,-16.731754
Ademuz,Valencia,Ademuz,46001,40.062515,-1.286151
Adiós,Navarra,Adiós,31007,42.68635,-1.73532
Adobes,Guadalajara,Adobes,19003,40.67584,-1.67916
Ador,Valencia,Ador,46002,38.919177,-0.225647
Adra,Almería,Adra,4003,36.748564,-3.017817
Adrada (La),Ávila,La Adrada,5002,40.30084,-4.635961
Adrada de Haza,Burgos,Adrada de Haza,9003,41.59454,-3.82326
Adrada de Pirón,Segovia,Adrada de Pirón,40002,41.05257,-4.05107
Adradas,Soria,Adradas,42003,41.35098,-2.47373
Adrados,Segovia,Adrados,40003,41.36816,-4.11186
Aduna,Gipuzkoa,Aduna,20002,43.20375,-2.05033
Agaete,Las Palmas,Agaete,35001,28.102968,-15.706137
Agallas,Salamanca,Agallas,37002,40.44867,-6.44176
Àger,Lleida,Àger,25002,42.0,0.76667
Agolada,Pontevedra,Agolada,36020,42.79254,-8.0504
Agón,Zaragoza,Agón,50003,41.85574,-1.45233
Agoncillo,La Rioja,Agoncillo,26002,42.445522,-2.29202
Agost,Alicante,Agost,3002,38.435937,-0.638589
Agramunt,Lleida,Agramunt,25003,41.783427,1.10004
Ágreda,Soria,Ágreda,42004,41.854918,-1.923529
Agres,Alicante,Agres,3003,38.78333,-0.51667
Agrón,Granada,Agrón,18001,37.03023,-3.8287
Aguadulce,Sevilla,Aguadulce,41001,37.254418,-4.988886
Aguarón,Zaragoza,Aguarón,50004,41.33901,-1.27055
Aguas Cándidas,Burgos,Aguas Cándidas,9006,42.71652,-3.50258
Aguasal,Valladolid,Aguasal,47002,41.27495,-4.6529
Aguatón,Teruel,Aguatón,44003,40.67158,-1.23475
Aguaviva,Teruel,Aguaviva,44004,40.822506,-0.198964
Agudo,Ciudad Real,Agudo,13002,38.981826,-4.87094
Agüero,Huesca,Agüero,22004,42.35505,-0.79324
Aguilafuente,Segovia,Aguilafuente,40004,41.226206,-4.112444
Aguilar de Bureba,Burgos,Aguilar de Bureba,9007,42.591397,-3.325796
Aguilar de Campoo,Palencia,Aguilar de Campoo,34004,42.794993,-4.262107
Aguilar de Campos,Valladolid,Aguilar de Campos,47003,41.98375,-5.18118
Aguilar de Codés,Navarra,Aguilar de Codés,31008,42.61249,-2.38987
Aguilar de la Frontera,Córdoba,Aguilar de la Frontera,14002,37.513613,-4.656526
Aguilar de Segarra,Barcelona,Aguilar de Segarra,8002,41.74822,1.62919
Aguilar del Alfambra,Teruel,Aguilar del Alfambra,44005,40.59027,-0.79589
Aguilar del Río Alhama,La Rioja,Aguilar del Río Alhama,26003,41.96212,-1.9934
Águilas,Murcia,Águilas,30003,37.409108,-1.583878
Aguilón,Zaragoza,Aguilón,50005,41.29467,-1.04634
Agüimes,Las Palmas,Agüimes,35002,27.75958,-15.5969
Agullana,Girona,Agullana,17001,42.393574,2.846513
Agullent,Valencia,Agullent,46004,38.828068,-0.558055
Agulo,Santa Cruz de Tenerife,Agulo,38002,28.18778,-17.19678
Agurain/Salvatierra,Álava,Agurain/Salvatierra,1051,42.847308,-2.392287
Ahigal,Cáceres,Ahigal,10006,40.189347,-6.188442
Ahigal de los Aceiteros,Salamanca,Ahigal de los Aceiteros,37003,40.87231,-6.74702
Ahigal de Villarino,Salamanca,Ahigal de Villarino,37004,41.15819,-6.38037
Ahillones,Badajoz,Ahillones,6003,38.259328,-5.864075
Aia,Gipuzkoa,Aia,20016,42.96607,-2.15512
Aibar/Oibar,Navarra,Aibar/Oibar,31009,42.592394,-1.36053
Aielo de Malferit,Valencia,Aielo de Malferit,46042,38.878858,-0.589872
Aielo de Rugat,Valencia,Aielo de Rugat,46043,38.873542,-0.339631
Aiguafreda,Barcelona,Aiguafreda,8014,41.768409,2.25115
Aiguamúrcia,Tarragona,Aiguamúrcia,43001,41.369474,1.392718
Aiguaviva,Girona,Aiguaviva,17002,41.943502,2.781451
Aigües,Alicante,Aigües,3004,38.501351,-0.364025
Aín,Castellón,Aín,12002,39.892802,-0.348672
Aínsa-Sobrarbe,Huesca,Aínsa-Sobrarbe,22907,42.32688,0.07127
Ainzón,Zaragoza,Ainzón,50006,41.815329,-1.518626
Aisa,Huesca,Aisa,22006,42.787937,-0.528195
Aitona,Lleida,Aitona,25038,41.493249,0.45876
Aizarnazabal,Gipuzkoa,Aizarnazabal,20003,43.25591,-2.23607
Ajalvir,Madrid,Ajalvir,28002,40.532451,-3.482573
Ajamil de Cameros,La Rioja,Ajamil de Cameros,26004,42.16706,-2.48752
Ajangiz,Bizkaia,Ajangiz,48911,43.30297,-2.66586
Ajofrín,Toledo,Ajofrín,45001,39.712734,-3.982357
Alacón,Teruel,Alacón,44006,41.023494,-0.697782
Aladrén,Zaragoza,Aladrén,50007,41.24917,-1.15591
Alaejos,Valladolid,Alaejos,47004,41.308229,-5.214775
Alagón,Zaragoza,Alagón,50008,41.770376,-1.122142
Alagón del Río,Cáceres,Alagón del Río,10903,39.97328,-6.316475
Alaior,Illes Balears,Alaior,7002,39.932119,4.13792
Alájar,Huelva,Alájar,21001,37.87408,-6.66536
Alajeró,Santa Cruz de Tenerife,Alajeró,38003,28.027832,-17.200525
Alameda,Málaga,Alameda,29001,37.208657,-4.656308
Alameda de Gardón (La),Salamanca,La Alameda de Gardón,37005,40.65071,-6.75841
Alameda de la Sagra,Toledo,Alameda de la Sagra,45002,40.012901,-3.797982
Alameda del Valle,Madrid,Alameda del Valle,28003,40.9187,-3.84243
Alamedilla,Granada,Alamedilla,18002,37.58232,-3.24241
Alamedilla (La),Salamanca,La Alamedilla,37006,40.462445,-6.823418
Alamillo,Ciudad Real,Alamillo,13003,38.678764,-4.790707
Alaminos,Guadalajara,Alaminos,19004,40.86303,-2.72573
Álamo (El),Madrid,El Álamo,28004,40.230776,-3.992427
Alamús (Els),Lleida,Els Alamús,25004,41.60584,0.76456
Alange,Badajoz,Alange,6004,38.784989,-6.246106
Alanís,Sevilla,Alanís,41002,38.038635,-5.713093
Alaquàs,Valencia,Alaquàs,46005,39.454507,-0.465896
Alar del Rey,Palencia,Alar del Rey,34005,42.659306,-4.311306
Alaraz,Salamanca,Alaraz,37007,40.749047,-5.287667
Alarba,Zaragoza,Alarba,50009,41.20482,-1.61335
Alarcón,Cuenca,Alarcón,16003,39.55,-2.08333
Alarilla,Guadalajara,Alarilla,19005,40.84711,-3.1031
Alaró,Illes Balears,Alaró,7001,39.7049,2.793441
Alàs i Cerc,Lleida,Alàs i Cerc,25005,42.35,1.51667
Alatoz,Albacete,Alatoz,2002,39.09495,-1.36098
Alba,Teruel,Alba,44007,40.618477,-1.346557
Alba de Cerrato,Palencia,Alba de Cerrato,34006,41.81276,-4.3647
Alba de Tormes,Salamanca,Alba de Tormes,37008,40.826275,-5.511393
Alba de Yeltes,Salamanca,Alba de Yeltes,37009,40.6718,-6.3166
Albacete,Albacete,Albacete,2003,38.995097,-1.86197
Albagés (L'),Lleida,L' Albagés,25006,41.45,0.75
Albaida,Valencia,Albaida,46006,38.83968,-0.522125
Albaida del Aljarafe,Sevilla,Albaida del Aljarafe,41003,37.424507,-6.163906
Albal,Valencia,Albal,46007,39.39874,-0.417601
Albalá,Cáceres,Albalá,10007,39.255859,-6.185592
Albaladejo,Ciudad Real,Albaladejo,13004,38.618135,-2.808393
Albaladejo del Cuende,Cuenca,Albaladejo del Cuende,16004,39.80684,-2.22903
Albalat de la Ribera,Valencia,Albalat de la Ribera,46008,39.202539,-0.386767
Albalat dels Sorells,Valencia,Albalat dels Sorells,46009,39.53834,-0.351611
Albalat dels Tarongers,Valencia,Albalat dels Tarongers,46010,39.702678,-0.337
Albalate de Cinca,Huesca,Albalate de Cinca,22007,41.724846,0.151475
Albalate de las Nogueras,Cuenca,Albalate de las Nogueras,16005,40.36614,-2.27718
Albalate de Zorita,Guadalajara,Albalate de Zorita,19006,40.30812,-2.84267
Albalate del Arzobispo,Teruel,Albalate del Arzobispo,44008,41.121018,-0.51191
Albalatillo,Huesca,Albalatillo,22008,41.73527,-0.15114
Albanchez,Almería,Albanchez,4004,37.28361,-2.18229
Albanchez de Mágina,Jaén,Albanchez de Mágina,23001,37.792053,-3.466361
Albanyà,Girona,Albanyà,17003,42.30431,2.71995
Albares,Guadalajara,Albares,19007,40.3069,-3.00897
Albarracín,Teruel,Albarracín,44009,40.408367,-1.439763
Albarreal de Tajo,Toledo,Albarreal de Tajo,45003,39.89698,-4.22895
Albatana,Albacete,Albatana,2004,38.571977,-1.522897
Albatàrrec,Lleida,Albatàrrec,25007,41.572357,0.604729
Albatera,Alicante,Albatera,3005,38.180289,-0.872395
Albelda,Huesca,Albelda,22009,41.843656,0.493979
Albelda de Iregua,La Rioja,Albelda de Iregua,26005,42.356907,-2.47193
Albendea,Cuenca,Albendea,16006,40.48751,-2.41747
Albendiego,Guadalajara,Albendiego,19008,41.22742,-3.05171
Albentosa,Teruel,Albentosa,44010,40.10342,-0.76928
Alberca (La),Salamanca,La Alberca,37010,40.488456,-6.110723
Alberca de Záncara (La),Cuenca,La Alberca de Záncara,16007,39.51539,-2.491829
Alberguería de Argañán (La),Salamanca,La Alberguería de Argañán,37011,40.41302,-6.81482
Alberic,Valencia,Alberic,46011,39.11748,-0.520642
Alberite,La Rioja,Alberite,26006,42.405388,-2.439928
Alberite de San Juan,Zaragoza,Alberite de San Juan,50010,41.82009,-1.47063
Albero Alto,Huesca,Albero Alto,22011,42.05031,-0.3371
Albero Bajo,Huesca,Albero Bajo,22012,42.0238,-0.38018
Alberuela de Tubo,Huesca,Alberuela de Tubo,22013,41.90846,-0.21418
Albesa,Lleida,Albesa,25008,41.752952,0.659074
Albeta,Zaragoza,Albeta,50011,41.82636,-1.49936
Albi (L'),Lleida,L' Albi,25009,41.41667,0.93333
Albillos,Burgos,Albillos,9009,42.2768,-3.78908
Albinyana,Tarragona,Albinyana,43002,41.25,1.48333
Albiol (L'),Tarragona,L' Albiol,43003,41.25,1.1
Albiztur,Gipuzkoa,Albiztur,20004,43.129853,-2.132077
Albocàsser,Castellón,Albocàsser,12003,40.356897,0.023953
Alboloduy,Almería,Alboloduy,4005,37.03346,-2.62164
Albolote,Granada,Albolote,18003,37.231079,-3.651032
Albondón,Granada,Albondón,18004,36.8277,-3.21144
Albons,Girona,Albons,17004,42.105755,3.084134
Alborache,Valencia,Alborache,46012,39.391503,-0.771221
Alboraia/Alboraya,Valencia,Alboraia/Alboraya,46013,39.49925,-0.35018
Alborea,Albacete,Alborea,2005,39.278861,-1.394938
Alborge,Zaragoza,Alborge,50012,41.33367,-0.35675
Albornos,Ávila,Albornos,5005,40.83795,-4.88129
Albox,Almería,Albox,4006,37.390608,-2.14149
Albudeite,Murcia,Albudeite,30004,38.029839,-1.386735
Albuera (La),Badajoz,La Albuera,6005,38.717333,-6.823226
Albuixech,Valencia,Albuixech,46014,39.544868,-0.324651
Albuñán,Granada,Albuñán,18005,37.22708,-3.13321
Albuñol,Granada,Albuñol,18006,36.789478,-3.202901
Albuñuelas,Granada,Albuñuelas,18007,36.92828,-3.63184
Alburquerque,Badajoz,Alburquerque,6006,39.220369,-7.000693
Alcabón,Toledo,Alcabón,45004,40.004037,-4.368118
Alcadozo,Albacete,Alcadozo,2006,38.648845,-1.979948
Alcaine,Teruel,Alcaine,44011,40.95342,-0.70583
Alcalá de Ebro,Zaragoza,Alcalá de Ebro,50013,41.81495,-1.19429
Alcalá de Guadaíra,Sevilla,Alcalá de Guadaíra,41004,37.341698,-5.836737
Alcalá de Gurrea,Huesca,Alcalá de Gurrea,22014,42.06653,-0.68534
Alcalá de Henares,Madrid,Alcalá de Henares,28005,40.48108,-3.372888
Alcalá de la Selva,Teruel,Alcalá de la Selva,44012,40.36943,-0.691292
Alcalá de la Vega,Cuenca,Alcalá de la Vega,16008,40.03333,-1.51667
Alcalá de los Gazules,Cádiz,Alcalá de los Gazules,11001,36.461701,-5.725044
Alcalá de Moncayo,Zaragoza,Alcalá de Moncayo,50014,41.7861,-1.69544
Alcalà de Xivert,Castellón,Alcalà de Xivert,12004,40.3051,0.225807
Alcalá del Júcar,Albacete,Alcalá del Júcar,2007,39.2,-1.43333
Alcalá del Obispo,Huesca,Alcalá del Obispo,22015,42.0773,-0.2912
Alcalá del Río,Sevilla,Alcalá del Río,41005,37.518699,-5.980547
Alcalá del Valle,Cádiz,Alcalá del Valle,11002,36.90478,-5.171373
Alcalá la Real,Jaén,Alcalá la Real,23002,37.460424,-3.923973
Alcalalí,Alicante,Alcalalí,3006,38.754724,-0.043421
Alcampell,Huesca,Alcampell,22016,41.90605,0.43173
Alcanadre,La Rioja,Alcanadre,26007,42.40492,-2.12073
Alcanar,Tarragona,Alcanar,43004,40.543338,0.479435
Alcanó,Lleida,Alcanó,25010,41.48064,0.61659
Alcántara,Cáceres,Alcántara,10008,39.716337,-6.883391
Alcantarilla,Murcia,Alcantarilla,30005,37.97174,-1.218271
Alcàntera de Xúquer,Valencia,Alcàntera de Xúquer,46016,39.068491,-0.562269
Alcantud,Cuenca,Alcantud,16009,40.54818,-2.33258
Alcañices,Zamora,Alcañices,49003,41.695868,-6.343094
Alcañiz,Teruel,Alcañiz,44013,41.052277,-0.13233
Alcañizo,Toledo,Alcañizo,45005,39.90316,-5.10588
Alcaracejos,Córdoba,Alcaracejos,14003,38.388306,-4.967311
Alcaraz,Albacete,Alcaraz,2008,38.697248,-2.531032
Alcarràs,Lleida,Alcarràs,25011,41.565846,0.524235
Alcàsser,Valencia,Alcàsser,46015,39.367986,-0.443372
Alcaucín,Málaga,Alcaucín,29002,36.90301,-4.11406
Alcaudete,Jaén,Alcaudete,23003,37.589466,-4.080718
Alcaudete de la Jara,Toledo,Alcaudete de la Jara,45006,39.787567,-4.86881
Alcázar de San Juan,Ciudad Real,Alcázar de San Juan,13005,39.392023,-3.215553
Alcázar del Rey,Cuenca,Alcázar del Rey,16010,40.06288,-2.80782
Alcazarén,Valladolid,Alcazarén,47005,41.37061,-4.67262
Alcázares (Los),Murcia,Los Alcázares,30902,37.737952,-0.85395
Alcoba,Ciudad Real,Alcoba,13006,39.25998,-4.478442
Alcobendas,Madrid,Alcobendas,28006,40.541992,-3.64982
Alcocer,Guadalajara,Alcocer,19009,40.46972,-2.6094
Alcocer de Planes,Alicante,Alcocer de Planes,3007,38.79501,-0.40244
Alcocero de Mola,Burgos,Alcocero de Mola,9010,42.47222,-3.3579
Alcohujate,Cuenca,Alcohujate,16011,40.41763,-2.6149
Alcolea,Almería,Alcolea,4007,36.97458,-2.9615
Alcolea de Calatrava,Ciudad Real,Alcolea de Calatrava,13007,38.986706,-4.114802
Alcolea de Cinca,Huesca,Alcolea de Cinca,22017,41.721457,0.114156
Alcolea de las Peñas,Guadalajara,Alcolea de las Peñas,19010,41.2096,-2.78483
Alcolea de Tajo,Toledo,Alcolea de Tajo,45007,39.80966,-5.14738
Alcolea del Pinar,Guadalajara,Alcolea del Pinar,19011,41.03569,-2.46645
Alcolea del Río,Sevilla,Alcolea del Río,41006,37.615015,-5.667873
Alcoleja,Alicante,Alcoleja,3008,38.66992,-0.32382
Alcoletge,Lleida,Alcoletge,25012,41.653794,0.690828
Alcollarín,Cáceres,Alcollarín,10009,39.2447,-5.73924
Alconaba,Soria,Alconaba,42006,41.7236,-2.38484
Alconada,Salamanca,Alconada,37012,40.91092,-5.36305
Alconada de Maderuelo,Segovia,Alconada de Maderuelo,40005,41.45015,-3.48554
Alconchel,Badajoz,Alconchel,6007,38.514743,-7.071697
Alconchel de Ariza,Zaragoza,Alconchel de Ariza,50015,41.20428,-2.12191
Alconchel de la Estrella,Cuenca,Alconchel de la Estrella,16012,39.71963,-2.57366
Alconera,Badajoz,Alconera,6008,38.378914,-6.486219
Alcóntar,Almería,Alcóntar,4008,37.257894,-2.606439
Alcora (l'),Castellón,L' Alcora,12005,40.06667,-0.2
Alcorcón,Madrid,Alcorcón,28007,40.344203,-3.817957
Alcorisa,Teruel,Alcorisa,44014,40.892673,-0.381385
Alcoroches,Guadalajara,Alcoroches,19013,40.62669,-1.74629
Alcover,Tarragona,Alcover,43005,41.261938,1.170159
Alcoy/Alcoi,Alicante,Alcoy/Alcoi,3009,38.701616,-0.476523
Alcubierre,Huesca,Alcubierre,22018,41.80758,-0.45291
Alcubilla de Avellaneda,Soria,Alcubilla de Avellaneda,42007,41.72593,-3.30471
Alcubilla de las Peñas,Soria,Alcubilla de las Peñas,42008,41.25128,-2.52684
Alcubilla de Nogales,Zamora,Alcubilla de Nogales,49004,42.12787,-5.92184
Alcubillas,Ciudad Real,Alcubillas,13008,38.75346,-3.133526
Alcublas,Valencia,Alcublas,46018,39.798339,-0.70287
Alcúdia,Illes Balears,Alcúdia,7003,39.86072,3.118993
Alcúdia (l'),Valencia,L' Alcúdia,46019,39.19281,-0.52396
Alcúdia de Crespins (l'),Valencia,L' Alcúdia de Crespins,46020,38.97264,-0.60219
Alcudia de Monteagud,Almería,Alcudia de Monteagud,4009,37.23529,-2.2665
Alcudia de Veo,Castellón,Alcudia de Veo,12006,39.91667,-0.35
Alcuéscar,Cáceres,Alcuéscar,10010,39.180525,-6.231699
Aldaia,Valencia,Aldaia,46021,39.465115,-0.46177
Aldea (L'),Tarragona,L' Aldea,43904,41.101515,1.200803
Aldea de San Miguel,Valladolid,Aldea de San Miguel,47006,41.46098,-4.6158
Aldea de San Nicolás (La),Las Palmas,La Aldea de San Nicolás,35020,27.947236,-15.786442
Aldea del Cano,Cáceres,Aldea del Cano,10012,39.288675,-6.319567
Aldea del Fresno,Madrid,Aldea del Fresno,28008,40.321466,-4.200261
Aldea del Obispo,Salamanca,Aldea del Obispo,37015,40.70677,-6.79252
Aldea del Obispo (La),Cáceres,La Aldea del Obispo,10013,39.570115,-5.921337
Aldea del Rey,Ciudad Real,Aldea del Rey,13009,38.738268,-3.838629
Aldea en Cabo,Toledo,Aldea en Cabo,45008,40.188981,-4.461826
Aldea Real,Segovia,Aldea Real,40012,41.257468,-3.505819
Aldeacentenera,Cáceres,Aldeacentenera,10011,39.527927,-5.630118
Aldeacipreste,Salamanca,Aldeacipreste,37013,40.3809,-5.89754
Aldeadávila de la Ribera,Salamanca,Aldeadávila de la Ribera,37014,41.217949,-6.619999
Aldealafuente,Soria,Aldealafuente,42009,41.67194,-2.32522
Aldealcorvo,Segovia,Aldealcorvo,40006,41.24443,-3.79136
Aldealengua,Salamanca,Aldealengua,37016,40.9809,-5.54922
Aldealengua de Pedraza,Segovia,Aldealengua de Pedraza,40007,41.021306,-3.793789
Aldealengua de Santa María,Segovia,Aldealengua de Santa María,40008,41.46196,-3.46723
Aldealices,Soria,Aldealices,42010,41.91535,-2.29277
Aldealpozo,Soria,Aldealpozo,42011,41.78258,-2.20416
Aldealseñor,Soria,Aldealseñor,42012,41.8789,-2.31565
Aldeamayor de San Martín,Valladolid,Aldeamayor de San Martín,47007,41.511963,-4.640043
Aldeanueva de Barbarroya,Toledo,Aldeanueva de Barbarroya,45009,39.759356,-5.02311
Aldeanueva de Ebro,La Rioja,Aldeanueva de Ebro,26008,42.227648,-1.892058
Aldeanueva de Figueroa,Salamanca,Aldeanueva de Figueroa,37017,41.14808,-5.52404
Aldeanueva de Guadalajara,Guadalajara,Aldeanueva de Guadalajara,19015,40.67988,-3.04438
Aldeanueva de la Serrezuela,Segovia,Aldeanueva de la Serrezuela,40009,41.463182,-3.788232
Aldeanueva de la Sierra,Salamanca,Aldeanueva de la Sierra,37018,40.6162,-6.10022
Aldeanueva de la Vera,Cáceres,Aldeanueva de la Vera,10014,40.126014,-5.701695
Aldeanueva de San Bartolomé,Toledo,Aldeanueva de San Bartolomé,45010,39.636521,-5.112527
Aldeanueva de Santa Cruz,Ávila,Aldeanueva de Santa Cruz,5007,40.38189,-5.42142
Aldeanueva del Camino,Cáceres,Aldeanueva del Camino,10015,40.258999,-5.92897
Aldeanueva del Codonal,Segovia,Aldeanueva del Codonal,40010,41.08236,-4.54369
Aldeaquemada,Jaén,Aldeaquemada,23004,38.41215,-3.37137
Aldearrodrigo,Salamanca,Aldearrodrigo,37019,41.10966,-5.80726
Aldearrubia,Salamanca,Aldearrubia,37020,41.007067,-5.49834
Aldeaseca,Ávila,Aldeaseca,5008,41.04912,-4.81707
Aldeaseca de Alba,Salamanca,Aldeaseca de Alba,37021,40.81909,-5.44699
Aldeaseca de la Frontera,Salamanca,Aldeaseca de la Frontera,37022,40.94161,-5.20719
Aldeasoña,Segovia,Aldeasoña,40013,41.47285,-4.05712
Aldeatejada,Salamanca,Aldeatejada,37023,40.92168,-5.69273
Aldeavieja de Tormes,Salamanca,Aldeavieja de Tormes,37024,40.58307,-5.61705
Aldehorno,Segovia,Aldehorno,40014,41.51275,-3.77822
Aldehuela (La),Ávila,La Aldehuela,5010,40.41092,-5.40983
Aldehuela de Jerte,Cáceres,Aldehuela de Jerte,10016,40.01008,-6.239764
Aldehuela de la Bóveda,Salamanca,Aldehuela de la Bóveda,37025,40.85076,-6.0526
Aldehuela de Liestos,Zaragoza,Aldehuela de Liestos,50016,41.0641,-1.70107
Aldehuela de Periáñez,Soria,Aldehuela de Periáñez,42013,41.8077,-2.30671
Aldehuela de Yeltes,Salamanca,Aldehuela de Yeltes,37026,40.66254,-6.24332
Aldehuela del Codonal,Segovia,Aldehuela del Codonal,40015,41.05504,-4.53863
Aldehuelas (Las),Soria,Las Aldehuelas,42014,42.001906,-2.380445
Aldeire,Granada,Aldeire,18010,37.16012,-3.07204
Aldeonte,Segovia,Aldeonte,40016,41.35092,-3.67846
Aldover,Tarragona,Aldover,43006,40.87952,0.49996
Aledo,Murcia,Aledo,30006,37.798827,-1.561677
Alegia,Gipuzkoa,Alegia,20005,43.0531,-2.26212
Alegría-Dulantzi,Álava,Alegría-Dulantzi,1001,42.841339,-2.51244
Aleixar (L'),Tarragona,L' Aleixar,43007,41.2,1.05
Alella,Barcelona,Alella,8003,41.496137,2.291909
Alentisque,Soria,Alentisque,42015,41.42059,-2.33189
Alerre,Huesca,Alerre,22019,42.16468,-0.46369
Alesanco,La Rioja,Alesanco,26009,42.41409,-2.81666
Alesón,La Rioja,Alesón,26010,42.40554,-2.68938
Alfacar,Granada,Alfacar,18011,37.239252,-3.565358
Alfafar,Valencia,Alfafar,46022,39.40723,-0.386372
Alfafara,Alicante,Alfafara,3010,38.77339,-0.55551
Alfajarín,Zaragoza,Alfajarín,50017,41.593738,-0.681883
Alfambra,Teruel,Alfambra,44016,40.547066,-1.033209
Alfamén,Zaragoza,Alfamén,50018,41.43864,-1.244318
Alfántega,Huesca,Alfántega,22020,41.82832,0.14823
Alfara de Carles,Tarragona,Alfara de Carles,43008,40.87366,0.40017
Alfara de la Baronia,Valencia,Alfara de la Baronia,46024,39.768973,-0.343358
Alfara del Patriarca,Valencia,Alfara del Patriarca,46025,39.547063,-0.386651
Alfaraz de Sayago,Zamora,Alfaraz de Sayago,49005,41.232914,-5.950962
Alfarnate,Málaga,Alfarnate,29003,36.995335,-4.259894
Alfarnatejo,Málaga,Alfarnatejo,29004,36.9957,-4.26064
Alfaro,La Rioja,Alfaro,26011,42.176996,-1.748532
Alfarp,Valencia,Alfarp,46026,39.276474,-0.559862
Alfarràs,Lleida,Alfarràs,25013,41.830623,0.569296
Alfarrasí,Valencia,Alfarrasí,46027,38.904369,-0.49653
Alfàs del Pi (l'),Alicante,L' Alfàs del Pi,3011,38.566318,-0.104676
Alfauir,Valencia,Alfauir,46023,38.93333,-0.25
Alfés,Lleida,Alfés,25014,41.52143,0.6205
Alfondeguilla,Castellón,Alfondeguilla,12007,39.83333,-0.26667
Alforja,Tarragona,Alforja,43009,41.211964,0.975829
Alforque,Zaragoza,Alforque,50019,41.32942,-0.38525
Alfoz,Lugo,Alfoz,27002,43.519683,-7.409982
Alfoz de Bricia,Burgos,Alfoz de Bricia,9011,42.90051,-3.8761
Alfoz de Lloredo,Cantabria,Alfoz de Lloredo,39001,43.39068,-4.17346
Alfoz de Quintanadueñas,Burgos,Alfoz de Quintanadueñas,9907,42.384486,-3.73538
Alfoz de Santa Gadea,Burgos,Alfoz de Santa Gadea,9012,42.945412,-3.953661
Algaba (La),Sevilla,La Algaba,41007,37.45978,-6.013333
Algadefe,León,Algadefe,24002,42.21931,-5.58419
Algaida,Illes Balears,Algaida,7004,39.55894,2.892537
Algámitas,Sevilla,Algámitas,41008,37.015927,-5.148175
Algar,Cádiz,Algar,11003,36.656425,-5.65638
Algar de Mesa,Guadalajara,Algar de Mesa,19016,41.13494,-1.95964
Algar de Palancia,Valencia,Algar de Palancia,46028,39.777747,-0.382839
Algarinejo,Granada,Algarinejo,18012,37.325738,-4.157789
Algarra,Cuenca,Algarra,16013,40.0,-1.43333
Algarrobo,Málaga,Algarrobo,29005,36.773025,-4.038869
Algatocín,Málaga,Algatocín,29006,36.57356,-5.27554
Algeciras,Cádiz,Algeciras,11004,36.127604,-5.44932
Algemesí,Valencia,Algemesí,46029,39.193372,-0.437693
Algerri,Lleida,Algerri,25015,41.815044,0.636325
Algete,Madrid,Algete,28009,40.598177,-3.501335
Algímia d'Alfara,Valencia,Algímia d'Alfara,46030,39.752412,-0.362184
Algimia de Almonacid,Castellón,Algimia de Almonacid,12008,39.91667,-0.43333
Alginet,Valencia,Alginet,46031,39.263846,-0.469057
Algodonales,Cádiz,Algodonales,11005,36.881571,-5.404209
Algodre,Zamora,Algodre,49006,41.56631,-5.60406
Algora,Guadalajara,Algora,19017,40.96324,-2.66688
Algorfa,Alicante,Algorfa,3012,38.084582,-0.796363
Alguaire,Lleida,Alguaire,25016,41.73593,0.587556
Alguazas,Murcia,Alguazas,30007,38.052537,-1.246584
Algueña,Alicante,Algueña,3013,38.339218,-1.002629
Alhabia,Almería,Alhabia,4010,36.99003,-2.58655
Alhama de Almería,Almería,Alhama de Almería,4011,36.957334,-2.568298
Alhama de Aragón,Zaragoza,Alhama de Aragón,50020,41.294084,-1.895928
Alhama de Granada,Granada,Alhama de Granada,18013,37.004993,-3.988907
Alhama de Murcia,Murcia,Alhama de Murcia,30008,37.849898,-1.423536
Alhambra,Ciudad Real,Alhambra,13010,38.844838,-3.128399
Alhaurín de la Torre,Málaga,Alhaurín de la Torre,29007,36.661253,-4.563544
Alhaurín el Grande,Málaga,Alhaurín el Grande,29008,36.640267,-4.691149
Alhendín,Granada,Alhendín,18014,37.107173,-3.643278
Alhóndiga,Guadalajara,Alhóndiga,19018,40.52669,-2.82438
Alía,Cáceres,Alía,10017,39.448501,-5.217851
Aliaga,Teruel,Aliaga,44017,40.67411,-0.70333
Aliaguilla,Cuenca,Aliaguilla,16014,39.739462,-1.324735
Alicante/Alacant,Alicante,Alicante/Alacant,3014,38.360892,-0.486281
Alicún,Almería,Alicún,4012,36.9658,-2.60212
Alicún de Ortega,Granada,Alicún de Ortega,18015,37.60898,-3.13648
Alija del Infantado,León,Alija del Infantado,24003,42.138731,-5.833465
Alins,Lleida,Alins,25017,42.58453,1.35697
Alió,Tarragona,Alió,43010,41.29422,1.30585
Alique,Guadalajara,Alique,19019,40.58671,-2.64442
Aliseda,Cáceres,Aliseda,10018,39.422152,-6.69244
Aliud,Soria,Aliud,42016,41.65412,-2.25314
Aljaraque,Huelva,Aljaraque,21002,37.267772,-7.024223
Aljucén,Badajoz,Aljucén,6009,39.04426,-6.33109
Alkiza,Gipuzkoa,Alkiza,20006,43.172356,-2.110147
Allande,Asturias,Allande,33001,43.27307,-6.62152
Allariz,Ourense,Allariz,32001,42.19044,-7.80175
Allepuz,Teruel,Allepuz,44021,40.49295,-0.72478
Aller,Asturias,Aller,33002,43.161325,-5.622146
Allín/Allin,Navarra,Allín/Allin,31011,42.70929,-2.07559
Allo,Navarra,Allo,31012,42.567211,-2.02115
Alloza,Teruel,Alloza,44022,40.969425,-0.528797
Allueva,Teruel,Allueva,44023,40.98533,-1.04258
Almacelles,Lleida,Almacelles,25019,41.730809,0.438299
Almáchar,Málaga,Almáchar,29009,36.808953,-4.21605
Almadén,Ciudad Real,Almadén,13011,38.774615,-4.833152
Almadén de la Plata,Sevilla,Almadén de la Plata,41009,37.87221,-6.08085
Almadenejos,Ciudad Real,Almadenejos,13012,38.73851,-4.71073
Almadrones,Guadalajara,Almadrones,19020,40.90096,-2.77406
Almagro,Ciudad Real,Almagro,13013,38.896763,-3.721983
Almajano,Soria,Almajano,42017,41.85095,-2.3383
Almaluez,Soria,Almaluez,42018,41.28932,-2.26871
Almansa,Albacete,Almansa,2009,38.869442,-1.104684
Almanza,León,Almanza,24004,42.65825,-5.0362
Almaraz,Cáceres,Almaraz,10019,39.814166,-5.676165
Almaraz de Duero,Zamora,Almaraz de Duero,49007,41.47506,-5.91654
Almarcha (La),Cuenca,La Almarcha,16015,39.68731,-2.380264
Almargen,Málaga,Almargen,29010,37.002622,-5.022984
Almarza,Soria,Almarza,42019,41.94678,-2.469
Almarza de Cameros,La Rioja,Almarza de Cameros,26012,42.2165,-2.59873
Almàssera,Valencia,Almàssera,46032,39.512709,-0.359623
Almassora,Castellón,Almassora,12009,39.947883,-0.064248
Almatret,Lleida,Almatret,25020,41.30556,0.42418
Almazán,Soria,Almazán,42020,41.486327,-2.530515
Almazul,Soria,Almazul,42021,41.574,-2.1462
Almedíjar,Castellón,Almedíjar,12010,39.86667,-0.4
Almedina,Ciudad Real,Almedina,13014,38.62453,-2.95382
Almedinilla,Córdoba,Almedinilla,14004,37.439118,-4.091527
Almegíjar,Granada,Almegíjar,18016,36.90258,-3.30122
Almeida de Sayago,Zamora,Almeida de Sayago,49008,41.266315,-6.073277
Almenar,Lleida,Almenar,25021,41.796584,0.57046
Almenar de Soria,Soria,Almenar de Soria,42022,41.6823,-2.20082
Almenara,Castellón,Almenara,12011,39.753129,-0.224747
Almenara de Adaja,Valladolid,Almenara de Adaja,47008,41.21406,-4.67824
Almenara de Tormes,Salamanca,Almenara de Tormes,37027,41.0639,-5.8235
Almendra,Salamanca,Almendra,37028,41.238198,-6.3304
Almendral,Badajoz,Almendral,6010,38.613181,-6.822009
Almendral de la Cañada,Toledo,Almendral de la Cañada,45011,40.18456,-4.74173
Almendralejo,Badajoz,Almendralejo,6011,38.683923,-6.408345
Almendro (El),Huelva,El Almendro,21003,37.550713,-7.366592
Almendros,Cuenca,Almendros,16016,39.92093,-2.88469
Almensilla,Sevilla,Almensilla,41010,37.310197,-6.105507
Almería,Almería,Almería,4013,36.844845,-2.456009
Almiserà,Valencia,Almiserà,46033,38.91667,-0.28333
Almochuel,Zaragoza,Almochuel,50021,41.27992,-0.55067
Almócita,Almería,Almócita,4014,37.00262,-2.79051
Almodóvar del Campo,Ciudad Real,Almodóvar del Campo,13015,38.708649,-4.177373
Almodóvar del Pinar,Cuenca,Almodóvar del Pinar,16017,39.71667,-1.88333
Almodóvar del Río,Córdoba,Almodóvar del Río,14005,37.811909,-5.017899
Almogía,Málaga,Almogía,29011,36.825729,-4.540218
Almoguera,Guadalajara,Almoguera,19021,40.297001,-2.981306
Almohaja,Teruel,Almohaja,44018,40.60489,-1.438
Almoharín,Cáceres,Almoharín,10020,39.175217,-6.041539
Almoines,Valencia,Almoines,46034,38.944245,-0.180795
Almolda (La),Zaragoza,La Almolda,50022,41.55307,-0.211036
Almonacid de la Cuba,Zaragoza,Almonacid de la Cuba,50023,41.28067,-0.79266
Almonacid de la Sierra,Zaragoza,Almonacid de la Sierra,50024,41.397758,-1.323129
Almonacid de Toledo,Toledo,Almonacid de Toledo,45012,39.753624,-3.854368
Almonacid de Zorita,Guadalajara,Almonacid de Zorita,19022,40.348338,-2.887264
Almonacid del Marquesado,Cuenca,Almonacid del Marquesado,16018,39.82344,-2.7677
Almonaster la Real,Huelva,Almonaster la Real,21004,37.87396,-6.78872
Almonte,Huelva,Almonte,21005,37.260295,-6.517745
Almoradí,Alicante,Almoradí,3015,38.110237,-0.792414
Almorox,Toledo,Almorox,45013,40.233953,-4.389942
Almoster,Tarragona,Almoster,43011,41.19758,1.11167
Almudaina,Alicante,Almudaina,3016,38.75999,-0.35149
Almudévar,Huesca,Almudévar,22021,42.040917,-0.581339
Almunia de Doña Godina (La),Zaragoza,La Almunia de Doña Godina,50025,41.476937,-1.37524
Almunia de San Juan,Huesca,Almunia de San Juan,22022,41.95013,0.23714
Almuniente,Huesca,Almuniente,22023,41.94949,-0.41173
Almuñécar,Granada,Almuñécar,18017,36.737333,-3.70494
Almuradiel,Ciudad Real,Almuradiel,13016,38.51269,-3.496129
Almussafes,Valencia,Almussafes,46035,39.29359,-0.413366
Alobras,Teruel,Alobras,44019,40.18169,-1.38731
Alocén,Guadalajara,Alocén,19023,40.57455,-2.74993
Alonsotegi,Bizkaia,Alonsotegi,48912,43.245148,-2.987821
Álora,Málaga,Álora,29012,36.823974,-4.704656
Alòs de Balaguer,Lleida,Alòs de Balaguer,25022,41.91667,0.96667
Alosno,Huelva,Alosno,21006,37.548508,-7.11522
Alovera,Guadalajara,Alovera,19024,40.596014,-3.248389
Alozaina,Málaga,Alozaina,29013,36.727298,-4.858708
Alp,Girona,Alp,17006,42.372682,1.884522
Alpandeire,Málaga,Alpandeire,29014,36.63402,-5.20216
Alpanseque,Soria,Alpanseque,42023,41.26505,-2.67064
Alpartir,Zaragoza,Alpartir,50026,41.42253,-1.38061
Alpedrete,Madrid,Alpedrete,28010,40.659263,-4.037855
Alpens,Barcelona,Alpens,8004,42.1193,2.10135
Alpeñés,Teruel,Alpeñés,44020,40.79958,-1.06625
Alpera,Albacete,Alpera,2010,38.95838,-1.231399
Alpicat,Lleida,Alpicat,25023,41.666134,0.555544
Alpuente,Valencia,Alpuente,46036,39.86667,-1.01667
Alpujarra de la Sierra,Granada,Alpujarra de la Sierra,18904,36.99713,-3.13128
Alqueria d'Asnar (l'),Alicante,L' Alqueria d'Asnar,3017,38.360892,-0.486281
Alqueria de la Comtessa (l'),Valencia,L' Alqueria de la Comtessa,46037,38.52309,-1.312155
Alqueries (les)/Alquerías del Niño Perdido,Castellón,les Alqueries/Alquerías del Niño Perdido,12901,39.895098,-0.108965
Alquézar,Huesca,Alquézar,22024,42.17268,0.02586
Alquife,Granada,Alquife,18018,37.18024,-3.11553
Alsodux,Almería,Alsodux,4015,37.00246,-2.59476
Alt Àneu,Lleida,Alt Àneu,25024,42.67742,1.06655
Altable,Burgos,Altable,9013,42.60276,-3.07719
Altafulla,Tarragona,Altafulla,43012,41.140221,1.377818
Altarejos,Cuenca,Altarejos,16019,39.91258,-2.35692
Altea,Alicante,Altea,3018,38.596675,-0.055608
Altorricón,Huesca,Altorricón,22025,41.80093,0.414574
Altos (Los),Burgos,Los Altos,9014,42.745232,-3.607229
Altsasu/Alsasua,Navarra,Altsasu/Alsasua,31010,42.901713,-2.185059
Altura,Castellón,Altura,12012,39.850324,-0.513293
Altzaga,Gipuzkoa,Altzaga,20906,43.06468,-2.154
Altzo,Gipuzkoa,Altzo,20007,43.098866,-2.068114
Alustante,Guadalajara,Alustante,19027,40.61442,-1.6591
Alzira,Valencia,Alzira,46017,39.151954,-0.432702
Amavida,Ávila,Amavida,5012,40.57371,-5.06541
Amayuelas de Arriba,Palencia,Amayuelas de Arriba,34009,42.21108,-4.4888
Ambel,Zaragoza,Ambel,50027,41.79472,-1.6152
Ambite,Madrid,Ambite,28011,40.319363,-3.179227
Amer,Girona,Amer,17007,42.009798,2.603002
Ames,A Coruña,Ames,15002,42.9,-8.63333
Améscoa Baja,Navarra,Améscoa Baja,31013,42.77295,-2.13363
Ametlla de Mar (L'),Tarragona,L' Ametlla de Mar,43013,40.774468,0.673399
Ametlla del Vallès (L'),Barcelona,L' Ametlla del Vallès,8005,41.668354,2.259358
Ameyugo,Burgos,Ameyugo,9016,42.65617,-3.0617
Amezketa,Gipuzkoa,Amezketa,20008,43.05,-2.09
Amieva,Asturias,Amieva,33003,43.24403,-5.0746
Amoeiro,Ourense,Amoeiro,32002,42.41667,-7.95
Amorebieta-Etxano,Bizkaia,Amorebieta-Etxano,48003,43.222806,-2.736395
Amoroto,Bizkaia,Amoroto,48004,43.32634,-2.51349
Ampolla (L'),Tarragona,L' Ampolla,43906,40.837611,0.711528
Amposta,Tarragona,Amposta,43014,40.709376,0.576342
Ampudia,Palencia,Ampudia,34010,41.915076,-4.779547
Ampuero,Cantabria,Ampuero,39002,43.345392,-3.417676
Amurrio,Álava,Amurrio,1002,43.052099,-3.001084
Amusco,Palencia,Amusco,34011,42.172611,-4.469131
Amusquillo,Valladolid,Amusquillo,47009,41.74853,-4.30117
Anadón,Teruel,Anadón,44024,40.98225,-0.98367
Anaya,Segovia,Anaya,40017,40.99184,-4.3095
Anaya de Alba,Salamanca,Anaya de Alba,37029,40.72828,-5.49266
Anchuelo,Madrid,Anchuelo,28012,40.466472,-3.267794
Anchuras,Ciudad Real,Anchuras,13017,39.48059,-4.83381
Ancín/Antzin,Navarra,Ancín/Antzin,31014,42.660275,-2.189235
Andavías,Zamora,Andavías,49009,41.595269,-5.854986
Andilla,Valencia,Andilla,46038,39.83333,-0.8
Andoain,Gipuzkoa,Andoain,20009,43.2195,-2.021953
Andorra,Teruel,Andorra,44025,40.979071,-0.448771
Andosilla,Navarra,Andosilla,31015,42.37729,-1.94267
Andratx,Illes Balears,Andratx,7005,39.57429,2.420509
Andújar,Jaén,Andújar,23005,38.039218,-4.050521
Anento,Zaragoza,Anento,50028,41.06958,-1.33375
Anglès,Girona,Anglès,17008,41.955816,2.637121
Anglesola,Lleida,Anglesola,25027,41.656929,1.08227
Angón,Guadalajara,Angón,19031,41.07126,-2.86195
Anguciana,La Rioja,Anguciana,26013,42.577495,-2.902757
Angüés,Huesca,Angüés,22027,42.11109,-0.15298
Anguiano,La Rioja,Anguiano,26014,42.26381,-2.76463
Anguita,Guadalajara,Anguita,19032,41.02659,-2.36849
Anguix,Burgos,Anguix,9017,41.75331,-3.93125
Anievas,Cantabria,Anievas,39003,43.201322,-4.004578
Aniñón,Zaragoza,Aniñón,50029,41.44482,-1.70434
Anna,Valencia,Anna,46039,39.019526,-0.64637
Anoeta,Gipuzkoa,Anoeta,20010,43.162362,-2.07031
Anquela del Ducado,Guadalajara,Anquela del Ducado,19033,40.97084,-2.13066
Anquela del Pedregal,Guadalajara,Anquela del Pedregal,19034,40.74336,-1.73697
Ansó,Huesca,Ansó,22028,42.75785,-0.82947
Ansoáin/Antsoain,Navarra,Ansoáin/Antsoain,31016,42.843773,-1.642608
Antas,Almería,Antas,4016,37.251074,-1.912721
Antas de Ulla,Lugo,Antas de Ulla,27003,42.78221,-7.89166
Antella,Valencia,Antella,46040,39.080444,-0.592036
Antequera,Málaga,Antequera,29015,37.020392,-4.56226
Antigua,Las Palmas,Antigua,35003,28.415549,-14.010987
Antigua (La),León,La Antigua,24005,42.173751,-5.704934
Antigüedad,Palencia,Antigüedad,34012,41.94681,-4.12058
Antillón,Huesca,Antillón,22029,42.03639,-0.16239
Antzuola,Gipuzkoa,Antzuola,20011,43.094444,-2.377442
Anue,Navarra,Anue,31017,42.97895,-1.58368
Añana,Álava,Añana,1049,42.80199,-2.98636
Añe,Segovia,Añe,40018,41.03702,-4.29462
Añón de Moncayo,Zaragoza,Añón de Moncayo,50030,41.76595,-1.74725
Añora,Córdoba,Añora,14006,38.410044,-4.898364
Añorbe,Navarra,Añorbe,31018,42.65732,-1.7149
Añover de Tajo,Toledo,Añover de Tajo,45014,39.988996,-3.764606
Añover de Tormes,Salamanca,Añover de Tormes,37030,41.13658,-5.91585
Aoiz/Agoitz,Navarra,Aoiz/Agoitz,31019,42.785137,-1.372405
Arabayona de Mógica,Salamanca,Arabayona de Mógica,37031,41.05049,-5.38542
Aracena,Huelva,Aracena,21007,37.891738,-6.562044
Arafo,Santa Cruz de Tenerife,Arafo,38004,28.33684,-16.419718
Aragüés del Puerto,Huesca,Aragüés del Puerto,22032,42.70641,-0.66999
Arahal,Sevilla,Arahal,41011,37.26225,-5.544684
Arahuetes,Segovia,Arahuetes,40019,41.13762,-3.85664
Araitz,Navarra,Araitz,31020,43.047916,-1.997348
Arakaldo,Bizkaia,Arakaldo,48005,43.15,-2.93333
Arakil,Navarra,Arakil,31025,42.909327,-1.866423
Arama,Gipuzkoa,Arama,20012,43.06335,-2.1654
Aramaio,Álava,Aramaio,1003,43.039,-2.60173
Aranarache/Aranaratxe,Navarra,Aranarache/Aranaratxe,31021,42.77979,-2.22924
Arancón,Soria,Arancón,42024,41.80017,-2.28141
Aranda de Duero,Burgos,Aranda de Duero,9018,41.667132,-3.698658
Aranda de Moncayo,Zaragoza,Aranda de Moncayo,50031,41.57749,-1.79171
Arándiga,Zaragoza,Arándiga,50032,41.50872,-1.50074
Arandilla,Burgos,Arandilla,9019,41.73778,-3.42914
Arandilla del Arroyo,Cuenca,Arandilla del Arroyo,16020,40.51056,-2.38355
Aranga,A Coruña,Aranga,15003,43.23469,-8.01705
Aranguren,Navarra,Aranguren,31023,42.77889,-1.57726
Aranjuez,Madrid,Aranjuez,28013,40.03323,-3.602144
Arano,Navarra,Arano,31024,43.19956,-1.89569
Arantza,Navarra,Arantza,31022,43.19623,-1.72494
Arantzazu,Bizkaia,Arantzazu,48006,43.151181,-2.792632
Aranzueque,Guadalajara,Aranzueque,19036,40.493289,-3.079087
Arañuel,Castellón,Arañuel,12013,40.06667,-0.48333
Arapiles,Salamanca,Arapiles,37032,40.892541,-5.642984
Aras,Navarra,Aras,31026,42.56172,-2.356
Aras de los Olmos,Valencia,Aras de los Olmos,46041,39.923903,-1.13488
Arauzo de Miel,Burgos,Arauzo de Miel,9020,41.85878,-3.38773
Arauzo de Salce,Burgos,Arauzo de Salce,9021,41.81919,-3.41191
Arauzo de Torre,Burgos,Arauzo de Torre,9022,41.79818,-3.42314
Arbancón,Guadalajara,Arbancón,19037,40.96434,-3.11505
Arbeca,Lleida,Arbeca,25029,41.542714,0.924267
Arbeteta,Guadalajara,Arbeteta,19038,40.66999,-2.40236
Arbizu,Navarra,Arbizu,31027,42.916332,-2.038038
Arbo,Pontevedra,Arbo,36001,42.11667,-8.31667
Arboç (L'),Tarragona,L' Arboç,43016,41.266215,1.598773
Arboleas,Almería,Arboleas,4017,37.351749,-2.07427
Arbolí,Tarragona,Arbolí,43015,41.236903,0.95696
Arbúcies,Girona,Arbúcies,17009,41.815577,2.515518
Arcas,Cuenca,Arcas,16905,40.068426,-2.137
Arce/Artzi,Navarra,Arce/Artzi,31028,43.10712,-1.67638
Arcediano,Salamanca,Arcediano,37033,41.09379,-5.56055
Arcenillas,Zamora,Arcenillas,49010,41.45641,-5.68512
Archena,Murcia,Archena,30009,38.115564,-1.300848
Árchez,Málaga,Árchez,29016,36.83992,-3.99208
Archidona,Málaga,Archidona,29017,37.095147,-4.389552
Arcicóllar,Toledo,Arcicóllar,45015,40.04533,-4.126284
Arco (El),Salamanca,El Arco,37034,41.1109,-5.82451
Arconada,Palencia,Arconada,34015,42.32774,-4.49617
Arcones,Segovia,Arcones,40020,41.11817,-3.72384
Arcos,Burgos,Arcos,9023,42.26435,-3.75406
Arcos (Los),Navarra,Los Arcos,31029,42.569012,-2.192703
Arcos de Jalón,Soria,Arcos de Jalón,42025,41.214207,-2.273544
Arcos de la Frontera,Cádiz,Arcos de la Frontera,11006,36.754698,-5.815401
Arcos de la Polvorosa,Zamora,Arcos de la Polvorosa,49011,41.94389,-5.69731
Arcos de la Sierra,Cuenca,Arcos de la Sierra,16022,40.34664,-2.1131
Arcos de las Salinas,Teruel,Arcos de las Salinas,44026,39.98333,-1.03333
Ardales,Málaga,Ardales,29018,36.878945,-4.846363
Ardisa,Zaragoza,Ardisa,50033,42.19138,-0.78316
Ardón,León,Ardón,24006,42.43629,-5.56048
Areatza,Bizkaia,Areatza,48093,43.121281,-2.769894
Arellano,Navarra,Arellano,31030,42.60598,-2.04653
Arén,Huesca,Arén,22035,42.25806,0.72235
Arenal (El),Ávila,El Arenal,5013,40.265205,-5.086847
Arenales de San Gregorio,Ciudad Real,Arenales de San Gregorio,13903,39.309814,-3.025366
Arenas,Málaga,Arenas,29019,36.815078,-4.043922
Arenas de Iguña,Cantabria,Arenas de Iguña,39004,43.18293,-4.04729
Arenas de San Juan,Ciudad Real,Arenas de San Juan,13018,39.218564,-3.500942
Arenas de San Pedro,Ávila,Arenas de San Pedro,5014,40.211957,-5.085076
Arenas del Rey,Granada,Arenas del Rey,18020,36.95799,-3.89362
Arenillas,Soria,Arenillas,42026,41.34043,-2.847012
Arenillas de Riopisuerga,Burgos,Arenillas de Riopisuerga,9024,42.3568,-4.233993
Arens de Lledó,Teruel,Arens de Lledó,44027,40.99244,0.27092
Arenys de Mar,Barcelona,Arenys de Mar,8006,41.582411,2.551104
Arenys de Munt,Barcelona,Arenys de Munt,8007,41.608144,2.539527
Arenzana de Abajo,La Rioja,Arenzana de Abajo,26015,42.38599,-2.7194
Arenzana de Arriba,La Rioja,Arenzana de Arriba,26016,42.38745,-2.69494
Ares,A Coruña,Ares,15004,43.432063,-8.235541
Ares del Maestrat,Castellón,Ares del Maestrat,12014,40.45675,-0.13267
Areso,Navarra,Areso,31031,43.08209,-1.95198
Aretxabaleta,Gipuzkoa,Aretxabaleta,20013,43.029535,-2.505998
Arevalillo,Ávila,Arevalillo,5015,40.588392,-5.371343
Arevalillo de Cega,Segovia,Arevalillo de Cega,40021,41.16174,-3.88912
Arévalo,Ávila,Arévalo,5016,41.062326,-4.720047
Arévalo de la Sierra,Soria,Arévalo de la Sierra,42027,41.94723,-2.40033
Argamasilla de Alba,Ciudad Real,Argamasilla de Alba,13019,39.128525,-3.092942
Argamasilla de Calatrava,Ciudad Real,Argamasilla de Calatrava,13020,38.728841,-4.078656
Arganda del Rey,Madrid,Arganda del Rey,28014,40.308932,-3.459003
Arganza,León,Arganza,24007,42.64077,-6.68627
Argañín,Zamora,Argañín,49012,41.43948,-6.20827
Argavieso,Huesca,Argavieso,22036,41.62106,0.192
Argecilla,Guadalajara,Argecilla,19039,40.88151,-2.82181
Argelaguer,Girona,Argelaguer,17010,42.21563,2.64193
Argelita,Castellón,Argelita,12015,40.05,-0.35
Argençola,Barcelona,Argençola,8008,41.59486,1.46953
Argente,Teruel,Argente,44028,40.688245,-1.161872
Argentera (L'),Tarragona,L' Argentera,43017,41.13333,0.91667
Argentona,Barcelona,Argentona,8009,41.550913,2.398359
Argés,Toledo,Argés,45016,39.805789,-4.056634
Argoños,Cantabria,Argoños,39005,43.4574,-3.49013
Arguedas,Navarra,Arguedas,31032,42.172145,-1.591634
Arguis,Huesca,Arguis,22037,42.31476,-0.43967
Arguisuelas,Cuenca,Arguisuelas,16024,39.83333,-1.81667
Argujillo,Zamora,Argujillo,49013,41.31156,-5.58763
Aria,Navarra,Aria,31033,42.95283,-1.26584
Ariany,Illes Balears,Ariany,7901,39.650915,3.11245
Aribe,Navarra,Aribe,31034,42.95,-1.25
Arico,Santa Cruz de Tenerife,Arico,38005,28.17705,-16.48296
Arija,Burgos,Arija,9025,42.9935,-3.94497
Ariño,Teruel,Ariño,44029,41.03019,-0.59206
Ariza,Zaragoza,Ariza,50034,41.31216,-2.059243
Arjona,Jaén,Arjona,23006,37.936,-4.059449
Arjonilla,Jaén,Arjonilla,23007,37.975116,-4.10741
Arlanzón,Burgos,Arlanzón,9026,42.32267,-3.45784
Armallones,Guadalajara,Armallones,19040,40.7358,-2.30257
Armañanzas,Navarra,Armañanzas,31035,42.55963,-2.28476
Armentera (L'),Girona,L' Armentera,17011,41.97268,2.818698
Armenteros,Salamanca,Armenteros,37035,40.5932,-5.44806
Armilla,Granada,Armilla,18021,37.132226,-3.634902
Armiñón,Álava,Armiñón,1006,42.72313,-2.87172
Armuña,Segovia,Armuña,40022,41.07653,-4.30932
Armuña de Almanzora,Almería,Armuña de Almanzora,4018,37.3503,-2.4115
Armuña de Tajuña,Guadalajara,Armuña de Tajuña,19041,40.52884,-3.02819
Arnedillo,La Rioja,Arnedillo,26017,42.21221,-2.23602
Arnedo,La Rioja,Arnedo,26018,42.21667,-2.1
Arnes,Tarragona,Arnes,43018,40.91046,0.26105
Arnoia (A),Ourense,A Arnoia,32003,42.25057,-8.13113
Arnuero,Cantabria,Arnuero,39006,43.47756,-3.56959
Aroche,Huelva,Aroche,21008,37.943678,-6.953311
Arona,Santa Cruz de Tenerife,Arona,38006,28.093304,-16.68371
Arquillinos,Zamora,Arquillinos,49014,41.7099,-5.65708
Arquillos,Jaén,Arquillos,23008,38.180775,-3.428693
Arrabalde,Zamora,Arrabalde,49015,42.1076,-5.89441
Arraia-Maeztu,Álava,Arraia-Maeztu,1037,42.74284,-2.44683
Arrancacepas,Cuenca,Arrancacepas,16025,40.3032,-2.35899
Arrankudiaga,Bizkaia,Arrankudiaga,48009,43.174846,-2.932533
Arrasate/Mondragón,Gipuzkoa,Arrasate/Mondragón,20055,43.062637,-2.495297
Arratzu,Bizkaia,Arratzu,48914,43.31438,-2.64229
Arratzua-Ubarrundia,Álava,Arratzua-Ubarrundia,1008,42.889187,-2.639355
Arraya de Oca,Burgos,Arraya de Oca,9027,42.41488,-3.39781
Arrecife,Las Palmas,Arrecife,35004,28.964612,-13.552557
Arredondo,Cantabria,Arredondo,39007,43.27325,-3.60031
Arres,Lleida,Arres,25031,42.75,0.73333
Arriate,Málaga,Arriate,29020,36.797867,-5.139308
Arrieta,Bizkaia,Arrieta,48010,43.342611,-2.766381
Arrigorriaga,Bizkaia,Arrigorriaga,48011,43.209656,-2.895608
Arroba de los Montes,Ciudad Real,Arroba de los Montes,13021,39.17,-4.57538
Arróniz,Navarra,Arróniz,31036,42.588784,-2.091155
Arroyo de la Encomienda,Valladolid,Arroyo de la Encomienda,47010,41.611787,-4.786793
Arroyo de la Luz,Cáceres,Arroyo de la Luz,10021,39.483506,-6.582844
Arroyo de las Fraguas,Guadalajara,Arroyo de las Fraguas,19042,41.10246,-3.13005
Arroyo de San Serván,Badajoz,Arroyo de San Serván,6012,38.854303,-6.454154
Arroyo del Ojanco,Jaén,Arroyo del Ojanco,23905,38.320962,-2.896641
Arroyomolinos,Madrid,Arroyomolinos,10023,40.267136,-3.91827
Arroyomolinos,Cáceres,Arroyomolinos,28015,39.185568,-6.162929
Arroyomolinos de la Vera,Cáceres,Arroyomolinos de la Vera,10022,40.05277,-5.85111
Arroyomolinos de León,Huelva,Arroyomolinos de León,21009,38.023486,-6.420624
Arruazu,Navarra,Arruazu,31037,42.92186,-2.00157
Arrúbal,La Rioja,Arrúbal,26019,42.43486,-2.25143
Arsèguel,Lleida,Arsèguel,25032,42.34998,1.58418
Artà,Illes Balears,Artà,7006,39.69293,3.350646
Artajona,Navarra,Artajona,31038,42.589012,-1.763516
Artana,Castellón,Artana,12016,39.891289,-0.257265
Artazu,Navarra,Artazu,31039,42.69228,-1.83954
Artea,Bizkaia,Artea,48023,43.12873,-2.79347
Arteixo,A Coruña,Arteixo,15005,43.30482,-8.50749
Artenara,Las Palmas,Artenara,35005,28.02055,-15.64693
Artés,Barcelona,Artés,8010,41.796591,1.95034
Artesa de Lleida,Lleida,Artesa de Lleida,25033,41.553186,0.703313
Artesa de Segre,Lleida,Artesa de Segre,25034,41.894038,1.046955
Artieda,Zaragoza,Artieda,50035,42.58538,-0.98422
Artzentales,Bizkaia,Artzentales,48008,43.242675,-3.226423
Artziniega,Álava,Artziniega,1004,43.120812,-3.127981
Arucas,Las Palmas,Arucas,35006,28.120443,-15.522805
Arzúa,A Coruña,Arzúa,15006,42.92834,-8.163141
Ascó,Tarragona,Ascó,43019,41.201087,0.569355
Asín,Zaragoza,Asín,50036,42.272216,-1.053891
Aspa,Lleida,Aspa,25036,41.49472,0.67277
Aspariegos,Zamora,Aspariegos,49016,41.67458,-5.59955
Asparrena,Álava,Asparrena,1009,42.889667,-2.316775
Aspe,Alicante,Aspe,3019,38.343766,-0.766951
Asteasu,Gipuzkoa,Asteasu,20014,43.190475,-2.080243
Astigarraga,Gipuzkoa,Astigarraga,20903,43.267368,-1.973523
Astillero (El),Cantabria,El Astillero,39008,43.396538,-3.814929
Astorga,León,Astorga,24008,42.4558,-6.055396
Astudillo,Palencia,Astudillo,34017,42.193422,-4.292735
Asturianos,Zamora,Asturianos,49017,42.05201,-6.4894
Atajate,Málaga,Atajate,29021,36.64017,-5.24606
Atalaya,Badajoz,Atalaya,6013,38.338714,-6.487765
Atalaya (La),Salamanca,La Atalaya,37037,40.50255,-6.41456
Atalaya del Cañavate,Cuenca,Atalaya del Cañavate,16026,39.51864,-2.25175
Atanzón,Guadalajara,Atanzón,19043,40.66697,-2.99686
Atapuerca,Burgos,Atapuerca,9029,42.37757,-3.5079
Ataquines,Valladolid,Ataquines,47011,41.181677,-4.803119
Atarfe,Granada,Atarfe,18022,37.220901,-3.692437
Ataun,Gipuzkoa,Ataun,20015,43.002732,-2.174777
Atazar (El),Madrid,El Atazar,28016,40.93237,-3.46849
Atea,Zaragoza,Atea,50037,41.16059,-1.55533
Ateca,Zaragoza,Ateca,50038,41.330534,-1.792184
Atez/Atetz,Navarra,Atez/Atetz,31040,42.94208,-1.70777
Atienza,Guadalajara,Atienza,19044,41.198722,-2.870071
Atxondo,Bizkaia,Atxondo,48091,43.1116,-2.58283
Atzeneta d'Albaida,Valencia,Atzeneta d'Albaida,46003,38.841265,-0.496427
Atzeneta del Maestrat,Castellón,Atzeneta del Maestrat,12001,40.216194,-0.170998
Atzúbia (l'),Alicante,L' Atzúbia,3001,38.338892,-0.509477
Aulesti,Bizkaia,Aulesti,48070,43.3,-2.56667
Auñón,Guadalajara,Auñón,19045,40.51752,-2.7925
Auritz/Burguete,Navarra,Auritz/Burguete,31058,42.98333,-1.33333
Ausejo,La Rioja,Ausejo,26020,42.3421,-2.1671
Ausejo de la Sierra,Soria,Ausejo de la Sierra,42028,41.89462,-2.37394
Ausines (Los),Burgos,Los Ausines,9030,42.215932,-3.587735
Autilla del Pino,Palencia,Autilla del Pino,34018,41.99207,-4.63393
Autillo de Campos,Palencia,Autillo de Campos,34019,42.08725,-4.83376
Autol,La Rioja,Autol,26021,42.21423,-1.999428
Aveinte,Ávila,Aveinte,5017,40.78227,-4.83649
Avellaneda,Ávila,Avellaneda,5018,40.38909,-5.38811
Avellanes i Santa Linya (Les),Lleida,Les Avellanes i Santa Linya,25037,41.91809,0.791555
Avellanosa de Muñó,Burgos,Avellanosa de Muñó,9032,41.98349,-3.82553
Avià,Barcelona,Avià,8011,42.07452,1.825439
Ávila,Ávila,Ávila,5019,40.646709,-4.701896
Avilés,Asturias,Avilés,33004,43.553093,-5.92187
Avinyó,Barcelona,Avinyó,8012,41.863596,1.971087
Avinyonet de Puigventós,Girona,Avinyonet de Puigventós,17012,42.249621,2.91446
Avinyonet del Penedès,Barcelona,Avinyonet del Penedès,8013,41.34284,1.812017
Avión,Ourense,Avión,32004,42.38333,-8.25
Ayala/Aiara,Álava,Ayala/Aiara,1010,43.069205,-3.024081
Ayamonte,Huelva,Ayamonte,21010,37.218958,-7.402741
Ayegui/Aiegi,Navarra,Ayegui/Aiegi,31041,42.674064,-2.033029
Ayerbe,Huesca,Ayerbe,22039,42.275168,-0.688963
Ayllón,Segovia,Ayllón,40024,41.41899,-3.37537
Ayna,Albacete,Ayna,2011,38.55,-2.08333
Ayódar,Castellón,Ayódar,12017,40.0,-0.36667
Ayoó de Vidriales,Zamora,Ayoó de Vidriales,49018,42.13042,-6.0655
Ayora,Valencia,Ayora,46044,39.059671,-1.058792
Ayuela,Palencia,Ayuela,34020,42.62618,-4.65978
Azagra,Navarra,Azagra,31042,42.31001,-1.894774
Azaila,Teruel,Azaila,44031,41.2912,-0.49414
Azanuy-Alins,Huesca,Azanuy-Alins,22040,41.98627,0.31638
Azara,Huesca,Azara,22041,42.07033,-0.02921
Azkoitia,Gipuzkoa,Azkoitia,20017,43.176528,-2.309913
Azlor,Huesca,Azlor,22042,42.09427,-0.04594
Aznalcázar,Sevilla,Aznalcázar,41012,37.30369,-6.24928
Aznalcóllar,Sevilla,Aznalcóllar,41013,37.520671,-6.269267
Azofra,La Rioja,Azofra,26022,42.424,-2.80086
Azpeitia,Gipuzkoa,Azpeitia,20018,43.182222,-2.262929
Azuaga,Badajoz,Azuaga,6014,38.260213,-5.679025
Azuara,Zaragoza,Azuara,50039,41.259028,-0.870074
Azuébar,Castellón,Azuébar,12018,39.83333,-0.36667
Azuelo,Navarra,Azuelo,31043,42.60844,-2.34987
Azuqueca de Henares,Guadalajara,Azuqueca de Henares,19046,40.567422,-3.260264
Azután,Toledo,Azután,45017,39.78564,-5.1273
Babilafuente,Salamanca,Babilafuente,37038,40.976037,-5.426993
Bacares,Almería,Bacares,4019,37.25984,-2.45308
Badajoz,Badajoz,Badajoz,6015,38.876618,-6.980327
Badalona,Barcelona,Badalona,8015,41.443092,2.231575
Badarán,La Rioja,Badarán,26023,42.367627,-2.808639
Bádenas,Teruel,Bádenas,44032,41.09216,-1.12241
Badia del Vallès,Barcelona,Badia del Vallès,8904,41.508766,2.116891
Badolatosa,Sevilla,Badolatosa,41014,37.305709,-4.673098
Badules,Zaragoza,Badules,50040,41.13901,-1.25366
Baélls,Huesca,Baélls,22043,41.95325,0.45956
Baena,Córdoba,Baena,14007,37.619107,-4.322362
Baeza,Jaén,Baeza,23009,37.994165,-3.470751
Bagà,Barcelona,Bagà,8016,42.251064,1.865122
Báguena,Teruel,Báguena,44033,41.040933,-1.358373
Bagüés,Zaragoza,Bagüés,50041,42.54935,-0.94577
Bahabón,Valladolid,Bahabón,47012,41.48141,-4.27941
Bahabón de Esgueva,Burgos,Bahabón de Esgueva,9033,41.86162,-3.7298
Baides,Guadalajara,Baides,19047,41.00685,-2.7762
Bailén,Jaén,Bailén,23010,38.094821,-3.775207
Bailo,Huesca,Bailo,22044,42.50906,-0.81136
Baiona,Pontevedra,Baiona,36003,42.120002,-8.849878
Baix Pallars,Lleida,Baix Pallars,25039,42.3308,1.07052
Bakaiku,Navarra,Bakaiku,31044,42.89244,-2.10251
Bakio,Bizkaia,Bakio,48012,43.427066,-2.808386
Balaguer,Lleida,Balaguer,25040,41.789551,0.810449
Balanegra,Almería,Balanegra,4904,36.748857,-2.913608
Balazote,Albacete,Balazote,2012,38.885548,-2.154767
Balbases (Los),Burgos,Los Balbases,9034,42.21507,-4.06481
Balboa,León,Balboa,24009,42.70608,-6.92222
Balconchán,Zaragoza,Balconchán,50042,41.08737,-1.45998
Baldellou,Huesca,Baldellou,22045,41.91789,0.54689
Baleira,Lugo,Baleira,27004,43.04156,-7.19547
Balenyà,Barcelona,Balenyà,8017,41.813418,2.234902
Baliarrain,Gipuzkoa,Baliarrain,20904,43.071416,-2.1355
Ballestero (El),Albacete,El Ballestero,2014,38.84179,-2.45608
Ballesteros de Calatrava,Ciudad Real,Ballesteros de Calatrava,13022,38.8346,-3.9447
Ballobar,Huesca,Ballobar,22046,41.62106,0.192
Balmaseda,Bizkaia,Balmaseda,48090,43.193051,-3.196981
Balones,Alicante,Balones,3020,38.73726,-0.34324
Balsa de Ves,Albacete,Balsa de Ves,2013,39.26667,-1.2
Balsareny,Barcelona,Balsareny,8018,41.862399,1.874544
Baltanás,Palencia,Baltanás,34022,41.938017,-4.246267
Baltar,Ourense,Baltar,32005,41.952,-7.71581
Banastás,Huesca,Banastás,22047,42.18089,-0.45191
Bande,Ourense,Bande,32006,42.0312,-7.97489
Banyalbufar,Illes Balears,Banyalbufar,7007,39.68734,2.51409
Banyeres de Mariola,Alicante,Banyeres de Mariola,3021,38.715255,-0.660488
Banyeres del Penedès,Tarragona,Banyeres del Penedès,43020,41.28333,1.58333
Banyoles,Girona,Banyoles,17015,42.117091,2.768715
Baña (A),A Coruña,A Baña,15007,42.961763,-8.751135
Bañares,La Rioja,Bañares,26024,42.467117,-2.910908
Bañeza (La),León,La Bañeza,24010,42.300443,-5.899131
Bañobárez,Salamanca,Bañobárez,37039,40.84825,-6.61311
Bañón,Teruel,Bañón,44034,40.83825,-1.19091
Baños de Ebro/Mañueta,Álava,Baños de Ebro/Mañueta,1011,42.52997,-2.67924
Baños de la Encina,Jaén,Baños de la Encina,23011,38.173856,-3.773801
Baños de Molgas,Ourense,Baños de Molgas,32007,42.24148,-7.67223
Baños de Montemayor,Cáceres,Baños de Montemayor,10024,40.318803,-5.857728
Baños de Río Tobía,La Rioja,Baños de Río Tobía,26026,42.332389,-2.761299
Baños de Rioja,La Rioja,Baños de Rioja,26025,42.5123,-2.94635
Baños de Tajo,Guadalajara,Baños de Tajo,19048,40.71667,-1.96667
Baños de Valdearados,Burgos,Baños de Valdearados,9035,41.7701,-3.55589
Bañuelos,Guadalajara,Bañuelos,19049,41.28601,-2.91476
Bañuelos de Bureba,Burgos,Bañuelos de Bureba,9036,42.50258,-3.27958
Baquerín de Campos,Palencia,Baquerín de Campos,34024,42.016,-4.78185
Barajas de Melo,Cuenca,Barajas de Melo,16027,40.146605,-3.094119
Barakaldo,Bizkaia,Barakaldo,48013,43.294581,-2.991858
Baralla,Lugo,Baralla,27901,42.89207,-7.25492
Barañáin/Barañain,Navarra,Barañáin/Barañain,31901,42.80886,-1.69869
Baraona,Soria,Baraona,42029,41.29073,-2.62344
Barásoain,Navarra,Barásoain,31045,42.60339,-1.64658
Barbadás,Ourense,Barbadás,32008,42.3117,-7.90242
Barbadillo,Salamanca,Barbadillo,37040,40.92983,-5.88016
Barbadillo de Herreros,Burgos,Barbadillo de Herreros,9037,42.14974,-3.17702
Barbadillo del Mercado,Burgos,Barbadillo del Mercado,9038,42.03858,-3.35669
Barbadillo del Pez,Burgos,Barbadillo del Pez,9039,42.11879,-3.22802
Barbalos,Salamanca,Barbalos,37041,40.67678,-5.94258
Barbarin,Navarra,Barbarin,31046,42.60197,-2.10203
Barbastro,Huesca,Barbastro,22048,42.03437,0.128248
Barbate,Cádiz,Barbate,11007,36.191218,-5.923583
Barbens,Lleida,Barbens,25041,41.677688,1.016784
Barberà de la Conca,Tarragona,Barberà de la Conca,43021,41.4,1.23333
Barberà del Vallès,Barcelona,Barberà del Vallès,8252,41.517308,2.125243
Bárboles,Zaragoza,Bárboles,50043,41.70898,-1.18594
Barbolla,Segovia,Barbolla,40025,41.32567,-3.67362
Barbués,Huesca,Barbués,22049,41.98085,-0.41949
Barbuñales,Huesca,Barbuñales,22050,42.02563,-0.08659
Barca,Soria,Barca,42030,41.4549,-2.62217
Bárcabo,Huesca,Bárcabo,22051,42.24219,0.06934
Barcarrota,Badajoz,Barcarrota,6016,38.514744,-6.849092
Barcelona,Barcelona,Barcelona,8019,41.3825,2.176944
Bárcena de Campos,Palencia,Bárcena de Campos,34025,42.48428,-4.49875
Bárcena de Cicero,Cantabria,Bárcena de Cicero,39009,43.4216,-3.5103
Bárcena de Pie de Concha,Cantabria,Bárcena de Pie de Concha,39010,43.12653,-4.05753
Barceo,Salamanca,Barceo,37042,41.06108,-6.45175
Barchín del Hoyo,Cuenca,Barchín del Hoyo,16029,39.66667,-2.06667
Barcial de la Loma,Valladolid,Barcial de la Loma,47013,41.9514,-5.28353
Barcial del Barco,Zamora,Barcial del Barco,49019,41.934411,-5.662855
Barcience,Toledo,Barcience,45018,39.984646,-4.234117
Barco de Ávila (El),Ávila,El Barco de Ávila,5021,40.357166,-5.521441
Barco de Valdeorras (O),Ourense,O Barco de Valdeorras,32009,42.41642,-6.99005
Barcones,Soria,Barcones,42031,41.29146,-2.8163
Bardallur,Zaragoza,Bardallur,50044,41.68423,-1.21183
Bareyo,Cantabria,Bareyo,39011,43.46686,-3.60083
Bargas,Toledo,Bargas,45019,39.939545,-4.021249
Bargota,Navarra,Bargota,31047,42.55982,-2.31067
Barillas,Navarra,Barillas,31048,41.96667,-1.63333
Barjas,León,Barjas,24011,42.61182,-6.97979
Barlovento,Santa Cruz de Tenerife,Barlovento,38007,28.82708,-17.80377
Baronia de Rialb (La),Lleida,La Baronia de Rialb,25042,41.93182,1.19489
Barracas,Castellón,Barracas,12020,40.01667,-0.68333
Barrachina,Teruel,Barrachina,44035,40.89688,-1.13858
Barraco (El),Ávila,El Barraco,5022,40.477362,-4.645228
Barrado,Cáceres,Barrado,10025,40.08477,-5.88068
Barrax,Albacete,Barrax,2015,39.045505,-2.2014
Barreiros,Lugo,Barreiros,27005,43.0,-7.3
Barrika,Bizkaia,Barrika,48014,43.40679,-2.96083
Barrio de Muñó,Burgos,Barrio de Muñó,9041,42.17584,-4.00715
Barriopedro,Guadalajara,Barriopedro,19050,40.79026,-2.75246
Barrios (Los),Cádiz,Los Barrios,11008,36.184277,-5.489849
Barrios de Bureba (Los),Burgos,Los Barrios de Bureba,9043,42.64607,-3.39139
Barrios de Colina,Burgos,Barrios de Colina,9044,42.39595,-3.46001
Barrios de Luna (Los),León,Los Barrios de Luna,24012,42.84399,-5.86233
Barro,Pontevedra,Barro,36002,42.527525,-8.644502
Barromán,Ávila,Barromán,5023,41.06536,-4.93066
Barruecopardo,Salamanca,Barruecopardo,37044,41.072512,-6.66392
Barruelo de Santullán,Palencia,Barruelo de Santullán,34027,42.909859,-4.287398
Barruelo del Valle,Valladolid,Barruelo del Valle,47014,41.677304,-5.083027
Barrundia,Álava,Barrundia,1013,42.91377,-2.5071
Barx,Valencia,Barx,46046,39.014004,-0.302123
Barxeta,Valencia,Barxeta,46045,39.021835,-0.417319
Basaburua,Navarra,Basaburua,31049,43.02997,-1.80724
Basardilla,Segovia,Basardilla,40026,41.02738,-4.02598
Basauri,Bizkaia,Basauri,48015,43.22528,-2.880246
Bàscara,Girona,Bàscara,17016,42.15998,2.91028
Basconcillos del Tozo,Burgos,Basconcillos del Tozo,9045,42.70236,-3.98938
Báscones de Ojeda,Palencia,Báscones de Ojeda,34028,42.67064,-4.52693
Bascuñana,Burgos,Bascuñana,9046,42.42548,-3.08231
Bascuñana de San Pedro,Cuenca,Bascuñana de San Pedro,16030,40.21322,-2.22812
Bassella,Lleida,Bassella,25044,42.01667,1.3
Bastida (La),Salamanca,La Bastida,37045,40.58536,-6.0589
Batea,Tarragona,Batea,43022,41.093824,0.312068
Baterno,Badajoz,Baterno,6017,38.95578,-4.91039
Batres,Madrid,Batres,28017,40.247591,-3.940962
Bausen,Lleida,Bausen,25045,42.83454,0.71687
Bayárcal,Almería,Bayárcal,4020,37.03073,-2.99606
Bayarque,Almería,Bayarque,4021,37.33062,-2.4361
Bayubas de Abajo,Soria,Bayubas de Abajo,42032,41.52747,-2.89586
Bayubas de Arriba,Soria,Bayubas de Arriba,42033,41.5575,-2.88731
Baza,Granada,Baza,18023,37.489456,-2.771798
Baztan,Navarra,Baztan,31050,43.15,-1.55
Bea,Teruel,Bea,44036,41.03633,-1.14725
Beade,Ourense,Beade,32010,42.33074,-8.1295
Beamud,Cuenca,Beamud,16031,40.18645,-1.8288
Beariz,Ourense,Beariz,32011,42.36667,-8.06667
Beas,Huelva,Beas,21011,37.425627,-6.793611
Beas de Granada,Granada,Beas de Granada,18024,37.217544,-3.481334
Beas de Guadix,Granada,Beas de Guadix,18025,37.27861,-3.20578
Beas de Segura,Jaén,Beas de Segura,23012,38.252637,-2.890505
Beasain,Gipuzkoa,Beasain,20019,43.059423,-2.200272
Becedas,Ávila,Becedas,5024,40.40369,-5.63577
Becedillas,Ávila,Becedillas,5025,40.53821,-5.32561
Beceite,Teruel,Beceite,44037,40.83162,0.18303
Becerreá,Lugo,Becerreá,27006,42.854528,-7.16216
Becerril de Campos,Palencia,Becerril de Campos,34029,42.108236,-4.639879
Becerril de la Sierra,Madrid,Becerril de la Sierra,28018,40.709152,-3.992598
Becilla de Valderaduey,Valladolid,Becilla de Valderaduey,47015,42.09905,-5.21805
Bédar,Almería,Bédar,4022,37.19389,-1.98166
Bedia,Bizkaia,Bedia,48092,43.21667,-2.8
Bedmar y Garcíez,Jaén,Bedmar y Garcíez,23902,37.822017,-3.41226
Begíjar,Jaén,Begíjar,23014,37.984129,-3.53197
Begonte,Lugo,Begonte,27007,43.15121,-7.68643
Begues,Barcelona,Begues,8020,41.333881,1.916065
Begur,Girona,Begur,17013,41.983618,3.197961
Beintza-Labaien,Navarra,Beintza-Labaien,31137,43.08333,-1.75
Beire,Navarra,Beire,31051,42.45415,-1.62101
Beires,Almería,Beires,4023,37.01237,-2.79134
Beizama,Gipuzkoa,Beizama,20020,43.133676,-2.19855
Béjar,Salamanca,Béjar,37046,40.386486,-5.764689
Bejís,Castellón,Bejís,12022,39.9,-0.7
Belalcázar,Córdoba,Belalcázar,14008,38.575153,-5.166332
Belascoáin,Navarra,Belascoáin,31052,42.7562,-1.83227
Belauntza,Gipuzkoa,Belauntza,20021,43.13586,-2.05156
Belbimbre,Burgos,Belbimbre,9047,42.16873,-4.0128
Belchite,Zaragoza,Belchite,50045,41.305382,-0.753357
Beleña,Salamanca,Beleña,37047,40.747791,-5.638662
Bèlgida,Valencia,Bèlgida,46047,38.85,-0.46667
Belianes,Lleida,Belianes,25046,41.560949,1.015981
Belinchón,Cuenca,Belinchón,16032,40.04602,-3.05517
Bell-lloc d'Urgell,Lleida,Bell-lloc d'Urgell,25048,41.631829,0.781562
Bellaguarda,Lleida,Bellaguarda,25170,41.33333,0.73333
Bellcaire d'Empordà,Girona,Bellcaire d'Empordà,17018,42.079536,3.095192
Bellcaire d'Urgell,Lleida,Bellcaire d'Urgell,25047,41.758284,0.906839
Bellmunt d'Urgell,Lleida,Bellmunt d'Urgell,25049,41.768089,0.950415
Bellmunt del Priorat,Tarragona,Bellmunt del Priorat,43023,41.16365,0.76442
Bello,Teruel,Bello,44039,40.92247,-1.499123
Bellprat,Barcelona,Bellprat,8021,41.51695,1.43333
Bellpuig,Lleida,Bellpuig,25050,41.626591,1.01215
Bellreguard,Valencia,Bellreguard,46048,38.946925,-0.164141
Bellús,Valencia,Bellús,46049,38.9458,-0.48697
Bellvei,Tarragona,Bellvei,43024,41.240003,1.57672
Bellver de Cerdanya,Lleida,Bellver de Cerdanya,25051,42.369586,1.777061
Bellvís,Lleida,Bellvís,25052,41.67271,0.817711
Belmez,Córdoba,Belmez,14009,38.271949,-5.208001
Bélmez de la Moraleda,Jaén,Bélmez de la Moraleda,23015,37.722954,-3.382526
Belmonte,Cuenca,Belmonte,16033,39.556985,-2.70571
Belmonte de Campos,Palencia,Belmonte de Campos,34031,41.94254,-4.98659
Belmonte de Gracián,Zaragoza,Belmonte de Gracián,50046,41.33002,-1.500366
Belmonte de Miranda,Asturias,Belmonte de Miranda,33005,43.266968,-6.254498
Belmonte de San José,Teruel,Belmonte de San José,44038,40.87491,-0.06339
Belmonte de Tajo,Madrid,Belmonte de Tajo,28019,40.133025,-3.338049
Belmontejo,Cuenca,Belmontejo,16034,39.82212,-2.34467
Belorado,Burgos,Belorado,9048,42.418376,-3.195192
Belver de Cinca,Huesca,Belver de Cinca,22052,41.69278,0.179076
Belver de los Montes,Zamora,Belver de los Montes,49020,41.722966,-5.451607
Belvís de la Jara,Toledo,Belvís de la Jara,45020,39.758321,-4.949332
Belvís de Monroy,Cáceres,Belvís de Monroy,10026,39.81859,-5.60327
Bembibre,León,Bembibre,24014,42.616934,-6.415791
Benabarre,Huesca,Benabarre,22053,42.109944,0.48002
Benacazón,Sevilla,Benacazón,41015,37.354311,-6.197076
Benadalid,Málaga,Benadalid,29022,36.61492,-5.26745
Benafarces,Valladolid,Benafarces,47016,41.62133,-5.29285
Benafer,Castellón,Benafer,12024,39.93333,-0.56667
Benafigos,Castellón,Benafigos,12025,40.27641,-0.20772
Benagéber,Valencia,Benagéber,46050,39.557918,-0.509236
Benaguasil,Valencia,Benaguasil,46051,39.594389,-0.588728
Benahadux,Almería,Benahadux,4024,36.927292,-2.460343
Benahavís,Málaga,Benahavís,29023,36.524276,-5.045715
Benalauría,Málaga,Benalauría,29024,36.59444,-5.26099
Benalmádena,Málaga,Benalmádena,29025,36.596025,-4.568878
Benalúa,Granada,Benalúa,18027,37.351367,-3.163549
Benalúa de las Villas,Granada,Benalúa de las Villas,18028,37.427895,-3.683753
Benalup-Casas Viejas,Cádiz,Benalup-Casas Viejas,11901,36.345558,-5.815958
Benamargosa,Málaga,Benamargosa,29026,36.835121,-4.193902
Benamaurel,Granada,Benamaurel,18029,37.608712,-2.69972
Benamejí,Córdoba,Benamejí,14010,37.268628,-4.540782
Benamocarra,Málaga,Benamocarra,29027,36.790203,-4.160143
Benaocaz,Cádiz,Benaocaz,11009,36.723103,-5.480761
Benaoján,Málaga,Benaoján,29028,36.722909,-5.249252
Benarrabá,Málaga,Benarrabá,29029,36.5512,-5.27608
Benasau,Alicante,Benasau,3022,38.69047,-0.34278
Benasque,Huesca,Benasque,22054,42.603409,0.520798
Benassal,Castellón,Benassal,12026,40.379425,-0.142387
Benatae,Jaén,Benatae,23016,38.35323,-2.65121
Benavent de Segrià,Lleida,Benavent de Segrià,25053,41.69566,0.633972
Benavente,Zamora,Benavente,49021,42.004884,-5.678477
Benavides,León,Benavides,24015,42.530717,-5.948146
Benavites,Valencia,Benavites,46052,39.73333,-0.25
Benegiles,Zamora,Benegiles,49022,41.627,-5.63479
Beneixama,Alicante,Beneixama,3023,38.701806,-0.765858
Beneixida,Valencia,Beneixida,46053,39.057703,-0.548344
Benejúzar,Alicante,Benejúzar,3024,38.076894,-0.838707
Benetússer,Valencia,Benetússer,46054,39.421442,-0.399279
Benferri,Alicante,Benferri,3025,38.144565,-0.963573
Beniarbeig,Alicante,Beniarbeig,3026,38.822288,-0.006177
Beniardá,Alicante,Beniardá,3027,38.68433,-0.21629
Beniarjó,Valencia,Beniarjó,46055,38.931221,-0.187328
Beniarrés,Alicante,Beniarrés,3028,38.820507,-0.378199
Beniatjar,Valencia,Beniatjar,46056,38.84754,-0.41736
Benicarló,Castellón,Benicarló,12027,40.420695,0.423162
Benicasim/Benicàssim,Castellón,Benicasim/Benicàssim,12028,40.050798,0.062834
Benicolet,Valencia,Benicolet,46057,38.91987,-0.34694
Benicull de Xúquer,Valencia,Benicull de Xúquer,46904,39.18333,-0.38333
Benidoleig,Alicante,Benidoleig,3030,38.7919,-0.03162
Benidorm,Alicante,Benidorm,3031,38.542305,-0.127103
Beniel,Murcia,Beniel,30010,38.044417,-1.000951
Benifaió,Valencia,Benifaió,46060,39.28488,-0.426427
Benifairó de la Valldigna,Valencia,Benifairó de la Valldigna,46059,39.055083,-0.303019
Benifairó de les Valls,Valencia,Benifairó de les Valls,46058,39.727675,-0.268913
Benifallet,Tarragona,Benifallet,43025,40.97422,0.51767
Benifallim,Alicante,Benifallim,3032,38.66259,-0.39994
Benifato,Alicante,Benifato,3033,38.67395,-0.2292
Beniflá,Valencia,Beniflá,46061,38.92814,-0.17816
Benigànim,Valencia,Benigànim,46062,38.939811,-0.445945
Benigembla,Alicante,Benigembla,3029,38.75494,-0.10903
Benijófar,Alicante,Benijófar,3034,38.062653,-0.745904
Benilloba,Alicante,Benilloba,3035,38.70012,-0.38998
Benillup,Alicante,Benillup,3036,38.75398,-0.37991
Benimantell,Alicante,Benimantell,3037,38.67709,-0.21057
Benimarfull,Alicante,Benimarfull,3038,38.7759,-0.39079
Benimassot,Alicante,Benimassot,3039,38.75,-0.28333
Benimeli,Alicante,Benimeli,3040,38.82362,-0.04221
Benimodo,Valencia,Benimodo,46063,39.213318,-0.526817
Benimuslem,Valencia,Benimuslem,46064,39.13162,-0.49288
Beniparrell,Valencia,Beniparrell,46065,39.378049,-0.407881
Benirredrà,Valencia,Benirredrà,46066,38.961865,-0.192659
Benissa,Alicante,Benissa,3041,38.715345,0.051209
Benissanet,Tarragona,Benissanet,43026,41.057798,0.634308
Benissanó,Valencia,Benissanó,46067,39.613823,-0.574131
Benissoda,Valencia,Benissoda,46068,38.83333,-0.51667
Benissuera,Valencia,Benissuera,46069,38.9132,-0.47784
Benitachell/Poble Nou de Benitatxell (el),Alicante,El Benitachell/Poble Nou de Benitatxell,3042,38.724094,0.150938
Benitagla,Almería,Benitagla,4026,37.23138,-2.23935
Benizalón,Almería,Benizalón,4027,37.21213,-2.2418
Benlloc,Castellón,Benlloc,12029,40.210593,0.026723
Benquerencia,Cáceres,Benquerencia,10027,39.30994,-6.08465
Benquerencia de la Serena,Badajoz,Benquerencia de la Serena,6018,38.67358,-5.36435
Bentarique,Almería,Bentarique,4028,36.98823,-2.61991
Benuza,León,Benuza,24016,42.39941,-6.70969
Bera,Navarra,Bera,31250,43.277651,-1.697639
Berango,Bizkaia,Berango,48016,43.365034,-2.996703
Berantevilla,Álava,Berantevilla,1014,42.68254,-2.85832
Beranuy,Huesca,Beranuy,22246,42.37862,0.60484
Berastegi,Gipuzkoa,Berastegi,20022,43.125653,-1.973977
Beratón,Soria,Beratón,42034,41.71749,-1.81092
Berbegal,Huesca,Berbegal,22055,41.959383,-0.003855
Berberana,Burgos,Berberana,9050,42.91784,-3.06063
Berbinzana,Navarra,Berbinzana,31053,42.527707,-1.834268
Berceo,La Rioja,Berceo,26027,42.33906,-2.85239
Bercero,Valladolid,Bercero,47017,41.56397,-5.0558
Berceruelo,Valladolid,Berceruelo,47018,41.58032,-5.03267
Bérchules,Granada,Bérchules,18030,36.97678,-3.19067
Bercial,Segovia,Bercial,40028,40.89594,-4.43212
Bercial de Zapardiel,Ávila,Bercial de Zapardiel,5026,41.04675,-4.9691
Bercianos del Páramo,León,Bercianos del Páramo,24017,42.380021,-5.703995
Bercianos del Real Camino,León,Bercianos del Real Camino,24018,42.38732,-5.14462
Bercimuel,Segovia,Bercimuel,40029,41.39925,-3.57051
Berdejo,Zaragoza,Berdejo,50047,41.56133,-1.94431
Berga,Barcelona,Berga,8022,42.101496,1.844016
Bergara,Gipuzkoa,Bergara,20074,43.125206,-2.424112
Bergasa,La Rioja,Bergasa,26028,42.25285,-2.13221
Bergasillas Bajera,La Rioja,Bergasillas Bajera,26029,42.24462,-2.1583
Berge,Teruel,Berge,44040,40.85791,-0.42709
Bergondo,A Coruña,Bergondo,15008,43.309118,-8.27358
Beriáin,Navarra,Beriáin,31905,42.734893,-1.635364
Berja,Almería,Berja,4029,36.844738,-2.94636
Berlanas (Las),Ávila,Las Berlanas,5027,40.800813,-4.76019
Berlanga,Badajoz,Berlanga,6019,38.282266,-5.829392
Berlanga de Duero,Soria,Berlanga de Duero,42035,41.4656,-2.86148
Berlanga del Bierzo,León,Berlanga del Bierzo,24019,42.73104,-6.60565
Berlangas de Roa,Burgos,Berlangas de Roa,9051,41.68913,-3.87284
Bermellar,Salamanca,Bermellar,37049,40.99918,-6.67014
Bermeo,Bizkaia,Bermeo,48017,43.420798,-2.725301
Bermillo de Sayago,Zamora,Bermillo de Sayago,49023,41.36648,-6.11223
Bernardos,Segovia,Bernardos,40030,41.141433,-4.340127
Bernedo,Álava,Bernedo,1016,42.62663,-2.49784
Berninches,Guadalajara,Berninches,19051,40.57106,-2.80121
Bernuy de Porreros,Segovia,Bernuy de Porreros,40031,40.99842,-4.11804
Bernuy-Zapardiel,Ávila,Bernuy-Zapardiel,5029,40.9757,-4.94468
Berriatua,Bizkaia,Berriatua,48018,43.31667,-2.46667
Berrioplano/Berriobeiti,Navarra,Berrioplano/Berriobeiti,31902,42.85,-1.7
Berriozar,Navarra,Berriozar,31903,42.846374,-1.667897
Berriz,Bizkaia,Berriz,48019,43.16667,-2.56667
Berrobi,Gipuzkoa,Berrobi,20023,43.14518,-2.02623
Berrocal,Huelva,Berrocal,21012,37.56266,-6.507064
Berrocal de Huebra,Salamanca,Berrocal de Huebra,37050,40.71864,-6.00054
Berrocal de Salvatierra,Salamanca,Berrocal de Salvatierra,37051,40.63331,-5.69005
Berrocalejo,Cáceres,Berrocalejo,10028,39.81948,-5.34951
Berrocalejo de Aragona,Ávila,Berrocalejo de Aragona,5030,40.69436,-4.59474
Berrueces,Valladolid,Berrueces,47019,41.94606,-5.09693
Berrueco,Zaragoza,Berrueco,50048,40.982839,-1.472349
Berrueco (El),Madrid,El Berrueco,28021,40.880318,-3.585046
Bertizarana,Navarra,Bertizarana,31054,43.133298,-1.630125
Berzocana,Cáceres,Berzocana,10029,39.43673,-5.46121
Berzosa de Bureba,Burgos,Berzosa de Bureba,9052,42.62678,-3.26652
Berzosa del Lozoya,Madrid,Berzosa del Lozoya,28020,40.9732,-3.52009
Berzosilla,Palencia,Berzosilla,34032,42.78053,-4.03753
Besalú,Girona,Besalú,17019,42.200549,2.694559
Bescanó,Girona,Bescanó,17020,41.965303,2.738444
Betancuria,Las Palmas,Betancuria,35007,28.4247,-14.05736
Betanzos,A Coruña,Betanzos,15009,43.279994,-8.213657
Betelu,Navarra,Betelu,31055,43.02555,-1.98029
Bétera,Valencia,Bétera,46070,39.591376,-0.461084
Beteta,Cuenca,Beteta,16035,40.57191,-2.07588
Betxí,Castellón,Betxí,12021,39.927581,-0.199285
Beuda,Girona,Beuda,17021,42.23722,2.70942
Bezares,La Rioja,Bezares,26030,42.37036,-2.67076
Bezas,Teruel,Bezas,44041,40.33076,-1.32511
Biar,Alicante,Biar,3043,38.62662,-0.7623
Bicorp,Valencia,Bicorp,46071,39.13215,-0.7872
Bidania-Goiatz,Gipuzkoa,Bidania-Goiatz,20024,43.14258,-2.1673
Bidaurreta,Navarra,Bidaurreta,31253,42.769759,-1.841165
Biel,Zaragoza,Biel,50901,42.38763,-0.94154
Bielsa,Huesca,Bielsa,22057,42.63346,0.21858
Bienservida,Albacete,Bienservida,2016,38.51716,-2.61087
Bienvenida,Badajoz,Bienvenida,6020,38.298282,-6.208785
Bierge,Huesca,Bierge,22058,42.16216,-0.08326
Biescas,Huesca,Biescas,22059,42.628515,-0.32295
Bigastro,Alicante,Bigastro,3044,38.06162,-0.894344
Bigues i Riells,Barcelona,Bigues i Riells,8023,41.670439,2.201504
Bijuesca,Zaragoza,Bijuesca,50050,41.54083,-1.92039
Bilbao,Bizkaia,Bilbao,48020,43.258534,-2.937123
Bimenes,Asturias,Bimenes,33006,43.31667,-5.55
Binaced,Huesca,Binaced,22060,41.825478,0.202545
Binéfar,Huesca,Binéfar,22061,41.849088,0.294912
Binissalem,Illes Balears,Binissalem,7008,39.689121,2.843071
Biosca,Lleida,Biosca,25055,41.84186,1.35889
Biota,Zaragoza,Biota,50051,42.260633,-1.18931
Bisaurri,Huesca,Bisaurri,22062,42.49677,0.50647
Bisbal d'Empordà (La),Girona,La Bisbal d'Empordà,17022,41.960603,3.04028
Bisbal de Falset (La),Tarragona,La Bisbal de Falset,43027,41.26667,0.71667
Bisbal del Penedès (La),Tarragona,La Bisbal del Penedès,43028,41.27996,1.488271
Biscarrués,Huesca,Biscarrués,22063,42.22867,-0.74968
Bisimbre,Zaragoza,Bisimbre,50052,41.85607,-1.44268
Biure,Girona,Biure,17234,42.33734,2.89513
Biurrun-Olcoz,Navarra,Biurrun-Olcoz,31056,42.690128,-1.673473
Blacos,Soria,Blacos,42036,41.6809,-2.85826
Blanca,Murcia,Blanca,30011,38.178125,-1.370273
Blancafort,Tarragona,Blancafort,43029,41.4374,1.15983
Blancas,Teruel,Blancas,44042,40.827601,-1.481416
Blancos (Os),Ourense,Os Blancos,32012,41.987223,-7.745695
Blanes,Girona,Blanes,17023,41.672488,2.780822
Blascomillán,Ávila,Blascomillán,5033,40.80146,-5.08703
Blasconuño de Matacabras,Ávila,Blasconuño de Matacabras,5034,41.12368,-4.98983
Blascosancho,Ávila,Blascosancho,5035,40.87744,-4.63743
Blázquez (Los),Córdoba,Los Blázquez,14011,38.425168,-5.455145
Blecua y Torres,Huesca,Blecua y Torres,22064,42.07091,-0.19123
Blesa,Teruel,Blesa,44043,41.0515,-0.885
Bliecos,Soria,Bliecos,42037,41.5279,-2.27135
Boada,Salamanca,Boada,37052,40.8157,-6.30611
Boada de Campos,Palencia,Boada de Campos,34033,41.98957,-4.8773
Boadella i les Escaules,Girona,Boadella i les Escaules,17029,42.334438,2.856135
Boadilla de Rioseco,Palencia,Boadilla de Rioseco,34035,42.17954,-4.96984
Boadilla del Camino,Palencia,Boadilla del Camino,34034,42.25934,-4.34525
Boadilla del Monte,Madrid,Boadilla del Monte,28022,40.433449,-3.895024
Boal,Asturias,Boal,33007,43.432,-6.81513
Boalo (El),Madrid,El Boalo,28023,40.70105,-3.9146
Bobadilla,La Rioja,Bobadilla,26031,42.31873,-2.75992
Bobadilla del Campo,Valladolid,Bobadilla del Campo,47020,41.20432,-5.02294
Boborás,Ourense,Boborás,32013,42.43332,-8.14431
Boca de Huérgano,León,Boca de Huérgano,24020,42.97287,-4.92419
Bocairent,Valencia,Bocairent,46072,38.764398,-0.613971
Boceguillas,Segovia,Boceguillas,40032,41.336606,-3.637828
Bocigas,Valladolid,Bocigas,47021,41.2307,-4.68128
Bocos de Duero,Valladolid,Bocos de Duero,47022,41.62339,-4.07048
Bodera (La),Guadalajara,La Bodera,19052,41.13547,-2.88719
Bodón (El),Salamanca,El Bodón,37054,40.48791,-6.57522
Bodonal de la Sierra,Badajoz,Bodonal de la Sierra,6021,38.14701,-6.558262
Boecillo,Valladolid,Boecillo,47023,41.542688,-4.700701
Bogajo,Salamanca,Bogajo,37055,40.9071,-6.53065
Bogarra,Albacete,Bogarra,2017,38.58139,-2.2129
Bohodón (El),Ávila,El Bohodón,5036,40.91612,-4.73
Bohonal de Ibor,Cáceres,Bohonal de Ibor,10030,39.78392,-5.480828
Bohoyo,Ávila,Bohoyo,5037,40.31584,-5.44294
Boimorto,A Coruña,Boimorto,15010,43.0,-8.13333
Boiro,A Coruña,Boiro,15011,42.646607,-8.883236
Bola (A),Ourense,A Bola,32014,42.1523,-7.9146
Bolaños de Calatrava,Ciudad Real,Bolaños de Calatrava,13023,38.905214,-3.664006
Bolaños de Campos,Valladolid,Bolaños de Campos,47024,42.0068,-5.28428
Bolbaite,Valencia,Bolbaite,46073,39.061661,-0.674147
Bollullos de la Mitación,Sevilla,Bollullos de la Mitación,41016,37.339039,-6.137858
Bollullos Par del Condado,Huelva,Bollullos Par del Condado,21013,37.338244,-6.539307
Bolo (O),Ourense,O Bolo,32015,42.30702,-7.09897
Boltaña,Huesca,Boltaña,22066,42.441801,0.07064
Bolulla,Alicante,Bolulla,3045,38.67529,-0.11184
Bolvir,Girona,Bolvir,17024,42.41775,1.87986
Bonansa,Huesca,Bonansa,22067,42.42691,0.66692
Bonares,Huelva,Bonares,21014,37.323463,-6.682214
Bonastre,Tarragona,Bonastre,43030,41.22031,1.43936
Bonete,Albacete,Bonete,2018,38.871511,-1.348672
Boniches,Cuenca,Boniches,16036,39.98333,-1.61667
Bonilla de la Sierra,Ávila,Bonilla de la Sierra,5038,40.53063,-5.26452
Bonillo (El),Albacete,El Bonillo,2019,38.950366,-2.539122
Bonrepòs i Mirambell,Valencia,Bonrepòs i Mirambell,46074,39.516485,-0.365022
Boñar,León,Boñar,24021,42.866229,-5.319108
Boqueixón,A Coruña,Boqueixón,15012,42.81459,-8.40662
Boquiñeni,Zaragoza,Boquiñeni,50053,41.847782,-1.252175
Borau,Huesca,Borau,22068,42.65858,-0.58846
Bordalba,Zaragoza,Bordalba,50054,41.41667,-2.06667
Bòrdes (Es),Lleida,Es Bòrdes,25057,42.73333,0.71667
Bordils,Girona,Bordils,17025,42.039046,2.912727
Bordón,Teruel,Bordón,44044,40.6865,-0.32216
Borge (El),Málaga,El Borge,29030,36.814422,-4.2345
Borges Blanques (Les),Lleida,Les Borges Blanques,25058,41.519919,0.86883
Borges del Camp (Les),Tarragona,Les Borges del Camp,43031,41.172515,1.019879
Borja,Zaragoza,Borja,50055,41.833482,-1.532637
Borjabad,Soria,Borjabad,42038,41.55245,-2.36625
Bormujos,Sevilla,Bormujos,41017,37.373496,-6.07345
Bornos,Cádiz,Bornos,11010,36.817922,-5.742991
Borobia,Soria,Borobia,42039,41.66481,-1.89615
Borox,Toledo,Borox,45021,40.07057,-3.740784
Borrassà,Girona,Borrassà,17026,42.221569,2.926448
Borredà,Barcelona,Borredà,8024,42.13564,1.99428
Borrenes,León,Borrenes,24022,42.49019,-6.72338
Borriana/Burriana,Castellón,Borriana/Burriana,12032,39.888399,-0.085748
Borriol,Castellón,Borriol,12031,40.041183,-0.070734
Bosque (El),Cádiz,El Bosque,11011,36.758655,-5.505452
Bossòst,Lleida,Bossòst,25059,42.785261,0.692317
Bot,Tarragona,Bot,43032,41.00916,0.38392
Botarell,Tarragona,Botarell,43033,41.135108,0.98967
Botija,Cáceres,Botija,10031,39.345819,-6.074522
Botorrita,Zaragoza,Botorrita,50056,41.507139,-1.029816
Bouza (La),Salamanca,La Bouza,37056,40.83626,-6.79551
Bóveda,Lugo,Bóveda,27008,43.15978,-7.7325
Bóveda de Toro (La),Zamora,La Bóveda de Toro,49024,41.344851,-5.409937
Bóveda del Río Almar,Salamanca,Bóveda del Río Almar,37057,40.8572,-5.2103
Bovera,Lleida,Bovera,25056,41.31667,0.65
Bozoó,Burgos,Bozoó,9054,42.74933,-3.08547
Brabos,Ávila,Brabos,5039,40.77846,-4.93934
Bràfim,Tarragona,Bràfim,43034,41.26667,1.33333
Brahojos de Medina,Valladolid,Brahojos de Medina,47025,41.225654,-5.047794
Brañosera,Palencia,Brañosera,34036,42.9362,-4.30833
Braojos,Madrid,Braojos,28024,41.0404,-3.64329
Brazacorta,Burgos,Brazacorta,9055,41.71737,-3.36711
Brazatortas,Ciudad Real,Brazatortas,13024,38.658237,-4.293751
Brazuelo,León,Brazuelo,24023,42.49702,-6.15734
Brea de Aragón,Zaragoza,Brea de Aragón,50057,41.522837,-1.600674
Brea de Tajo,Madrid,Brea de Tajo,28025,40.23333,-3.1
Breda,Girona,Breda,17027,41.748773,2.559285
Brenes,Sevilla,Brenes,41018,37.548922,-5.872982
Breña Alta,Santa Cruz de Tenerife,Breña Alta,38008,28.65,-17.78333
Breña Baja,Santa Cruz de Tenerife,Breña Baja,38009,28.649042,-17.776632
Bretó,Zamora,Bretó,49025,41.87917,-5.73902
Bretocino,Zamora,Bretocino,49026,41.8843,-5.75473
Brieva,Segovia,Brieva,40033,41.03483,-4.05364
Brieva de Cameros,La Rioja,Brieva de Cameros,26032,42.16462,-2.7945
Brihuega,Guadalajara,Brihuega,19053,40.762017,-2.869598
Brime de Sog,Zamora,Brime de Sog,49027,42.06162,-6.04791
Brime de Urz,Zamora,Brime de Urz,49028,42.03794,-5.87326
Brincones,Salamanca,Brincones,37058,41.1134,-6.34865
Briñas,La Rioja,Briñas,26033,42.60106,-2.83192
Brión,A Coruña,Brión,15013,43.361148,-8.409827
Briones,La Rioja,Briones,26034,42.543823,-2.7835
Briviesca,Burgos,Briviesca,9056,42.550301,-3.324216
Bronchales,Teruel,Bronchales,44045,40.508005,-1.588983
Broto,Huesca,Broto,22069,42.60434,-0.12351
Brozas,Cáceres,Brozas,10032,39.611341,-6.778873
Bruc (El),Barcelona,El Bruc,8025,41.58333,1.78333
Brull (El),Barcelona,El Brull,8026,41.81657,2.30531
Brunete,Madrid,Brunete,28026,40.405974,-3.99932
Brunyola i Sant Martí Sapresa,Girona,Brunyola i Sant Martí Sapresa,17028,42.15,2.58333
Buberos,Soria,Buberos,42041,41.64692,-2.19406
Bubierca,Zaragoza,Bubierca,50058,41.31482,-1.85386
Bubión,Granada,Bubión,18032,36.949,-3.35615
Buciegas,Cuenca,Buciegas,16038,40.33622,-2.4625
Budia,Guadalajara,Budia,19054,40.62734,-2.75846
Buenache de Alarcón,Cuenca,Buenache de Alarcón,16039,39.657031,-2.158622
Buenache de la Sierra,Cuenca,Buenache de la Sierra,16040,40.13333,-2.0
Buenamadre,Salamanca,Buenamadre,37059,40.85705,-6.24987
Buenaventura,Toledo,Buenaventura,45022,40.17705,-4.85003
Buenavista,Salamanca,Buenavista,37060,40.809959,-5.642739
Buenavista de Valdavia,Palencia,Buenavista de Valdavia,34037,42.63788,-4.61446
Buenavista del Norte,Santa Cruz de Tenerife,Buenavista del Norte,38010,28.371081,-16.85096
Buendía,Cuenca,Buendía,16041,40.367027,-2.755879
Bueña,Teruel,Bueña,44046,40.70881,-1.26742
Bueu,Pontevedra,Bueu,36004,42.323174,-8.783781
Bufali,Valencia,Bufali,46075,38.86775,-0.51617
Bugarra,Valencia,Bugarra,46076,39.61667,-0.76667
Bugedo,Burgos,Bugedo,9057,42.64912,-3.01786
Búger,Illes Balears,Búger,7009,39.75809,2.98349
Buitrago,Soria,Buitrago,42042,41.84337,-2.40434
Buitrago del Lozoya,Madrid,Buitrago del Lozoya,28027,40.990507,-3.638194
Bujalance,Córdoba,Bujalance,14012,37.894767,-4.379447
Bujalaro,Guadalajara,Bujalaro,19055,40.93687,-2.88333
Bujaraloz,Zaragoza,Bujaraloz,50059,41.498029,-0.152608
Bularros,Ávila,Bularros,5040,40.72808,-4.82914
Bulbuente,Zaragoza,Bulbuente,50060,41.8197,-1.60238
Bullas,Murcia,Bullas,30012,38.049376,-1.666639
Buniel,Burgos,Buniel,9058,42.31197,-3.8223
Bunyola,Illes Balears,Bunyola,7010,39.694825,2.700963
Buñol,Valencia,Buñol,46077,39.427351,-0.789688
Buñuel,Navarra,Buñuel,31057,41.98051,-1.44568
Burbáguena,Teruel,Burbáguena,44047,41.01783,-1.33825
Burela,Lugo,Burela,27902,43.659893,-7.358618
Bureta,Zaragoza,Bureta,50061,41.81572,-1.48819
Burganes de Valverde,Zamora,Burganes de Valverde,49029,41.921041,-5.781937
Burgo (El),Málaga,El Burgo,29031,36.790309,-4.948047
Burgo de Ebro (El),Zaragoza,El Burgo de Ebro,50062,41.5643,-0.73064
Burgo de Osma-Ciudad de Osma,Soria,Burgo de Osma-Ciudad de Osma,42043,41.586676,-3.063185
Burgo Ranero (El),León,El Burgo Ranero,24024,42.453008,-5.208242
Burgohondo,Ávila,Burgohondo,5041,40.414016,-4.785867
Burgos,Burgos,Burgos,9059,42.343288,-3.693108
Burgui/Burgi,Navarra,Burgui/Burgi,31059,42.71995,-1.00443
Burguillos,Sevilla,Burguillos,41019,37.585288,-5.967863
Burguillos de Toledo,Toledo,Burguillos de Toledo,45023,39.797363,-3.992506
Burguillos del Cerro,Badajoz,Burguillos del Cerro,6022,38.378731,-6.589193
Burjassot,Valencia,Burjassot,46078,39.50833,-0.412896
Burlada/Burlata,Navarra,Burlada/Burlata,31060,42.824973,-1.617334
Burón,León,Burón,24025,43.02486,-5.05119
Burujón,Toledo,Burujón,45024,39.901977,-4.298782
Busot,Alicante,Busot,3046,38.464904,-0.432603
Busquístar,Granada,Busquístar,18033,36.93796,-3.29444
Bustares,Guadalajara,Bustares,19057,41.13333,-3.06667
Bustarviejo,Madrid,Bustarviejo,28028,40.859006,-3.709813
Buste (El),Zaragoza,El Buste,50063,41.88565,-1.60168
Bustillo de Chaves,Valladolid,Bustillo de Chaves,47026,42.13114,-5.09168
Bustillo de la Vega,Palencia,Bustillo de la Vega,34038,42.45605,-4.74115
Bustillo del Oro,Zamora,Bustillo del Oro,49030,41.6746,-5.46158
Bustillo del Páramo,León,Bustillo del Páramo,24026,42.44126,-5.7928
Bustillo del Páramo de Carrión,Palencia,Bustillo del Páramo de Carrión,34039,42.35509,-4.7398
Busto (El),Navarra,El Busto,31061,42.54876,-2.24085
Busto de Bureba,Burgos,Busto de Bureba,9060,42.6591,-3.26512
Busturia,Bizkaia,Busturia,48021,43.367534,-2.698966
Cabacés,Tarragona,Cabacés,43035,41.24856,0.73514
Cabaco (El),Salamanca,El Cabaco,37061,40.559971,-6.159152
Caballar,Segovia,Caballar,40034,41.12159,-3.9642
Cabana de Bergantiños,A Coruña,Cabana de Bergantiños,15014,43.190162,-8.873452
Cabanabona,Lleida,Cabanabona,25060,41.8515,1.21579
Cabanas,A Coruña,Cabanas,15015,43.21667,-8.31667
Cabanelles,Girona,Cabanelles,17031,42.23068,2.81997
Cabanes,Girona,Cabanes,12033,40.155395,2.969188
Cabanes,Castellón,Cabanes,17030,40.155395,0.043446
Cabanillas,Navarra,Cabanillas,31062,42.031947,-1.522638
Cabanillas de la Sierra,Madrid,Cabanillas de la Sierra,28029,40.829503,-3.628712
Cabanillas del Campo,Guadalajara,Cabanillas del Campo,19058,40.634889,-3.232675
Cabanyes (Les),Barcelona,Les Cabanyes,8027,41.37287,1.688919
Cabañas de Ebro,Zaragoza,Cabañas de Ebro,50064,41.789236,-1.16932
Cabañas de la Sagra,Toledo,Cabañas de la Sagra,45025,40.008068,-3.950221
Cabañas de Polendos,Segovia,Cabañas de Polendos,40035,41.06667,-4.1101
Cabañas de Sayago,Zamora,Cabañas de Sayago,49031,41.33333,-5.78333
Cabañas de Yepes,Toledo,Cabañas de Yepes,45026,39.89051,-3.53502
Cabañas del Castillo,Cáceres,Cabañas del Castillo,10033,39.54804,-5.51203
Cabañas Raras,León,Cabañas Raras,24027,42.620159,-6.60408
Cabañes de Esgueva,Burgos,Cabañes de Esgueva,9061,41.83023,-3.78824
Cabeza de Béjar (La),Salamanca,La Cabeza de Béjar,37063,40.49574,-5.66259
Cabeza del Buey,Badajoz,Cabeza del Buey,6023,38.720666,-5.22195
Cabeza del Caballo,Salamanca,Cabeza del Caballo,37065,41.12982,-6.55742
Cabeza la Vaca,Badajoz,Cabeza la Vaca,6024,38.086152,-6.420675
Cabezabellosa,Cáceres,Cabezabellosa,10034,40.13763,-6.00086
Cabezabellosa de la Calzada,Salamanca,Cabezabellosa de la Calzada,37062,41.04395,-5.48866
Cabezamesada,Toledo,Cabezamesada,45027,39.8163,-3.10236
Cabezarados,Ciudad Real,Cabezarados,13025,38.84469,-4.2983
Cabezarrubias del Puerto,Ciudad Real,Cabezarrubias del Puerto,13026,38.61508,-4.18452
Cabezas de Alambre,Ávila,Cabezas de Alambre,5042,40.94218,-4.84184
Cabezas de San Juan (Las),Sevilla,Las Cabezas de San Juan,41020,36.982,-5.939208
Cabezas del Pozo,Ávila,Cabezas del Pozo,5043,41.00139,-4.95454
Cabezas del Villar,Ávila,Cabezas del Villar,5044,40.715103,-5.210077
Cabezas Rubias,Huelva,Cabezas Rubias,21015,37.7266,-7.08738
Cabezón de Cameros,La Rioja,Cabezón de Cameros,26035,42.19716,-2.51989
Cabezón de la Sal,Cantabria,Cabezón de la Sal,39012,43.308156,-4.230491
Cabezón de la Sierra,Burgos,Cabezón de la Sierra,9062,41.93434,-3.24154
Cabezón de Liébana,Cantabria,Cabezón de Liébana,39013,43.13437,-4.5763
Cabezón de Pisuerga,Valladolid,Cabezón de Pisuerga,47027,41.733448,-4.645667
Cabezón de Valderaduey,Valladolid,Cabezón de Valderaduey,47028,42.16793,-5.15892
Cabezuela,Segovia,Cabezuela,40036,41.219292,-3.963002
Cabezuela del Valle,Cáceres,Cabezuela del Valle,10035,40.193106,-5.806342
Cabizuela,Ávila,Cabizuela,5045,40.9009,-4.80212
Cabó,Lleida,Cabó,25061,42.23595,1.24244
Cabolafuente,Zaragoza,Cabolafuente,50065,41.21053,-2.04133
Cabra,Córdoba,Cabra,14013,37.4735,-4.441519
Cabra de Mora,Teruel,Cabra de Mora,44048,40.31696,-0.80678
Cabra del Camp,Tarragona,Cabra del Camp,43036,41.390008,1.330597
Cabra del Santo Cristo,Jaén,Cabra del Santo Cristo,23017,37.703723,-3.28715
Cabrales,Asturias,Cabrales,33008,43.30388,-4.8157
Cabranes,Asturias,Cabranes,33009,43.41621,-5.41128
Cabredo,Navarra,Cabredo,31063,42.62966,-2.41133
Cabrejas del Campo,Soria,Cabrejas del Campo,42044,41.68096,-2.26964
Cabrejas del Pinar,Soria,Cabrejas del Pinar,42045,41.79596,-2.84945
Cabrera (La),Madrid,La Cabrera,28030,40.863889,-3.613333
Cabrera d'Anoia,Barcelona,Cabrera d'Anoia,8028,41.485582,1.709933
Cabrera de Mar,Barcelona,Cabrera de Mar,8029,41.527272,2.397678
Cabrerizos,Salamanca,Cabrerizos,37067,40.979833,-5.608407
Cabrero,Cáceres,Cabrero,10036,40.11324,-5.89293
Cabreros del Monte,Valladolid,Cabreros del Monte,47029,41.84906,-5.27016
Cabreros del Río,León,Cabreros del Río,24028,42.40205,-5.54154
Cabrillanes,León,Cabrillanes,24029,42.95343,-6.1485
Cabrillas,Salamanca,Cabrillas,37068,40.73977,-6.17873
Cabrils,Barcelona,Cabrils,8030,41.52819,2.368618
Cabuérniga,Cantabria,Cabuérniga,39014,43.22572,-4.30039
Cacabelos,León,Cacabelos,24030,42.599918,-6.72475
Cáceres,Cáceres,Cáceres,10037,39.464967,-6.377459
Cachorrilla,Cáceres,Cachorrilla,10038,39.91557,-6.66909
Cacín,Granada,Cacín,18034,37.05995,-3.91689
Cadalso,Cáceres,Cadalso,10039,40.23743,-6.54083
Cadalso de los Vidrios,Madrid,Cadalso de los Vidrios,28031,40.301907,-4.438665
Cadaqués,Girona,Cadaqués,17032,42.291686,3.280294
Cádiar,Granada,Cádiar,18035,36.945095,-3.180099
Cádiz,Cádiz,Cádiz,11012,36.518753,-6.279529
Cadreita,Navarra,Cadreita,31064,42.241903,-1.763721
Cadrete,Zaragoza,Cadrete,50066,41.564654,-0.965042
Cájar,Granada,Cájar,18036,37.130519,-3.570119
Cala,Huelva,Cala,21016,37.969374,-6.312885
Calabazas de Fuentidueña,Segovia,Calabazas de Fuentidueña,40037,41.450358,-4.009898
Calaceite,Teruel,Calaceite,44049,41.016096,0.188263
Calaf,Barcelona,Calaf,8031,41.731601,1.516317
Calafell,Tarragona,Calafell,43037,41.198646,1.566326
Calahorra,La Rioja,Calahorra,26036,42.302939,-2.517555
Calahorra (La),Granada,La Calahorra,18114,37.180816,-3.063913
Calahorra de Boedo,Palencia,Calahorra de Boedo,34041,42.57409,-4.38485
Calamocha,Teruel,Calamocha,44050,40.918848,-1.297614
Calamonte,Badajoz,Calamonte,6025,38.887746,-6.387619
Calanda,Teruel,Calanda,44051,40.942323,-0.233183
Calañas,Huelva,Calañas,21017,37.653945,-6.87949
Calasparra,Murcia,Calasparra,30013,38.230042,-1.702155
Calatañazor,Soria,Calatañazor,42046,41.64962,-2.72738
Calatayud,Zaragoza,Calatayud,50067,41.351583,-1.6413
Calatorao,Zaragoza,Calatorao,50068,41.523902,-1.343895
Calcena,Zaragoza,Calcena,50069,41.65515,-1.71764
Caldas de Reis,Pontevedra,Caldas de Reis,36005,42.604454,-8.644298
Caldearenas,Huesca,Caldearenas,22072,42.393478,-0.499392
Calders,Barcelona,Calders,8034,41.783381,1.98081
Caldes d'Estrac,Barcelona,Caldes d'Estrac,8032,41.56506,2.513271
Caldes de Malavella,Girona,Caldes de Malavella,17033,41.837008,2.788604
Caldes de Montbui,Barcelona,Caldes de Montbui,8033,41.630059,2.16897
Calella,Barcelona,Calella,8035,41.614211,2.655708
Calera de León,Badajoz,Calera de León,6026,38.106385,-6.336207
Calera y Chozas,Toledo,Calera y Chozas,45028,39.882233,-4.979702
Caleruega,Burgos,Caleruega,9064,41.82548,-3.48593
Caleruela,Toledo,Caleruela,45029,39.87483,-5.25693
Calicasas,Granada,Calicasas,18037,37.2713,-3.61345
Càlig,Castellón,Càlig,12034,40.461524,0.35459
Calldetenes,Barcelona,Calldetenes,8037,41.952271,2.280429
Calles,Valencia,Calles,46079,39.72118,-0.97057
Callosa d'en Sarrià,Alicante,Callosa d'en Sarrià,3048,38.64888,-0.123885
Callosa de Segura,Alicante,Callosa de Segura,3049,38.126098,-0.875694
Callús,Barcelona,Callús,8038,41.782097,1.783982
Calmarza,Zaragoza,Calmarza,50070,41.1581,-1.91196
Calomarde,Teruel,Calomarde,44052,40.37264,-1.57434
Calonge de Segarra,Barcelona,Calonge de Segarra,8036,41.76132,1.47715
Calonge i Sant Antoni,Girona,Calonge i Sant Antoni,17034,41.862389,3.072349
Calp,Alicante,Calp,3047,38.658408,0.05646
Caltojar,Soria,Caltojar,42048,41.40226,-2.76436
Calvarrasa de Abajo,Salamanca,Calvarrasa de Abajo,37069,40.946181,-5.57172
Calvarrasa de Arriba,Salamanca,Calvarrasa de Arriba,37070,40.90672,-5.59199
Calvià,Illes Balears,Calvià,7011,39.566048,2.506248
Calvos de Randín,Ourense,Calvos de Randín,32016,41.9479,-7.89604
Calzada de Béjar (La),Salamanca,La Calzada de Béjar,37071,40.41182,-5.81809
Calzada de Calatrava,Ciudad Real,Calzada de Calatrava,13027,38.70133,-3.774141
Calzada de Don Diego,Salamanca,Calzada de Don Diego,37072,40.905,-5.90279
Calzada de los Molinos,Palencia,Calzada de los Molinos,34042,42.327152,-4.651376
Calzada de Oropesa,Toledo,Calzada de Oropesa,45030,39.89875,-5.277487
Calzada de Valdunciel,Salamanca,Calzada de Valdunciel,37073,41.086418,-5.701983
Calzada del Coto,León,Calzada del Coto,24031,42.38613,-5.07809
Calzadilla,Cáceres,Calzadilla,10040,40.06014,-6.53328
Calzadilla de los Barros,Badajoz,Calzadilla de los Barros,6027,38.300375,-6.314896
Calzadilla de Tera,Zamora,Calzadilla de Tera,49032,41.97899,-6.08243
Camaleño,Cantabria,Camaleño,39015,43.15078,-4.69376
Camañas,Teruel,Camañas,44053,40.64308,-1.13752
Camarasa,Lleida,Camarasa,25062,41.87486,0.87814
Camarena,Toledo,Camarena,45031,40.092233,-4.119007
Camarena de la Sierra,Teruel,Camarena de la Sierra,44054,40.15,-1.03333
Camarenilla,Toledo,Camarenilla,45032,40.01672,-4.07624
Camargo,Cantabria,Camargo,39016,43.407402,-3.884697
Camarillas,Teruel,Camarillas,44055,40.61242,-0.75416
Camariñas,A Coruña,Camariñas,15016,43.131859,-9.182555
Camarles,Tarragona,Camarles,43903,40.767289,0.655257
Camarma de Esteruelas,Madrid,Camarma de Esteruelas,28032,40.551604,-3.376523
Camarzana de Tera,Zamora,Camarzana de Tera,49033,41.9947,-6.02657
Camas,Sevilla,Camas,41021,37.399793,-6.033157
Cambados,Pontevedra,Cambados,36006,42.515679,-8.816347
Cambil,Jaén,Cambil,23018,37.675796,-3.565989
Cambre,A Coruña,Cambre,15017,43.291654,-8.342931
Cambrils,Tarragona,Cambrils,43038,41.074454,1.051729
Caminomorisco,Cáceres,Caminomorisco,10041,40.32719,-6.28923
Caminreal,Teruel,Caminreal,44056,40.83852,-1.320464
Camós,Girona,Camós,17035,42.08776,2.76288
Campana (La),Sevilla,La Campana,41022,37.568384,-5.427573
Campanario,Badajoz,Campanario,6028,38.863511,-5.617804
Campanet,Illes Balears,Campanet,7012,39.775651,2.964347
Campaspero,Valladolid,Campaspero,47030,41.491595,-4.194225
Campazas,León,Campazas,24032,42.14219,-5.49349
Campdevànol,Girona,Campdevànol,17036,42.21912,2.168311
Campelles,Girona,Campelles,17037,42.29471,2.1407
Campello (el),Alicante,el Campello,3050,38.428712,-0.400416
Campezo/Kanpezu,Álava,Campezo/Kanpezu,1017,42.69412,-2.36442
Campillo (El),Huelva,El Campillo,21018,37.43493,-7.0559
Campillo (El),Valladolid,El Campillo,47031,41.262437,-4.995518
Campillo de Altobuey,Cuenca,Campillo de Altobuey,16042,39.610861,-1.793926
Campillo de Aragón,Zaragoza,Campillo de Aragón,50071,41.12648,-1.84393
Campillo de Aranda,Burgos,Campillo de Aranda,9065,41.609055,-3.731442
Campillo de Arenas,Jaén,Campillo de Arenas,23019,37.554965,-3.63531
Campillo de Azaba,Salamanca,Campillo de Azaba,37074,40.50951,-6.68705
Campillo de Deleitosa,Cáceres,Campillo de Deleitosa,10042,39.70297,-5.57436
Campillo de Dueñas,Guadalajara,Campillo de Dueñas,19059,40.88376,-1.68505
Campillo de la Jara (El),Toledo,El Campillo de la Jara,45033,39.58918,-5.05532
Campillo de Llerena,Badajoz,Campillo de Llerena,6029,38.502136,-5.830793
Campillo de Ranas,Guadalajara,Campillo de Ranas,19060,41.08601,-3.31431
Campillos,Málaga,Campillos,29032,37.047967,-4.863483
Campillos-Paravientos,Cuenca,Campillos-Paravientos,16043,39.98333,-1.55
Campillos-Sierra,Cuenca,Campillos-Sierra,16044,40.1,-1.7
Campins,Barcelona,Campins,8039,41.71667,2.46667
Campisábalos,Guadalajara,Campisábalos,19061,41.26667,-3.13333
Campllong,Girona,Campllong,17038,41.89653,2.83219
Campo,Huesca,Campo,22074,42.40956,0.39615
Campo de Criptana,Ciudad Real,Campo de Criptana,13028,39.402988,-3.124526
Campo de Mirra/Camp de Mirra (el),Alicante,El Campo de Mirra/Camp de Mirra,3051,38.70001,-0.79462
Campo de Peñaranda (El),Salamanca,El Campo de Peñaranda,37077,40.976291,-5.25135
Campo de San Pedro,Segovia,Campo de San Pedro,40039,41.42992,-3.54599
Campo de Villavidel,León,Campo de Villavidel,24033,42.43906,-5.52808
Campo Lameiro,Pontevedra,Campo Lameiro,36007,42.54382,-8.54286
Campo Lugar,Cáceres,Campo Lugar,10043,39.16761,-5.75336
Campo Real,Madrid,Campo Real,28033,40.339517,-3.380458
Campofrío,Huelva,Campofrío,21019,37.764894,-6.576772
Campolara,Burgos,Campolara,9066,42.11953,-3.4274
Camponaraya,León,Camponaraya,24034,42.579015,-6.669924
Campoo de Enmedio,Cantabria,Campoo de Enmedio,39027,42.967242,-4.115194
Campoo de Yuso,Cantabria,Campoo de Yuso,39017,43.00858,-4.014549
Camporredondo,Valladolid,Camporredondo,47032,41.47333,-4.50503
Camporrélls,Huesca,Camporrélls,22075,41.953793,0.529991
Camporrobles,Valencia,Camporrobles,46080,39.647152,-1.399675
Campos,Illes Balears,Campos,7013,39.430852,3.019209
Campos del Paraíso,Cuenca,Campos del Paraíso,16901,40.036386,-2.737212
Campos del Río,Murcia,Campos del Río,30014,38.040031,-1.351635
Campotéjar,Granada,Campotéjar,18038,37.482387,-3.616895
Camprodon,Girona,Camprodon,17039,42.311598,2.364891
Camprovín,La Rioja,Camprovín,26037,42.34753,-2.712425
Camuñas,Toledo,Camuñas,45034,39.428999,-3.457508
Canal de Berdún,Huesca,Canal de Berdún,22076,42.601249,-0.856119
Canalejas de Peñafiel,Valladolid,Canalejas de Peñafiel,47033,41.52513,-4.11546
Canalejas del Arroyo,Cuenca,Canalejas del Arroyo,16045,40.3685,-2.49408
Canales,Ávila,Canales,5046,40.667503,-4.663682
Canales de la Sierra,La Rioja,Canales de la Sierra,26038,42.14233,-3.02458
Canals,Valencia,Canals,46081,38.963127,-0.584444
Candamo,Asturias,Candamo,33010,43.45476,-6.05394
Candasnos,Huesca,Candasnos,22077,41.502615,0.064767
Candelaria,Santa Cruz de Tenerife,Candelaria,38011,28.332273,-16.368848
Candelario,Salamanca,Candelario,37078,40.367337,-5.743139
Candeleda,Ávila,Candeleda,5047,40.154493,-5.241504
Candilichera,Soria,Candilichera,42049,41.70434,-2.30123
Candín,León,Candín,24036,42.81695,-6.72848
Canejan,Lleida,Canejan,25063,42.83836,0.739
Canena,Jaén,Canena,23020,38.046177,-3.479017
Canencia,Madrid,Canencia,28034,40.907344,-3.738919
Canet d'Adri,Girona,Canet d'Adri,17040,42.03333,2.73333
Canet d'En Berenguer,Valencia,Canet d'En Berenguer,46082,39.67977,-0.220343
Canet de Mar,Barcelona,Canet de Mar,8040,41.590931,2.580201
Canet lo Roig,Castellón,Canet lo Roig,12036,40.55142,0.24308
Canfranc,Huesca,Canfranc,22078,42.747493,-0.514654
Cangas,Pontevedra,Cangas,36008,42.26413,-8.78462
Cangas de Onís,Asturias,Cangas de Onís,33012,43.351964,-5.128428
Cangas del Narcea,Asturias,Cangas del Narcea,33011,43.177444,-6.549715
Canicosa de la Sierra,Burgos,Canicosa de la Sierra,9067,41.93673,-3.04089
Caniles,Granada,Caniles,18039,37.435989,-2.722446
Canillas de Abajo,Salamanca,Canillas de Abajo,37079,40.92266,-5.92905
Canillas de Aceituno,Málaga,Canillas de Aceituno,29033,36.873341,-4.082895
Canillas de Albaida,Málaga,Canillas de Albaida,29034,36.84665,-3.98678
Canillas de Esgueva,Valladolid,Canillas de Esgueva,47034,41.75464,-4.12502
Canillas de Río Tuerto,La Rioja,Canillas de Río Tuerto,26039,42.3995,-2.84091
Canjáyar,Almería,Canjáyar,4030,37.00985,-2.740139
Canonja (La),Tarragona,La Canonja,43907,41.12041,1.184066
Canovelles,Barcelona,Canovelles,8041,41.61667,2.28333
Cànoves i Samalús,Barcelona,Cànoves i Samalús,8042,41.68333,2.35
Canredondo,Guadalajara,Canredondo,19064,40.81257,-2.49377
Cantabrana,Burgos,Cantabrana,9068,42.342869,-3.694385
Cantagallo,Salamanca,Cantagallo,37080,40.37239,-5.8189
Cantalapiedra,Salamanca,Cantalapiedra,37081,41.125763,-5.183367
Cantalejo,Segovia,Cantalejo,40040,41.259581,-3.9289
Cantallops,Girona,Cantallops,17041,42.42216,2.92524
Cantalojas,Guadalajara,Cantalojas,19065,41.23472,-3.24629
Cantalpino,Salamanca,Cantalpino,37082,41.053052,-5.330711
Cantaracillo,Salamanca,Cantaracillo,37083,40.90376,-5.16291
Cantavieja,Teruel,Cantavieja,44059,40.524358,-0.405618
Cantillana,Sevilla,Cantillana,41023,37.610227,-5.824314
Cantimpalos,Segovia,Cantimpalos,40041,41.0738,-4.160015
Cantiveros,Ávila,Cantiveros,5048,40.95216,-4.95455
Cantoria,Almería,Cantoria,4031,37.351722,-2.193388
Canyelles,Barcelona,Canyelles,8043,41.272894,1.713749
Cañada,Alicante,Cañada,3052,38.39711,-0.5831
Cañada de Benatanduz,Teruel,Cañada de Benatanduz,44060,40.57934,-0.53682
Cañada de Calatrava,Ciudad Real,Cañada de Calatrava,13029,38.85429,-4.02103
Cañada de Verich (La),Teruel,La Cañada de Verich,44061,40.856445,-0.100266
Cañada del Hoyo,Cuenca,Cañada del Hoyo,16046,39.96667,-1.9
Cañada Juncosa,Cuenca,Cañada Juncosa,16047,39.54864,-2.24992
Cañada Rosal,Sevilla,Cañada Rosal,41901,37.598036,-5.210993
Cañada Vellida,Teruel,Cañada Vellida,44062,40.70811,-0.91489
Cañamaque,Soria,Cañamaque,42050,41.44453,-2.23792
Cañamares,Cuenca,Cañamares,16048,40.451082,-2.239553
Cañamero,Cáceres,Cañamero,10044,39.380414,-5.38797
Cáñar,Granada,Cáñar,18040,36.92684,-3.42808
Cañas,La Rioja,Cañas,26040,42.3924,-2.84649
Cañavate (El),Cuenca,El Cañavate,16049,39.541027,-2.327098
Cañaveral,Cáceres,Cañaveral,10045,39.793415,-6.389006
Cañaveral de León,Huelva,Cañaveral de León,21020,38.01667,-6.51667
Cañaveras,Cuenca,Cañaveras,16050,40.35994,-2.39611
Cañaveruelas,Cuenca,Cañaveruelas,16051,40.40024,-2.63719
Cañete,Cuenca,Cañete,16052,40.042758,-1.648563
Cañete de las Torres,Córdoba,Cañete de las Torres,14014,37.867096,-4.319282
Cañete la Real,Málaga,Cañete la Real,29035,36.951397,-5.02508
Cañiza (A),Pontevedra,A Cañiza,36009,42.213381,-8.276621
Cañizal,Zamora,Cañizal,49034,41.16654,-5.36828
Cañizar,Guadalajara,Cañizar,19066,40.76763,-3.06399
Cañizar del Olivar,Teruel,Cañizar del Olivar,44063,40.81622,-0.64567
Cañizares,Cuenca,Cañizares,16053,40.5187,-2.19201
Cañizo,Zamora,Cañizo,49035,41.76955,-5.50198
Capafonts,Tarragona,Capafonts,43039,41.3,1.03333
Caparroso,Navarra,Caparroso,31065,42.340044,-1.651342
Capçanes,Tarragona,Capçanes,43040,41.1,0.78333
Capdepera,Illes Balears,Capdepera,7014,39.714978,3.461558
Capdesaso,Huesca,Capdesaso,22079,41.84286,-0.18316
Capela (A),A Coruña,A Capela,15018,43.440323,-8.04108
Capella,Huesca,Capella,22080,42.19635,0.39637
Capellades,Barcelona,Capellades,8044,41.530204,1.685225
Capileira,Granada,Capileira,18042,36.96148,-3.35864
Capilla,Badajoz,Capilla,6030,38.82036,-5.08417
Capillas,Palencia,Capillas,34045,42.01362,-4.89051
Capmany,Girona,Capmany,17042,42.37351,2.92026
Capolat,Barcelona,Capolat,8045,42.0772,1.75352
Carabantes,Soria,Carabantes,42051,41.55211,-1.9981
Carabaña,Madrid,Carabaña,28035,40.256871,-3.238404
Carabias,Segovia,Carabias,40161,41.44271,-3.67423
Caracena,Soria,Caracena,42052,41.38321,-3.09146
Caracuel de Calatrava,Ciudad Real,Caracuel de Calatrava,13030,38.84522,-4.06339
Carataunas,Granada,Carataunas,18043,36.92204,-3.40834
Caravaca de la Cruz,Murcia,Caravaca de la Cruz,30015,38.105154,-1.862292
Caravia,Asturias,Caravia,33013,43.46058,-5.19181
Carazo,Burgos,Carazo,9070,41.969444,-3.353889
Carbajales de Alba,Zamora,Carbajales de Alba,49036,41.65347,-5.99706
Carbajo,Cáceres,Carbajo,10046,39.60333,-7.19565
Carbajosa de la Sagrada,Salamanca,Carbajosa de la Sagrada,37085,40.935082,-5.648178
