municipio,provincia,municipio_nombre_humano,lat,lon,elevation
Agurain/Salvatierra,Álava,Agurain/Salvatierra,42.847308,-2.392287,593
Alegría-Dulantzi,Álava,Alegría-Dulantzi,42.841339,-2.51244,566
Amurrio,Álava,Amurrio,43.052099,-3.001084,222
Añana,Álava,Añana,42.80199,-2.98636,573
Aramaio,Álava,Aramaio,43.039,-2.60173,821
Armiñón,Álava,Armiñón,42.72313,-2.87172,464
Arraia-Maeztu,Álava,Arraia-Maeztu,42.74284,-2.44683,644
Arratzua-Ubarrundia,Álava,Arratzua-Ubarrundia,42.889187,-2.639355,515
Artziniega,Álava,Artziniega,43.120812,-3.127981,189
Asparrena,Álava,Asparrena,42.889667,-2.316775,608
Ayala/Aiara,Álava,Ayala/Aiara,43.069205,-3.024081,222
Baños de Ebro/Mañueta,Álava,Baños de Ebro/Mañueta,42.52997,-2.67924,433
Barrundia,Álava,Barrundia,42.91377,-2.5071,560
Berantevilla,Álava,Berantevilla,42.68254,-2.85832,474
Bernedo,Álava,Bernedo,42.62663,-2.49784,724
Campezo/Kanpezu,Álava,Campezo/Kanpezu,42.69412,-2.36442,714
Elburgo/Burgelu,Álava,Elburgo/Burgelu,42.84972,-2.54513,542
Elciego,Álava,Elciego,42.515216,-2.619526,463
Elvillar/Bilar,Álava,Elvillar/Bilar,42.56994,-2.54502,592
Erriberabeitia,Álava,Erriberabeitia,42.910532,-2.754306,680
Erriberagoitia/Ribera Alta,Álava,Erriberagoitia/Ribera Alta,42.910532,-2.754306,680
Harana/Valle de Arana,Álava,Harana/Valle de Arana,42.910532,-2.754306,680
Iruña Oka/Iruña de Oca,Álava,Iruña Oka/Iruña de Oca,42.82931,-2.81194,600
Iruraiz-Gauna,Álava,Iruraiz-Gauna,42.82001,-2.49002,614
Kripan,Álava,Kripan,42.59113,-2.51656,682
Kuartango,Álava,Kuartango,42.895743,-2.933869,783
Labastida/Bastida,Álava,Labastida/Bastida,42.588749,-2.796281,527
Lagrán,Álava,Lagrán,42.62625,-2.58385,750
Laguardia,Álava,Laguardia,42.553699,-2.584773,638
Lanciego/Lantziego,Álava,Lanciego/Lantziego,42.56248,-2.51343,538
Lantarón,Álava,Lantarón,42.728169,-3.004472,465
Lapuebla de Labarca,Álava,Lapuebla de Labarca,42.49454,-2.5734,441
Laudio/Llodio,Álava,Laudio/Llodio,43.142083,-2.959191,123
Legutio,Álava,Legutio,42.979847,-2.642626,568
Leza,Álava,Leza,42.56552,-2.63324,570
Moreda de Álava/Moreda Araba,Álava,Moreda de Álava/Moreda Araba,42.52571,-2.40828,454
Navaridas,Álava,Navaridas,42.54566,-2.6265,496
Okondo,Álava,Okondo,43.179363,-3.00113,404
Oyón-Oion,Álava,Oyón-Oion,42.505159,-2.435766,435
Peñacerrada-Urizaharra,Álava,Peñacerrada-Urizaharra,42.64356,-2.70796,756
Samaniego,Álava,Samaniego,42.56854,-2.67974,568
San Millán/Donemiliaga,Álava,San Millán/Donemiliaga,42.92552,-2.42733,622
Urkabustaiz,Álava,Urkabustaiz,42.972748,-2.920274,698
Valdegovía/Gaubea,Álava,Valdegovía/Gaubea,42.84777,-3.09883,552
Villabuena de Álava/Eskuernaga,Álava,Villabuena de Álava/Eskuernaga,42.54788,-2.66552,482
Vitoria-Gasteiz,Álava,Vitoria-Gasteiz,42.854747,-2.676179,516
Yécora/Iekora,Álava,Yécora/Iekora,42.5681,-2.47038,682
Zalduondo,Álava,Zalduondo,42.884831,-2.349995,606
Zambrana,Álava,Zambrana,42.66102,-2.87909,460
Zigoitia,Álava,Zigoitia,42.97258,-2.72226,640
Zuia,Álava,Zuia,42.98404,-2.830075,650
Abengibre,Albacete,Abengibre,39.209727,-1.541551,647
Alatoz,Albacete,Alatoz,39.09495,-1.36098,856
Albacete,Albacete,Albacete,38.995097,-1.86197,687
Albatana,Albacete,Albatana,38.571977,-1.522897,586
Alborea,Albacete,Alborea,39.278861,-1.394938,706
Alcadozo,Albacete,Alcadozo,38.648845,-1.979948,928
Alcalá del Júcar,Albacete,Alcalá del Júcar,39.2,-1.43333,681
Alcaraz,Albacete,Alcaraz,38.697248,-2.531032,952
Almansa,Albacete,Almansa,38.869442,-1.104684,707
Alpera,Albacete,Alpera,38.95838,-1.231399,856
Ayna,Albacete,Ayna,38.55,-2.08333,669
Balazote,Albacete,Balazote,38.885548,-2.154767,790
Ballestero (El),Albacete,El Ballestero,38.84179,-2.45608,1030
Balsa de Ves,Albacete,Balsa de Ves,39.26667,-1.2,733
Barrax,Albacete,Barrax,39.045505,-2.2014,729
Bienservida,Albacete,Bienservida,38.51716,-2.61087,891
Bogarra,Albacete,Bogarra,38.58139,-2.2129,872
Bonete,Albacete,Bonete,38.871511,-1.348672,898
Bonillo (El),Albacete,El Bonillo,38.950366,-2.539122,1066
Carcelén,Albacete,Carcelén,39.10202,-1.30879,929
Casas de Juan Núñez,Albacete,Casas de Juan Núñez,39.101931,-1.558941,709
Casas de Lázaro,Albacete,Casas de Lázaro,38.77056,-2.24044,945
Casas de Ves,Albacete,Casas de Ves,39.25847,-1.333317,706
Casas-Ibáñez,Albacete,Casas-Ibáñez,39.286062,-1.472436,711
Caudete,Albacete,Caudete,38.704119,-0.982596,538
Cenizate,Albacete,Cenizate,39.302534,-1.662663,715
Chinchilla de Monte-Aragón,Albacete,Chinchilla de Monte-Aragón,38.920442,-1.724524,906
Corral-Rubio,Albacete,Corral-Rubio,38.83462,-1.46034,873
Cotillas,Albacete,Cotillas,38.43115,-2.5055,928
Elche de la Sierra,Albacete,Elche de la Sierra,38.450066,-2.048251,647
Férez,Albacete,Férez,38.35,-2.0,666
Fuensanta,Albacete,Fuensanta,39.23333,-2.06667,715
Fuente-Álamo,Albacete,Fuente-Álamo,38.692302,-1.431733,821
Fuentealbilla,Albacete,Fuentealbilla,39.268081,-1.550586,666
Gineta (La),Albacete,La Gineta,39.113108,-1.995466,689
Golosalvo,Albacete,Golosalvo,39.23333,-1.63333,715
Hellín,Albacete,Hellín,38.511341,-1.700442,559
Herrera (La),Albacete,La Herrera,38.61931,-1.78428,727
Higueruela,Albacete,Higueruela,38.962437,-1.442711,1012
Hoya-Gonzalo,Albacete,Hoya-Gonzalo,38.9579,-1.55679,936
Jorquera,Albacete,Jorquera,39.16667,-1.51667,659
Letur,Albacete,Letur,38.36626,-2.10206,738
Lezuza,Albacete,Lezuza,38.949114,-2.355022,917
Liétor,Albacete,Liétor,38.542124,-1.954139,673
Madrigueras,Albacete,Madrigueras,39.236245,-1.801448,693
Mahora,Albacete,Mahora,39.212436,-1.725506,667
Masegoso,Albacete,Masegoso,38.716894,-2.319049,1134
Minaya,Albacete,Minaya,39.269856,-2.321385,728
Molinicos,Albacete,Molinicos,38.46717,-2.23939,848
Montalvos,Albacete,Montalvos,39.16667,-2.01667,706
Montealegre del Castillo,Albacete,Montealegre del Castillo,38.788701,-1.326689,808
Motilleja,Albacete,Motilleja,39.179532,-1.791175,682
Munera,Albacete,Munera,39.040675,-2.481521,933
Navas de Jorquera,Albacete,Navas de Jorquera,39.28333,-1.71667,705
Nerpio,Albacete,Nerpio,38.1475,-2.30202,1088
Ontur,Albacete,Ontur,38.614717,-1.496775,664
Ossa de Montiel,Albacete,Ossa de Montiel,38.964586,-2.745895,914
Paterna del Madera,Albacete,Paterna del Madera,38.59751,-2.34421,1115
Peñas de San Pedro,Albacete,Peñas de San Pedro,38.725749,-2.000757,1007
Peñascosa,Albacete,Peñascosa,38.67215,-2.40991,1170
Pétrola,Albacete,Pétrola,38.82628,-1.55662,873
Povedilla,Albacete,Povedilla,38.70022,-2.60212,869
Pozo Cañada,Albacete,Pozo Cañada,38.800099,-1.731457,810
Pozohondo,Albacete,Pozohondo,38.719396,-1.910827,869
Pozo-Lorente,Albacete,Pozo-Lorente,39.076172,-1.506999,774
Pozuelo,Albacete,Pozuelo,38.80989,-2.10101,851
Recueja (La),Albacete,La Recueja,39.18333,-1.48333,539
Riópar,Albacete,Riópar,38.498214,-2.417356,969
Robledo,Albacete,Robledo,38.772166,-2.429938,983
Roda (La),Albacete,La Roda,39.205464,-2.159211,708
Salobre,Albacete,Salobre,38.59297,-2.55038,915
San Pedro,Albacete,San Pedro,38.826557,-2.186231,844
Socovos,Albacete,Socovos,38.333014,-1.985622,739
Tarazona de la Mancha,Albacete,Tarazona de la Mancha,39.263047,-1.913329,715
Tobarra,Albacete,Tobarra,38.592141,-1.690738,640
Valdeganga,Albacete,Valdeganga,39.134507,-1.677173,667
Vianos,Albacete,Vianos,38.63316,-2.50045,1118
Villa de Ves,Albacete,Villa de Ves,39.2,-1.23333,666
Villalgordo del Júcar,Albacete,Villalgordo del Júcar,39.296005,-2.062247,692
Villamalea,Albacete,Villamalea,39.361525,-1.59769,742
Villapalacios,Albacete,Villapalacios,38.578937,-2.632598,821
Villarrobledo,Albacete,Villarrobledo,39.267868,-2.601427,729
Villatoya,Albacete,Villatoya,39.319141,-1.331182,518
Villavaliente,Albacete,Villavaliente,39.12646,-1.45712,728
Villaverde de Guadalimar,Albacete,Villaverde de Guadalimar,38.45525,-2.51782,799
Viveros,Albacete,Viveros,38.771487,-2.57414,1005
Yeste,Albacete,Yeste,38.367359,-2.319032,914
Agost,Alicante,Agost,38.435937,-0.638589,312
Agres,Alicante,Agres,38.78333,-0.51667,674
Aigües,Alicante,Aigües,38.501351,-0.364025,333
Albatera,Alicante,Albatera,38.180289,-0.872395,26
Alcalalí,Alicante,Alcalalí,38.754724,-0.043421,278
Alcocer de Planes,Alicante,Alcocer de Planes,38.79501,-0.40244,357
Alcoleja,Alicante,Alcoleja,38.66992,-0.32382,789
Alcoy/Alcoi,Alicante,Alcoy/Alcoi,38.701616,-0.476523,540
Alfafara,Alicante,Alfafara,38.77339,-0.55551,582
Alfàs del Pi (l'),Alicante,L' Alfàs del Pi,38.566318,-0.104676,63
Algorfa,Alicante,Algorfa,38.084582,-0.796363,27
Algueña,Alicante,Algueña,38.339218,-1.002629,535
Alicante/Alacant,Alicante,Alicante/Alacant,38.360892,-0.486281,56
Almoradí,Alicante,Almoradí,38.110237,-0.792414,20
Almudaina,Alicante,Almudaina,38.75999,-0.35149,592
Alqueria d'Asnar (l'),Alicante,L' Alqueria d'Asnar,38.360892,-0.486281,56
Altea,Alicante,Altea,38.596675,-0.055608,50
Aspe,Alicante,Aspe,38.343766,-0.766951,247
Atzúbia (l'),Alicante,L' Atzúbia,38.338892,-0.509477,31
Balones,Alicante,Balones,38.73726,-0.34324,665
Banyeres de Mariola,Alicante,Banyeres de Mariola,38.715255,-0.660488,761
Benasau,Alicante,Benasau,38.69047,-0.34278,706
Beneixama,Alicante,Beneixama,38.701806,-0.765858,598
Benejúzar,Alicante,Benejúzar,38.076894,-0.838707,32
Benferri,Alicante,Benferri,38.144565,-0.963573,52
Beniarbeig,Alicante,Beniarbeig,38.822288,-0.006177,51
Beniardá,Alicante,Beniardá,38.68433,-0.21629,463
Beniarrés,Alicante,Beniarrés,38.820507,-0.378199,392
Benidoleig,Alicante,Benidoleig,38.7919,-0.03162,111
Benidorm,Alicante,Benidorm,38.542305,-0.127103,34
Benifallim,Alicante,Benifallim,38.66259,-0.39994,734
Benifato,Alicante,Benifato,38.67395,-0.2292,658
Benigembla,Alicante,Benigembla,38.75494,-0.10903,317
Benijófar,Alicante,Benijófar,38.062653,-0.745904,18
Benilloba,Alicante,Benilloba,38.70012,-0.38998,529
Benillup,Alicante,Benillup,38.75398,-0.37991,541
Benimantell,Alicante,Benimantell,38.67709,-0.21057,531
Benimarfull,Alicante,Benimarfull,38.7759,-0.39079,419
Benimassot,Alicante,Benimassot,38.75,-0.28333,771
Benimeli,Alicante,Benimeli,38.82362,-0.04221,106
Benissa,Alicante,Benissa,38.715345,0.051209,264
Benitachell/Poble Nou de Benitatxell (el),Alicante,El Benitachell/Poble Nou de Benitatxell,38.724094,0.150938,143
Biar,Alicante,Biar,38.62662,-0.7623,706
Bigastro,Alicante,Bigastro,38.06162,-0.894344,42
Bolulla,Alicante,Bolulla,38.67529,-0.11184,216
Busot,Alicante,Busot,38.464904,-0.432603,204
Callosa de Segura,Alicante,Callosa de Segura,38.126098,-0.875694,22
Callosa d'en Sarrià,Alicante,Callosa d'en Sarrià,38.64888,-0.123885,218
Calp,Alicante,Calp,38.658408,0.05646,34
Campello (el),Alicante,El Campello,38.428712,-0.400416,32
Campo de Mirra/Camp de Mirra (el),Alicante,El Campo de Mirra/Camp de Mirra,38.70001,-0.79462,598
Cañada,Alicante,Cañada,38.39711,-0.5831,158
Castalla,Alicante,Castalla,38.599887,-0.667946,652
Castell de Castells,Alicante,Castell de Castells,38.735695,-0.187075,827
Castell de Guadalest (el),Alicante,El Castell de Guadalest,38.6768,-0.19908,557
Catral,Alicante,Catral,38.16056,-0.802149,10
Cocentaina,Alicante,Cocentaina,38.754923,-0.441782,452
Confrides,Alicante,Confrides,38.68451,-0.2689,780
Cox,Alicante,Cox,38.141697,-0.887969,18
Crevillent,Alicante,Crevillent,38.247745,-0.814187,134
Daya Nueva,Alicante,Daya Nueva,38.113322,-0.761471,11
Daya Vieja,Alicante,Daya Vieja,38.1048,-0.73804,7
Dénia,Alicante,Dénia,38.840863,0.103315,13
Dolores,Alicante,Dolores,38.139232,-0.769951,11
Elche/Elx,Alicante,Elche/Elx,38.262084,-0.700594,76
Elda,Alicante,Elda,38.47616,-0.795528,401
Facheca,Alicante,Facheca,38.735,-0.26766,770
Famorca,Alicante,Famorca,38.73101,-0.24726,715
Finestrat,Alicante,Finestrat,38.5671,-0.212203,270
Fondó de les Neus (el)/Hondón de las Nieves,Alicante,El Fondó de les Neus/Hondón de las Nieves,38.308625,-0.851245,361
Formentera del Segura,Alicante,Formentera del Segura,38.084955,-0.745611,11
Gaianes,Alicante,Gaianes,38.8164,-0.40881,437
Gata de Gorgos,Alicante,Gata de Gorgos,38.774048,0.083486,85
Gorga,Alicante,Gorga,38.71896,-0.35589,560
Granja de Rocamora,Alicante,Granja de Rocamora,38.15353,-0.892395,17
Guardamar del Segura,Alicante,Guardamar del Segura,38.090032,-0.658152,46
Hondón de los Frailes,Alicante,Hondón de los Frailes,38.273571,-0.926858,414
Ibi,Alicante,Ibi,38.618356,-0.580273,706
Jacarilla,Alicante,Jacarilla,38.060975,-0.867996,26
Jávea/Xàbia,Alicante,Jávea/Xàbia,38.785694,0.150464,60
Jijona/Xixona,Alicante,Jijona/Xixona,38.532651,-0.506731,421
Llíber,Alicante,Llíber,38.74272,-0.006,180
Lorcha/Orxa (l'),Alicante,L' Lorcha/Orxa,38.360892,-0.486281,56
Millena,Alicante,Millena,38.73082,-0.36274,638
Monforte del Cid,Alicante,Monforte del Cid,38.379799,-0.722666,222
Monóvar/Monòver,Alicante,Monóvar/Monòver,38.436388,-0.840944,395
Montesinos (Los),Alicante,Los Montesinos,38.027433,-0.745376,23
Murla,Alicante,Murla,38.76037,-0.08208,283
Muro de Alcoy,Alicante,Muro de Alcoy,38.780312,-0.440017,412
Mutxamel,Alicante,Mutxamel,38.407895,-0.448889,68
Novelda,Alicante,Novelda,38.385706,-0.768862,249
Nucia (la),Alicante,La Nucia,38.599959,-0.132423,266
Ondara,Alicante,Ondara,38.824783,0.020541,42
Onil,Alicante,Onil,38.628054,-0.675278,693
Orba,Alicante,Orba,38.780068,-0.058304,159
Orihuela,Alicante,Orihuela,38.082111,-0.946934,28
Orxeta,Alicante,Orxeta,38.56397,-0.26299,195
Parcent,Alicante,Parcent,38.7457,-0.064354,285
Pedreguer,Alicante,Pedreguer,38.793927,0.035132,83
Pego,Alicante,Pego,38.841697,-0.115876,70
Penàguila,Alicante,Penàguila,38.68,-0.35845,686
Petrer,Alicante,Petrer,38.484322,-0.779674,437
Pilar de la Horadada,Alicante,Pilar de la Horadada,37.862662,-0.788448,27
Pinós (el)/Pinoso,Alicante,El Pinós/Pinoso,38.400231,-1.043137,570
Planes,Alicante,Planes,38.788175,-0.327363,500
Poblets (els),Alicante,Els Poblets,38.85381,0.02103,11
Polop,Alicante,Polop,38.620263,-0.133733,231
Quatretondeta,Alicante,Quatretondeta,38.72415,-0.31669,631
Rafal,Alicante,Rafal,38.103409,-0.848648,17
Ràfol d'Almúnia (el),Alicante,El Ràfol d'Almúnia,38.8212,-0.05171,89
Redován,Alicante,Redován,38.113556,-0.906116,29
Relleu,Alicante,Relleu,38.588602,-0.310327,456
Rojales,Alicante,Rojales,38.084971,-0.711904,13
Romana (la),Alicante,La Romana,38.36667,-0.9,431
Sagra,Alicante,Sagra,38.817249,-0.068787,218
Salinas,Alicante,Salinas,38.520186,-0.911996,490
San Fulgencio,Alicante,San Fulgencio,38.11362,-0.717969,10
San Isidro,Alicante,San Isidro,38.172481,-0.839029,9
San Miguel de Salinas,Alicante,San Miguel de Salinas,37.97764,-0.789116,82
San Vicente del Raspeig/Sant Vicent del Raspeig,Alicante,San Vicente del Raspeig/Sant Vicent del Raspeig,38.360892,-0.486281,56
Sanet y Negrals,Alicante,Sanet y Negrals,38.81967,-0.03406,89
Sant Joan d'Alacant,Alicante,Sant Joan d'Alacant,38.400609,-0.434204,45
Santa Pola,Alicante,Santa Pola,38.194063,-0.554262,18
Sax,Alicante,Sax,38.534929,-0.820677,476
Sella,Alicante,Sella,38.808107,0.053144,107
Senija,Alicante,Senija,38.72804,0.04176,235
Tàrbena,Alicante,Tàrbena,38.69413,-0.10141,534
Teulada,Alicante,Teulada,38.729169,0.10546,194
Tibi,Alicante,Tibi,38.53353,-0.576694,551
Tollos,Alicante,Tollos,38.75629,-0.27466,789
Tormos,Alicante,Tormos,38.80143,-0.0716,124
Torremanzanas/Torre de les Maçanes (la),Alicante,La Torremanzanas/Torre de les Maçanes,38.604168,-0.415178,765
Torrevieja,Alicante,Torrevieja,37.985608,-0.673845,24
Vall d'Alcalà (la),Alicante,La Vall d'Alcalà,38.79477,-0.25138,647
Vall de Gallinera,Alicante,Vall de Gallinera,38.82313,-0.2417,322
Vall de Laguar (la),Alicante,La Vall de Laguar,38.781025,-0.124025,223
Vall d'Ebo (la),Alicante,La Vall d'Ebo,38.80561,-0.1589,404
Verger (el),Alicante,El Verger,38.856576,0.013177,11
Villajoyosa/Vila Joiosa (la),Alicante,La Villajoyosa/Vila Joiosa,38.508793,-0.231359,36
Villena,Alicante,Villena,38.634512,-0.864459,527
Xaló,Alicante,Xaló,38.739807,-0.01167,200
Abla,Almería,Abla,37.141895,-2.778084,874
Abrucena,Almería,Abrucena,37.133457,-2.796909,954
Adra,Almería,Adra,36.748564,-3.017817,16
Albanchez,Almería,Albanchez,37.28361,-2.18229,491
Alboloduy,Almería,Alboloduy,37.03346,-2.62164,383
Albox,Almería,Albox,37.390608,-2.14149,440
Alcolea,Almería,Alcolea,36.97458,-2.9615,744
Alcóntar,Almería,Alcóntar,37.257894,-2.606439,1588
Alcudia de Monteagud,Almería,Alcudia de Monteagud,37.23529,-2.2665,1037
Alhabia,Almería,Alhabia,36.99003,-2.58655,302
Alhama de Almería,Almería,Alhama de Almería,36.957334,-2.568298,513
Alicún,Almería,Alicún,36.9658,-2.60212,435
Almería,Almería,Almería,36.844845,-2.456009,31
Almócita,Almería,Almócita,37.00262,-2.79051,841
Alsodux,Almería,Alsodux,37.00246,-2.59476,317
Antas,Almería,Antas,37.251074,-1.912721,109
Arboleas,Almería,Arboleas,37.351749,-2.07427,286
Armuña de Almanzora,Almería,Armuña de Almanzora,37.3503,-2.4115,605
Bacares,Almería,Bacares,37.25984,-2.45308,1235
Balanegra,Almería,Balanegra,36.748857,-2.913608,5
Bayárcal,Almería,Bayárcal,37.03073,-2.99606,1229
Bayarque,Almería,Bayarque,37.33062,-2.4361,809
Bédar,Almería,Bédar,37.19389,-1.98166,394
Beires,Almería,Beires,37.01237,-2.79134,908
Benahadux,Almería,Benahadux,36.927292,-2.460343,132
Benitagla,Almería,Benitagla,37.23138,-2.23935,960
Benizalón,Almería,Benizalón,37.21213,-2.2418,938
Bentarique,Almería,Bentarique,36.98823,-2.61991,326
Berja,Almería,Berja,36.844738,-2.94636,335
Canjáyar,Almería,Canjáyar,37.00985,-2.740139,616
Cantoria,Almería,Cantoria,37.351722,-2.193388,380
Carboneras,Almería,Carboneras,36.999559,-1.893074,10
Castro de Filabres,Almería,Castro de Filabres,37.18484,-2.44024,962
Chercos,Almería,Chercos,37.2545,-2.26657,886
Chirivel,Almería,Chirivel,37.596309,-2.271043,1058
Cóbdar,Almería,Cóbdar,37.26166,-2.21098,629
Cuevas del Almanzora,Almería,Cuevas del Almanzora,37.295319,-1.877738,81
Dalías,Almería,Dalías,36.820318,-2.87108,407
Ejido (El),Almería,El Ejido,36.773918,-2.814736,85
Enix,Almería,Enix,36.87732,-2.6018,712
Felix,Almería,Felix,36.86911,-2.65845,836
Fines,Almería,Fines,37.363771,-2.267433,458
Fiñana,Almería,Fiñana,37.169512,-2.839102,927
Fondón,Almería,Fondón,36.9802,-2.85957,847
Gádor,Almería,Gádor,36.952951,-2.491341,161
Gallardos (Los),Almería,Los Gallardos,37.168106,-1.940568,115
Garrucha,Almería,Garrucha,37.182789,-1.820321,-3
Gérgal,Almería,Gérgal,37.11886,-2.54012,771
Huécija,Almería,Huécija,36.96804,-2.6094,416
Huércal de Almería,Almería,Huércal de Almería,36.880862,-2.441678,88
Huércal-Overa,Almería,Huércal-Overa,37.395639,-1.945354,285
Íllar,Almería,Íllar,36.98562,-2.63871,413
Instinción,Almería,Instinción,36.99344,-2.66046,440
Laroya,Almería,Laroya,37.29771,-2.33419,976
Láujar de Andarax,Almería,Láujar de Andarax,36.99416,-2.893955,936
Líjar,Almería,Líjar,37.29492,-2.21937,586
Lubrín,Almería,Lubrín,37.21538,-2.06678,520
Lucainena de las Torres,Almería,Lucainena de las Torres,37.04038,-2.20095,553
Lúcar,Almería,Lúcar,37.40035,-2.42496,895
Macael,Almería,Macael,37.335906,-2.290791,565
María,Almería,María,37.710788,-2.164725,1197
Mojácar,Almería,Mojácar,37.120291,-1.837481,23
Mojonera (La),Almería,La Mojonera,36.752832,-2.681988,41
Nacimiento,Almería,Nacimiento,37.10615,-2.64846,590
Níjar,Almería,Níjar,36.964012,-2.207395,330
Ohanes,Almería,Ohanes,37.03861,-2.74524,987
Olula de Castro,Almería,Olula de Castro,37.17475,-2.4743,973
Olula del Río,Almería,Olula del Río,37.353887,-2.29565,469
Oria,Almería,Oria,37.48397,-2.295461,1043
Padules,Almería,Padules,36.977131,-2.764865,883
Partaloa,Almería,Partaloa,37.40764,-2.22526,553
Paterna del Río,Almería,Paterna del Río,37.02222,-2.95343,1203
Pechina,Almería,Pechina,37.34612,-2.57895,893
Pulpí,Almería,Pulpí,37.41134,-1.746038,193
Purchena,Almería,Purchena,37.34761,-2.361655,555
Rágol,Almería,Rágol,36.99523,-2.68178,423
Rioja,Almería,Rioja,36.943298,-2.462973,126
Roquetas de Mar,Almería,Roquetas de Mar,36.766784,-2.610328,3
Santa Cruz de Marchena,Almería,Santa Cruz de Marchena,37.01736,-2.60337,337
Santa Fe de Mondújar,Almería,Santa Fe de Mondújar,36.97479,-2.53126,230
Senés,Almería,Senés,37.20367,-2.34631,979
Serón,Almería,Serón,37.343094,-2.510717,850
Sierro,Almería,Sierro,37.32237,-2.39844,754
Somontín,Almería,Somontín,37.39176,-2.38828,837
Sorbas,Almería,Sorbas,37.098392,-2.123837,409
Suflí,Almería,Suflí,37.33866,-2.38817,632
Tabernas,Almería,Tabernas,37.052305,-2.392007,436
Taberno,Almería,Taberno,37.4688,-2.07736,716
Tahal,Almería,Tahal,37.22797,-2.2847,1005
Terque,Almería,Terque,36.98393,-2.59679,292
Tíjola,Almería,Tíjola,37.34643,-2.433715,679
Tres Villas (Las),Almería,Las Tres Villas,37.158261,-2.715906,853
Turre,Almería,Turre,37.152363,-1.894506,51
Turrillas,Almería,Turrillas,37.02948,-2.26607,826
Uleila del Campo,Almería,Uleila del Campo,37.1846,-2.20491,613
Urrácal,Almería,Urrácal,37.3974,-2.36485,742
Velefique,Almería,Velefique,37.19407,-2.40155,920
Vélez-Blanco,Almería,Vélez-Blanco,37.692512,-2.095392,1053
Vélez-Rubio,Almería,Vélez-Rubio,37.647982,-2.075089,837
Vera,Almería,Vera,37.246352,-1.868843,107
Viator,Almería,Viator,36.882156,-2.417627,87
Vícar,Almería,Vícar,36.80006,-2.647875,107
Zurgena,Almería,Zurgena,37.34218,-2.03985,245
Adanero,Ávila,Adanero,40.94487,-4.60561,908
Adrada (La),Ávila,La Adrada,40.30084,-4.635961,628
Albornos,Ávila,Albornos,40.83795,-4.88129,910
Aldeanueva de Santa Cruz,Ávila,Aldeanueva de Santa Cruz,40.38189,-5.42142,1156
Aldeaseca,Ávila,Aldeaseca,41.04912,-4.81707,860
Aldehuela (La),Ávila,La Aldehuela,40.41092,-5.40983,1081
Amavida,Ávila,Amavida,40.57371,-5.06541,1183
Arenal (El),Ávila,El Arenal,40.265205,-5.086847,897
Arenas de San Pedro,Ávila,Arenas de San Pedro,40.211957,-5.085076,537
Arevalillo,Ávila,Arevalillo,40.588392,-5.371343,1149
Arévalo,Ávila,Arévalo,41.062326,-4.720047,828
Aveinte,Ávila,Aveinte,40.78227,-4.83649,996
Avellaneda,Ávila,Avellaneda,40.38909,-5.38811,1347
Ávila,Ávila,Ávila,40.646709,-4.701896,1065
Barco de Ávila (El),Ávila,El Barco de Ávila,40.357166,-5.521441,1024
Barraco (El),Ávila,El Barraco,40.477362,-4.645228,1028
Barromán,Ávila,Barromán,41.06536,-4.93066,795
Becedas,Ávila,Becedas,40.40369,-5.63577,1109
Becedillas,Ávila,Becedillas,40.53821,-5.32561,1073
Bercial de Zapardiel,Ávila,Bercial de Zapardiel,41.04675,-4.9691,807
Berlanas (Las),Ávila,Las Berlanas,40.800813,-4.76019,948
Bernuy-Zapardiel,Ávila,Bernuy-Zapardiel,40.9757,-4.94468,865
Berrocalejo de Aragona,Ávila,Berrocalejo de Aragona,40.69436,-4.59474,1091
Blascomillán,Ávila,Blascomillán,40.80146,-5.08703,951
Blasconuño de Matacabras,Ávila,Blasconuño de Matacabras,41.12368,-4.98983,784
Blascosancho,Ávila,Blascosancho,40.87744,-4.63743,905
Bohodón (El),Ávila,El Bohodón,40.91612,-4.73,884
Bohoyo,Ávila,Bohoyo,40.31584,-5.44294,1147
Bonilla de la Sierra,Ávila,Bonilla de la Sierra,40.53063,-5.26452,1080
Brabos,Ávila,Brabos,40.77846,-4.93934,983
Bularros,Ávila,Bularros,40.72808,-4.82914,1158
Burgohondo,Ávila,Burgohondo,40.414016,-4.785867,842
Cabezas de Alambre,Ávila,Cabezas de Alambre,40.94218,-4.84184,896
Cabezas del Pozo,Ávila,Cabezas del Pozo,41.00139,-4.95454,845
Cabezas del Villar,Ávila,Cabezas del Villar,40.715103,-5.210077,1047
Cabizuela,Ávila,Cabizuela,40.9009,-4.80212,887
Canales,Ávila,Canales,40.667503,-4.663682,1180
Candeleda,Ávila,Candeleda,40.154493,-5.241504,432
Cantiveros,Ávila,Cantiveros,40.95216,-4.95455,877
Cardeñosa,Ávila,Cardeñosa,40.7424,-4.74579,1107
Carrera (La),Ávila,La Carrera,40.45594,-5.42654,1016
Casas del Puerto,Ávila,Casas del Puerto,40.531848,-5.180026,1223
Casasola,Ávila,Casasola,40.665588,-4.820289,1305
Casavieja,Ávila,Casavieja,40.280552,-4.765836,546
Casillas,Ávila,Casillas,40.3261,-4.57182,1061
Castellanos de Zapardiel,Ávila,Castellanos de Zapardiel,41.0845,-4.90984,787
Cebreros,Ávila,Cebreros,40.45523,-4.463885,764
Cepeda la Mora,Ávila,Cepeda la Mora,40.4578,-5.04833,1498
Chamartín,Ávila,Chamartín,40.70267,-4.95769,1188
Cillán,Ávila,Cillán,40.70675,-4.98135,1191
Cisla,Ávila,Cisla,40.96662,-5.01406,850
Colilla (La),Ávila,La Colilla,40.644661,-4.760599,1110
Collado de Contreras,Ávila,Collado de Contreras,40.88743,-4.9314,914
Collado del Mirón,Ávila,Collado del Mirón,40.55307,-5.35398,1166
Constanzana,Ávila,Constanzana,40.93821,-4.87515,890
Crespos,Ávila,Crespos,40.870953,-4.970757,928
Cuevas del Valle,Ávila,Cuevas del Valle,40.29418,-5.00938,858
Diego del Carpio,Ávila,Diego del Carpio,40.666303,-5.33158,1028
Donjimeno,Ávila,Donjimeno,40.95978,-4.84627,884
Donvidas,Ávila,Donvidas,41.08954,-4.80634,868
Espinosa de los Caballeros,Ávila,Espinosa de los Caballeros,41.0087,-4.6537,858
Flores de Ávila,Ávila,Flores de Ávila,40.93358,-5.07914,895
Fontiveros,Ávila,Fontiveros,40.930535,-4.965307,888
Fresnedilla,Ávila,Fresnedilla,40.23233,-4.62201,619
Fresno (El),Ávila,El Fresno,40.61572,-4.75746,1076
Fuente el Saúz,Ávila,Fuente el Saúz,40.97771,-4.90825,877
Fuentes de Año,Ávila,Fuentes de Año,41.01769,-4.89908,824
Gallegos de Altamiros,Ávila,Gallegos de Altamiros,40.70634,-4.90643,1217
Gallegos de Sobrinos,Ávila,Gallegos de Sobrinos,40.71693,-5.11224,1158
Garganta del Villar,Ávila,Garganta del Villar,40.44965,-5.1042,1462
Gavilanes,Ávila,Gavilanes,40.27791,-4.85321,688
Gemuño,Ávila,Gemuño,40.59159,-4.78178,1108
Gil García,Ávila,Gil García,40.28104,-5.592565,1500
Gilbuena,Ávila,Gilbuena,40.42206,-5.59201,1149
Gimialcón,Ávila,Gimialcón,40.87705,-5.12308,945
Gotarrendura,Ávila,Gotarrendura,40.82652,-4.7409,932
Grandes y San Martín,Ávila,Grandes y San Martín,40.763114,-4.970927,1049
Guisando,Ávila,Guisando,40.22225,-5.1395,772
Gutierre-Muñoz,Ávila,Gutierre-Muñoz,40.98295,-4.63839,884
Hernansancho,Ávila,Hernansancho,40.85753,-4.73045,903
Herradón de Pinares,Ávila,Herradón de Pinares,40.597608,-4.495836,1361
Herreros de Suso,Ávila,Herreros de Suso,40.803861,-5.038958,1011
Higuera de las Dueñas,Ávila,Higuera de las Dueñas,40.23903,-4.60361,631
Hija de Dios (La),Ávila,La Hija de Dios,40.53013,-4.96734,1185
Horcajada (La),Ávila,La Horcajada,40.43674,-5.46615,1021
Horcajo de las Torres,Ávila,Horcajo de las Torres,41.06497,-5.09092,819
Hornillo (El),Ávila,El Hornillo,40.24994,-5.10356,738
Hoyo de Pinares (El),Ávila,El Hoyo de Pinares,40.5005,-4.422379,841
Hoyocasero,Ávila,Hoyocasero,40.3989,-4.97455,1355
Hoyorredondo,Ávila,Hoyorredondo,40.4627,-5.41097,1046
Hoyos de Miguel Muñoz,Ávila,Hoyos de Miguel Muñoz,40.39237,-5.06713,1540
Hoyos del Collado,Ávila,Hoyos del Collado,40.35945,-5.20027,1494
Hoyos del Espino,Ávila,Hoyos del Espino,40.35623,-5.17505,1439
Hurtumpascual,Ávila,Hurtumpascual,40.692,-5.11379,1172
Junciana,Ávila,Junciana,40.41076,-5.55698,999
Langa,Ávila,Langa,41.0055,-4.85946,869
Lanzahíta,Ávila,Lanzahíta,40.205188,-4.932959,462
Llanos de Tormes (Los),Ávila,Los Llanos de Tormes,40.32773,-5.50016,1047
Losar del Barco (El),Ávila,El Losar del Barco,40.397153,-5.537609,1003
Madrigal de las Altas Torres,Ávila,Madrigal de las Altas Torres,41.08999,-4.997505,811
Maello,Ávila,Maello,40.80929,-4.51186,1031
Malpartida de Corneja,Ávila,Malpartida de Corneja,40.52208,-5.35026,1024
Mamblas,Ávila,Mamblas,41.01925,-5.00874,818
Mancera de Arriba,Ávila,Mancera de Arriba,40.79139,-5.14772,942
Manjabálago y Ortigosa de Rioalmar,Ávila,Manjabálago y Ortigosa de Rioalmar,40.66441,-5.07719,1294
Marlín,Ávila,Marlín,40.712201,-4.827554,1222
Martiherrero,Ávila,Martiherrero,40.67392,-4.78156,1231
Martínez,Ávila,Martínez,40.63046,-5.34801,1103
Mediana de Voltoya,Ávila,Mediana de Voltoya,40.70104,-4.56341,1109
Medinilla,Ávila,Medinilla,40.43967,-5.61772,1065
Mengamuñoz,Ávila,Mengamuñoz,40.50006,-4.99983,1314
Mesegar de Corneja,Ávila,Mesegar de Corneja,40.50209,-5.30131,1023
Mijares,Ávila,Mijares,40.29654,-4.83651,858
Mingorría,Ávila,Mingorría,40.75192,-4.66583,1036
Mirón (El),Ávila,El Mirón,40.53322,-5.40552,1257
Mironcillo,Ávila,Mironcillo,40.55435,-4.82449,1120
Mirueña de los Infanzones,Ávila,Mirueña de los Infanzones,40.738133,-5.08621,1129
Mombeltrán,Ávila,Mombeltrán,40.260124,-5.017915,630
Monsalupe,Ávila,Monsalupe,40.76953,-4.78131,993
Moraleja de Matacabras,Ávila,Moraleja de Matacabras,41.10732,-4.95717,784
Muñana,Ávila,Muñana,40.59042,-5.01447,1171
Muñico,Ávila,Muñico,40.70678,-5.02717,1091
Muñogalindo,Ávila,Muñogalindo,40.60324,-4.89895,1132
Muñogrande,Ávila,Muñogrande,40.82181,-4.92224,945
Muñomer del Peco,Ávila,Muñomer del Peco,40.85878,-4.87992,897
Muñopepe,Ávila,Muñopepe,40.63408,-4.81876,1125
Muñosancho,Ávila,Muñosancho,40.92097,-5.03558,902
Muñotello,Ávila,Muñotello,40.54236,-5.04187,1164
Narrillos del Álamo,Ávila,Narrillos del Álamo,40.56673,-5.46584,1115
Narrillos del Rebollar,Ávila,Narrillos del Rebollar,40.66488,-4.96577,1375
Narros de Saldueña,Ávila,Narros de Saldueña,40.87268,-4.86908,896
Narros del Castillo,Ávila,Narros del Castillo,40.85869,-5.0601,956
Narros del Puerto,Ávila,Narros del Puerto,40.54131,-4.99292,1153
Nava de Arévalo,Ávila,Nava de Arévalo,40.97802,-4.77573,868
Nava del Barco,Ávila,Nava del Barco,40.29321,-5.54022,1145
Navacepedilla de Corneja,Ávila,Navacepedilla de Corneja,40.48602,-5.1838,1257
Navadijos,Ávila,Navadijos,40.42524,-5.08285,1518
Navaescurial,Ávila,Navaescurial,40.47163,-5.27756,1203
Navahondilla,Ávila,Navahondilla,40.3251,-4.49661,713
Navalacruz,Ávila,Navalacruz,40.43992,-4.93122,1232
Navalmoral,Ávila,Navalmoral,40.463493,-4.747432,1084
Navalonguilla,Ávila,Navalonguilla,40.27835,-5.50042,1171
Navalosa,Ávila,Navalosa,40.40212,-4.93,1329
Navalperal de Pinares,Ávila,Navalperal de Pinares,40.593808,-4.408051,1293
Navalperal de Tormes,Ávila,Navalperal de Tormes,40.3528,-5.30084,1303
Navaluenga,Ávila,Navaluenga,40.40875,-4.70533,756
Navaquesera,Ávila,Navaquesera,40.42558,-4.91108,1533
Navarredonda de Gredos,Ávila,Navarredonda de Gredos,40.361959,-5.132643,1529
Navarredondilla,Ávila,Navarredondilla,40.45416,-4.82199,1126
Navarrevisca,Ávila,Navarrevisca,40.36417,-4.89352,1145
Navas del Marqués (Las),Ávila,Las Navas del Marqués,40.602557,-4.333014,1303
Navatalgordo,Ávila,Navatalgordo,40.4152,-4.87155,1276
Navatejares,Ávila,Navatejares,40.33602,-5.5322,1043
Neila de San Miguel,Ávila,Neila de San Miguel,40.42372,-5.6509,1164
Niharra,Ávila,Niharra,40.58945,-4.83895,1089
Ojos-Albos,Ávila,Ojos-Albos,40.70596,-4.51633,1239
Orbita,Ávila,Orbita,40.99846,-4.64833,867
Oso (El),Ávila,El Oso,40.83984,-4.76964,898
Padiernos,Ávila,Padiernos,40.62168,-4.84523,1107
Pajares de Adaja,Ávila,Pajares de Adaja,40.92398,-4.64048,882
Palacios de Goda,Ávila,Palacios de Goda,41.11798,-4.78496,821
Papatrigo,Ávila,Papatrigo,40.86752,-4.832724,889
Parral (El),Ávila,El Parral,40.79858,-4.98994,1053
Pascualcobo,Ávila,Pascualcobo,40.65637,-5.27733,1071
Pedro Bernardo,Ávila,Pedro Bernardo,40.243187,-4.911729,764
Pedro-Rodríguez,Ávila,Pedro-Rodríguez,40.93727,-4.78571,877
Peguerinos,Ávila,Peguerinos,40.637548,-4.232541,1488
Peñalba de Ávila,Ávila,Peñalba de Ávila,40.821441,-4.679826,905
Piedrahíta,Ávila,Piedrahíta,40.465141,-5.326679,1058
Piedralaves,Ávila,Piedralaves,40.317135,-4.699035,722
Poveda,Ávila,Poveda,40.56799,-5.07909,1188
Poyales del Hoyo,Ávila,Poyales del Hoyo,40.17254,-5.16597,548
Pozanco,Ávila,Pozanco,40.80095,-4.66772,912
Pradosegar,Ávila,Pradosegar,40.5502,-5.07015,1166
Puerto Castilla,Ávila,Puerto Castilla,40.288,-5.62366,1174
Rasueros,Ávila,Rasueros,41.02344,-5.07377,833
Riocabado,Ávila,Riocabado,40.8314,-4.8043,908
Riofrío,Ávila,Riofrío,40.54866,-4.77796,1191
Rivilla de Barajas,Ávila,Rivilla de Barajas,40.79986,-4.76256,950
Salobral,Ávila,Salobral,40.61179,-4.81013,1087
Salvadiós,Ávila,Salvadiós,40.87836,-5.09629,948
San Bartolomé de Béjar,Ávila,San Bartolomé de Béjar,40.399535,-5.669318,1290
San Bartolomé de Corneja,Ávila,San Bartolomé de Corneja,40.49257,-5.38519,994
San Bartolomé de Pinares,Ávila,San Bartolomé de Pinares,40.542697,-4.539515,1060
San Esteban de los Patos,Ávila,San Esteban de los Patos,40.74705,-4.62413,1113
San Esteban de Zapardiel,Ávila,San Esteban de Zapardiel,41.0927,-4.90049,780
San Esteban del Valle,Ávila,San Esteban del Valle,40.2751,-4.98215,775
San García de Ingelmos,Ávila,San García de Ingelmos,40.773395,-5.11379,1052
San Juan de Gredos,Ávila,San Juan de Gredos,40.33732,-5.24838,1486
San Juan de la Encinilla,Ávila,San Juan de la Encinilla,40.8302,-4.83957,914
San Juan de la Nava,Ávila,San Juan de la Nava,40.47826,-4.681924,1109
San Juan del Molinillo,Ávila,San Juan del Molinillo,40.45909,-4.81711,1140
San Juan del Olmo,Ávila,San Juan del Olmo,40.636773,-5.058838,1345
San Lorenzo de Tormes,Ávila,San Lorenzo de Tormes,40.36984,-5.48848,1028
San Martín de la Vega del Alberche,Ávila,San Martín de la Vega del Alberche,40.667503,-4.663682,1180
San Martín del Pimpollar,Ávila,San Martín del Pimpollar,40.3683,-5.05443,1332
San Miguel de Corneja,Ávila,San Miguel de Corneja,40.48722,-5.28654,1064
San Miguel de Serrezuela,Ávila,San Miguel de Serrezuela,40.67064,-5.28858,1097
San Pascual,Ávila,San Pascual,40.88141,-4.75612,883
San Pedro del Arroyo,Ávila,San Pedro del Arroyo,40.80213,-4.87074,935
San Vicente de Arévalo,Ávila,San Vicente de Arévalo,40.96773,-4.80194,878
Sanchidrián,Ávila,Sanchidrián,40.893744,-4.582107,925
Sanchorreja,Ávila,Sanchorreja,40.66475,-4.91494,1313
Santa Cruz de Pinares,Ávila,Santa Cruz de Pinares,40.54265,-4.58036,1004
Santa Cruz del Valle,Ávila,Santa Cruz del Valle,40.2516,-5.00133,741
Santa María de los Caballeros,Ávila,Santa María de los Caballeros,40.38925,-5.45112,1040
Santa María del Arroyo,Ávila,Santa María del Arroyo,40.601155,-4.936439,1153
Santa María del Berrocal,Ávila,Santa María del Berrocal,40.50845,-5.40483,1052
Santa María del Cubillo,Ávila,Santa María del Cubillo,40.71908,-4.46655,1511
Santa María del Tiétar,Ávila,Santa María del Tiétar,40.302925,-4.542604,691
Santiago del Collado,Ávila,Santiago del Collado,40.43326,-5.35631,1229
Santiago del Tormes,Ávila,Santiago del Tormes,40.347488,-5.395378,1286
Santo Domingo de las Posadas,Ávila,Santo Domingo de las Posadas,40.812,-4.63383,925
Santo Tomé de Zabarcos,Ávila,Santo Tomé de Zabarcos,40.78726,-4.91048,961
Serrada (La),Ávila,La Serrada,40.63169,-4.79284,1116
Serranillos,Ávila,Serranillos,40.325202,-4.905628,1443
Sigeres,Ávila,Sigeres,40.79939,-4.93361,968
Sinlabajos,Ávila,Sinlabajos,41.0765,-4.83242,832
Solana de Ávila,Ávila,Solana de Ávila,40.33135,-5.63759,1683
Solana de Rioalmar,Ávila,Solana de Rioalmar,40.73892,-5.01159,1134
Solosancho,Ávila,Solosancho,40.55294,-4.90479,1126
Sotalbo,Ávila,Sotalbo,40.5417,-4.84548,1179
Sotillo de la Adrada,Ávila,Sotillo de la Adrada,40.293123,-4.586541,645
Tiemblo (El),Ávila,El Tiemblo,40.413929,-4.502271,700
Tiñosillos,Ávila,Tiñosillos,40.93543,-4.727323,870
Tolbaños,Ávila,Tolbaños,40.75168,-4.58191,1113
Tormellas,Ávila,Tormellas,40.30404,-5.51185,1067
Tornadizos de Ávila,Ávila,Tornadizos de Ávila,40.62757,-4.61426,1170
Torre (La),Ávila,La Torre,40.5916,-4.96491,1131
Tórtoles,Ávila,Tórtoles,40.5612,-5.2612,1250
Umbrías,Ávila,Umbrías,40.3153,-5.58037,1084
Vadillo de la Sierra,Ávila,Vadillo de la Sierra,40.60634,-5.12506,1359
Valdecasa,Ávila,Valdecasa,40.65931,-5.01183,1373
Vega de Santa María,Ávila,Vega de Santa María,40.83618,-4.64287,943
Velayos,Ávila,Velayos,40.84157,-4.62324,932
Villaflor,Ávila,Villaflor,40.74978,-4.884138,1017
Villafranca de la Sierra,Ávila,Villafranca de la Sierra,40.49806,-5.23005,1095
Villanueva de Ávila,Ávila,Villanueva de Ávila,40.37284,-4.82395,1079
Villanueva de Gómez,Ávila,Villanueva de Gómez,40.88269,-4.7165,886
Villanueva del Aceral,Ávila,Villanueva del Aceral,41.04095,-4.85419,843
Villanueva del Campillo,Ávila,Villanueva del Campillo,40.57646,-5.18002,1444
Villar de Corneja,Ávila,Villar de Corneja,40.47462,-5.43307,991
Villarejo del Valle,Ávila,Villarejo del Valle,40.28638,-4.99674,836
Villatoro,Ávila,Villatoro,40.549838,-5.118633,1288
Viñegra de Moraña,Ávila,Viñegra de Moraña,40.85074,-4.92114,909
Vita,Ávila,Vita,40.81178,-5.00583,994
Zapardiel de la Cañada,Ávila,Zapardiel de la Cañada,40.60648,-5.33791,1146
Zapardiel de la Ribera,Ávila,Zapardiel de la Ribera,40.35554,-5.32826,1356
Acedera,Badajoz,Acedera,39.08414,-5.625607,278
Aceuchal,Badajoz,Aceuchal,38.645953,-6.48728,308
Ahillones,Badajoz,Ahillones,38.259328,-5.864075,578
Alange,Badajoz,Alange,38.784989,-6.246106,315
Albuera (La),Badajoz,La Albuera,38.717333,-6.823226,257
Alburquerque,Badajoz,Alburquerque,39.220369,-7.000693,435
Alconchel,Badajoz,Alconchel,38.514743,-7.071697,274
Alconera,Badajoz,Alconera,38.378914,-6.486219,551
Aljucén,Badajoz,Aljucén,39.04426,-6.33109,263
Almendral,Badajoz,Almendral,38.613181,-6.822009,328
Almendralejo,Badajoz,Almendralejo,38.683923,-6.408345,338
Arroyo de San Serván,Badajoz,Arroyo de San Serván,38.854303,-6.454154,235
Atalaya,Badajoz,Atalaya,38.338714,-6.487765,469
Azuaga,Badajoz,Azuaga,38.260213,-5.679025,589
Badajoz,Badajoz,Badajoz,38.876618,-6.980327,179
Barcarrota,Badajoz,Barcarrota,38.514744,-6.849092,484
Baterno,Badajoz,Baterno,38.95578,-4.91039,557
Benquerencia de la Serena,Badajoz,Benquerencia de la Serena,38.67358,-5.36435,582
Berlanga,Badajoz,Berlanga,38.282266,-5.829392,568
Bienvenida,Badajoz,Bienvenida,38.298282,-6.208785,607
Bodonal de la Sierra,Badajoz,Bodonal de la Sierra,38.14701,-6.558262,602
Burguillos del Cerro,Badajoz,Burguillos del Cerro,38.378731,-6.589193,404
Cabeza del Buey,Badajoz,Cabeza del Buey,38.720666,-5.22195,540
Cabeza la Vaca,Badajoz,Cabeza la Vaca,38.086152,-6.420675,752
Calamonte,Badajoz,Calamonte,38.887746,-6.387619,240
Calera de León,Badajoz,Calera de León,38.106385,-6.336207,696
Calzadilla de los Barros,Badajoz,Calzadilla de los Barros,38.300375,-6.314896,555
Campanario,Badajoz,Campanario,38.863511,-5.617804,401
Campillo de Llerena,Badajoz,Campillo de Llerena,38.502136,-5.830793,480
Capilla,Badajoz,Capilla,38.82036,-5.08417,497
Carmonita,Badajoz,Carmonita,39.15455,-6.33864,370
Carrascalejo (El),Badajoz,El Carrascalejo,39.02021,-6.33427,305
Casas de Don Pedro,Badajoz,Casas de Don Pedro,39.104247,-5.329294,377
Casas de Reina,Badajoz,Casas de Reina,38.2,-5.96667,634
Castilblanco,Badajoz,Castilblanco,39.285581,-5.090236,505
Castuera,Badajoz,Castuera,38.726483,-5.545868,494
Cheles,Badajoz,Cheles,38.513443,-7.282274,194
Codosera (La),Badajoz,La Codosera,39.208401,-7.173379,324
Cordobilla de Lácara,Badajoz,Cordobilla de Lácara,39.146614,-6.435991,302
Coronada (La),Badajoz,La Coronada,38.919642,-5.6701,352
Corte de Peleas,Badajoz,Corte de Peleas,38.72529,-6.671912,241
Cristina,Badajoz,Cristina,38.825438,-6.09967,320
Don Álvaro,Badajoz,Don Álvaro,38.880935,-6.305323,236
Don Benito,Badajoz,Don Benito,38.963236,-5.86046,280
Entrín Bajo,Badajoz,Entrín Bajo,38.718534,-6.712663,241
Esparragalejo,Badajoz,Esparragalejo,38.943824,-6.435232,231
Esparragosa de la Serena,Badajoz,Esparragosa de la Serena,38.649558,-5.606726,457
Esparragosa de Lares,Badajoz,Esparragosa de Lares,38.975376,-5.270202,484
Feria,Badajoz,Feria,38.512778,-6.564242,562
Fregenal de la Sierra,Badajoz,Fregenal de la Sierra,38.166981,-6.652975,566
Fuenlabrada de los Montes,Badajoz,Fuenlabrada de los Montes,39.133018,-4.935113,540
Fuente de Cantos,Badajoz,Fuente de Cantos,38.246621,-6.30559,596
Fuente del Arco,Badajoz,Fuente del Arco,38.15,-5.9,712
Fuente del Maestre,Badajoz,Fuente del Maestre,38.527681,-6.446825,445
Fuentes de León,Badajoz,Fuentes de León,38.067365,-6.539752,740
Garbayuela,Badajoz,Garbayuela,39.048933,-4.999989,489
Garlitos,Badajoz,Garlitos,38.88022,-5.04759,536
Garrovilla (La),Badajoz,La Garrovilla,38.91966,-6.479167,203
Granja de Torrehermosa,Badajoz,Granja de Torrehermosa,38.309073,-5.596359,594
Guadiana,Badajoz,Guadiana,38.921999,-6.689311,189
Guareña,Badajoz,Guareña,38.860671,-6.101441,287
Haba (La),Badajoz,La Haba,38.918877,-5.801104,309
Helechosa de los Montes,Badajoz,Helechosa de los Montes,39.310257,-4.907123,446
Herrera del Duque,Badajoz,Herrera del Duque,39.168449,-5.052043,463
Higuera de la Serena,Badajoz,Higuera de la Serena,38.6458,-5.742847,475
Higuera de Llerena,Badajoz,Higuera de Llerena,38.376049,-5.999326,526
Higuera de Vargas,Badajoz,Higuera de Vargas,38.445993,-6.974924,355
Higuera la Real,Badajoz,Higuera la Real,38.140849,-6.689688,615
Hinojosa del Valle,Badajoz,Hinojosa del Valle,38.483356,-6.184975,439
Hornachos,Badajoz,Hornachos,38.552797,-6.067863,474
Jerez de los Caballeros,Badajoz,Jerez de los Caballeros,38.323191,-6.768334,486
Lapa (La),Badajoz,La Lapa,38.45,-6.51667,474
Llera,Badajoz,Llera,38.446292,-6.057016,490
Llerena,Badajoz,Llerena,38.236797,-6.014742,642
Lobón,Badajoz,Lobón,38.849937,-6.624885,242
Magacela,Badajoz,Magacela,38.895194,-5.725719,355
Maguilla,Badajoz,Maguilla,38.366699,-5.838887,522
Malcocinado,Badajoz,Malcocinado,38.122861,-5.691956,625
Malpartida de la Serena,Badajoz,Malpartida de la Serena,38.6747,-5.64054,484
Manchita,Badajoz,Manchita,38.81404,-6.02041,344
Medellín,Badajoz,Medellín,38.962575,-5.958762,251
Medina de las Torres,Badajoz,Medina de las Torres,38.342121,-6.412546,524
Mengabril,Badajoz,Mengabril,38.93554,-5.93335,251
Mérida,Badajoz,Mérida,38.920403,-6.33538,219
Mirandilla,Badajoz,Mirandilla,39.000519,-6.289964,294
Monesterio,Badajoz,Monesterio,38.088659,-6.272569,754
Montemolín,Badajoz,Montemolín,38.15,-6.2,667
Monterrubio de la Serena,Badajoz,Monterrubio de la Serena,38.588876,-5.446405,555
Montijo,Badajoz,Montijo,38.910012,-6.614332,196
Morera (La),Badajoz,La Morera,38.566233,-6.67151,398
Nava de Santiago (La),Badajoz,La Nava de Santiago,39.062982,-6.505422,266
Navalvillar de Pela,Badajoz,Navalvillar de Pela,39.090167,-5.468177,348
Nogales,Badajoz,Nogales,38.587031,-6.748208,373
Oliva de la Frontera,Badajoz,Oliva de la Frontera,38.276966,-6.917721,376
Oliva de Mérida,Badajoz,Oliva de Mérida,38.790375,-6.125274,324
Olivenza,Badajoz,Olivenza,38.683248,-7.099145,266
Orellana de la Sierra,Badajoz,Orellana de la Sierra,39.019482,-5.507367,346
Orellana la Vieja,Badajoz,Orellana la Vieja,39.004239,-5.535969,364
Palomas,Badajoz,Palomas,38.693202,-6.134943,322
Parra (La),Badajoz,La Parra,38.521641,-6.622352,510
Peñalsordo,Badajoz,Peñalsordo,38.819576,-5.114346,422
Peraleda del Zaucejo,Badajoz,Peraleda del Zaucejo,38.473821,-5.565506,544
Puebla de Alcocer,Badajoz,Puebla de Alcocer,38.985527,-5.256793,509
Puebla de la Calzada,Badajoz,Puebla de la Calzada,38.892895,-6.62529,191
Puebla de la Reina,Badajoz,Puebla de la Reina,38.66511,-6.101906,365
Puebla de Obando,Badajoz,Puebla de Obando,39.175682,-6.626117,377
Puebla de Sancho Pérez,Badajoz,Puebla de Sancho Pérez,38.396352,-6.39873,528
Puebla del Maestre,Badajoz,Puebla del Maestre,38.085132,-6.078725,556
Puebla del Prior,Badajoz,Puebla del Prior,38.570397,-6.195755,385
Pueblonuevo del Guadiana,Badajoz,Pueblonuevo del Guadiana,38.923141,-6.75574,182
Quintana de la Serena,Badajoz,Quintana de la Serena,38.742574,-5.673837,402
Reina,Badajoz,Reina,38.18333,-5.95,686
Rena,Badajoz,Rena,39.05252,-5.80868,261
Retamal de Llerena,Badajoz,Retamal de Llerena,38.577342,-5.839096,467
Ribera del Fresno,Badajoz,Ribera del Fresno,38.550737,-6.238055,400
Risco,Badajoz,Risco,38.891789,-5.114785,408
Roca de la Sierra (La),Badajoz,La Roca de la Sierra,39.107242,-6.688593,244
Salvaleón,Badajoz,Salvaleón,38.510694,-6.785731,537
Salvatierra de los Barros,Badajoz,Salvatierra de los Barros,38.491343,-6.684296,623
San Pedro de Mérida,Badajoz,San Pedro de Mérida,38.949408,-6.187106,286
San Vicente de Alcántara,Badajoz,San Vicente de Alcántara,39.360878,-7.138322,503
Sancti-Spíritus,Badajoz,Sancti-Spíritus,38.916798,-5.175599,436
Santa Amalia,Badajoz,Santa Amalia,39.011502,-6.009702,250
Santa Marta,Badajoz,Santa Marta,38.613684,-6.627812,340
Santos de Maimona (Los),Badajoz,Los Santos de Maimona,38.44777,-6.376137,537
Segura de León,Badajoz,Segura de León,38.120154,-6.529577,703
Siruela,Badajoz,Siruela,38.977951,-5.048693,519
Solana de los Barros,Badajoz,Solana de los Barros,38.725263,-6.538392,267
Talarrubias,Badajoz,Talarrubias,39.03551,-5.234665,439
Talavera la Real,Badajoz,Talavera la Real,38.875892,-6.768634,189
Táliga,Badajoz,Táliga,38.52861,-7.01713,302
Tamurejo,Badajoz,Tamurejo,38.991986,-4.952054,587
Torre de Miguel Sesmero,Badajoz,Torre de Miguel Sesmero,38.618778,-6.7956,319
Torremayor,Badajoz,Torremayor,38.900898,-6.538429,197
Torremejía,Badajoz,Torremejía,38.789071,-6.376616,306
Trasierra,Badajoz,Trasierra,38.18333,-6.0,628
Trujillanos,Badajoz,Trujillanos,38.952801,-6.256589,254
Usagre,Badajoz,Usagre,38.355035,-6.165343,558
Valdecaballeros,Badajoz,Valdecaballeros,39.24786,-5.197937,411
Valdelacalzada,Badajoz,Valdelacalzada,38.888955,-6.701348,184
Valdetorres,Badajoz,Valdetorres,38.915545,-6.068961,244
Valencia de las Torres,Badajoz,Valencia de las Torres,38.40454,-6.003675,513
Valencia del Mombuey,Badajoz,Valencia del Mombuey,38.242046,-7.119303,296
Valencia del Ventoso,Badajoz,Valencia del Ventoso,38.26603,-6.47387,500
Valle de la Serena,Badajoz,Valle de la Serena,38.702375,-5.798414,424
Valle de Matamoros,Badajoz,Valle de Matamoros,38.37889,-6.80371,615
Valle de Santa Ana,Badajoz,Valle de Santa Ana,38.363528,-6.787644,504
Valverde de Burguillos,Badajoz,Valverde de Burguillos,38.3271,-6.53648,416
Valverde de Leganés,Badajoz,Valverde de Leganés,38.670196,-6.980389,296
Valverde de Llerena,Badajoz,Valverde de Llerena,38.213203,-5.821879,576
Valverde de Mérida,Badajoz,Valverde de Mérida,38.911671,-6.219633,270
Villafranca de los Barros,Badajoz,Villafranca de los Barros,38.56199,-6.341567,414
Villagarcía de la Torre,Badajoz,Villagarcía de la Torre,38.292562,-6.078689,591
Villagonzalo,Badajoz,Villagonzalo,38.862844,-6.196879,236
Villalba de los Barros,Badajoz,Villalba de los Barros,38.612942,-6.508735,309
Villanueva de la Serena,Badajoz,Villanueva de la Serena,38.975483,-5.797218,290
Villanueva del Fresno,Badajoz,Villanueva del Fresno,38.374526,-7.167092,256
Villar de Rena,Badajoz,Villar de Rena,39.110391,-5.739894,269
Villar del Rey,Badajoz,Villar del Rey,39.131499,-6.849196,246
Villarta de los Montes,Badajoz,Villarta de los Montes,39.21386,-4.79227,546
Zafra,Badajoz,Zafra,38.422232,-6.412671,516
Zahínos,Badajoz,Zahínos,38.330241,-6.9546,344
Zalamea de la Serena,Badajoz,Zalamea de la Serena,38.650717,-5.658486,482
Zarza (La),Badajoz,La Zarza,38.811111,-6.215245,272
Zarza-Capilla,Badajoz,Zarza-Capilla,38.80711,-5.15682,587
Alaior,Illes Balears,Alaior,39.932119,4.13792,113
Alaró,Illes Balears,Alaró,39.7049,2.793441,215
Alcúdia,Illes Balears,Alcúdia,39.86072,3.118993,1
Algaida,Illes Balears,Algaida,39.55894,2.892537,194
Andratx,Illes Balears,Andratx,39.57429,2.420509,68
Ariany,Illes Balears,Ariany,39.650915,3.11245,115
Artà,Illes Balears,Artà,39.69293,3.350646,126
Banyalbufar,Illes Balears,Banyalbufar,39.68734,2.51409,134
Binissalem,Illes Balears,Binissalem,39.689121,2.843071,136
Búger,Illes Balears,Búger,39.75809,2.98349,84
Bunyola,Illes Balears,Bunyola,39.694825,2.700963,224
Calvià,Illes Balears,Calvià,39.566048,2.506248,120
Campanet,Illes Balears,Campanet,39.775651,2.964347,126
Campos,Illes Balears,Campos,39.430852,3.019209,24
Capdepera,Illes Balears,Capdepera,39.714978,3.461558,18
Castell (Es),Illes Balears,Es Castell,39.8776,4.2899,18
Ciutadella de Menorca,Illes Balears,Ciutadella de Menorca,40.001435,3.838817,25
Consell,Illes Balears,Consell,39.668236,2.812239,149
Costitx,Illes Balears,Costitx,39.65675,2.94953,137
Deià,Illes Balears,Deià,39.74806,2.64823,180
Eivissa,Illes Balears,Eivissa,38.908487,1.431386,8
Escorca,Illes Balears,Escorca,39.842018,2.779031,115
Esporles,Illes Balears,Esporles,39.66702,2.579695,189
Estellencs,Illes Balears,Estellencs,39.653465,2.481365,159
Felanitx,Illes Balears,Felanitx,39.470625,3.148632,119
Ferreries,Illes Balears,Ferreries,39.983462,4.012557,70
Formentera,Illes Balears,Formentera,38.703041,1.427104,34
Fornalutx,Illes Balears,Fornalutx,39.78232,2.74107,156
Inca,Illes Balears,Inca,39.718621,2.90814,126
Lloret de Vistalegre,Illes Balears,Lloret de Vistalegre,39.617377,2.975041,164
Lloseta,Illes Balears,Lloseta,39.718307,2.869172,147
Llubí,Illes Balears,Llubí,39.700055,3.005589,72
Llucmajor,Illes Balears,Llucmajor,39.490416,2.889804,149
Manacor,Illes Balears,Manacor,39.569516,3.206466,87
Mancor de la Vall,Illes Balears,Mancor de la Vall,39.749956,2.873383,199
Maó-Mahón,Illes Balears,Maó-Mahón,39.886087,4.261187,48
Maria de la Salut,Illes Balears,Maria de la Salut,39.665506,3.071064,110
Marratxí,Illes Balears,Marratxí,39.638159,2.754566,131
Mercadal (Es),Illes Balears,Es Mercadal,39.988204,4.093772,67
Migjorn Gran (Es),Illes Balears,Es Migjorn Gran,39.94698,4.049753,111
Montuïri,Illes Balears,Montuïri,39.563663,2.980121,157
Muro,Illes Balears,Muro,39.734756,3.055532,69
Palma,Illes Balears,Palma,39.575748,2.656644,29
Petra,Illes Balears,Petra,39.613472,3.113692,102
Pobla (Sa),Illes Balears,Sa Pobla,39.7692,3.02394,29
Pollença,Illes Balears,Pollença,39.877882,3.015565,56
Porreres,Illes Balears,Porreres,39.514881,3.023458,127
Puigpunyent,Illes Balears,Puigpunyent,39.622266,2.523958,222
Salines (Ses),Illes Balears,Ses Salines,39.338559,3.051021,42
Sant Antoni de Portmany,Illes Balears,Sant Antoni de Portmany,38.968799,1.290567,5
Sant Joan,Illes Balears,Sant Joan,39.595726,3.039081,139
Sant Joan de Labritja,Illes Balears,Sant Joan de Labritja,39.077698,1.513265,193
Sant Josep de sa Talaia,Illes Balears,Sant Josep de sa Talaia,38.918679,1.291823,183
Sant Llorenç des Cardassar,Illes Balears,Sant Llorenç des Cardassar,39.610844,3.285971,78
Sant Lluís,Illes Balears,Sant Lluís,39.849761,4.257916,59
Santa Eugènia,Illes Balears,Santa Eugènia,39.623846,2.838577,133
Santa Eulària des Riu,Illes Balears,Santa Eulària des Riu,38.987302,1.542442,2
Santa Margalida,Illes Balears,Santa Margalida,39.703191,3.103177,83
Santa María del Camí,Illes Balears,Santa María del Camí,39.648828,2.775023,129
Santanyí,Illes Balears,Santanyí,39.355946,3.129117,65
Selva,Illes Balears,Selva,39.75436,2.889076,246
Sencelles,Illes Balears,Sencelles,39.646892,2.899581,113
Sineu,Illes Balears,Sineu,39.643647,3.010668,140
Sóller,Illes Balears,Sóller,39.767345,2.715649,34
Son Servera,Illes Balears,Son Servera,39.61802,3.364648,57
Valldemossa,Illes Balears,Valldemossa,39.710098,2.625143,364
Vilafranca de Bonany,Illes Balears,Vilafranca de Bonany,39.569607,3.088169,102
Abrera,Barcelona,Abrera,41.49669,1.900894,109
Aguilar de Segarra,Barcelona,Aguilar de Segarra,41.74822,1.62919,522
Aiguafreda,Barcelona,Aiguafreda,41.768409,2.25115,408
Alella,Barcelona,Alella,41.496137,2.291909,127
Alpens,Barcelona,Alpens,42.1193,2.10135,866
Ametlla del Vallès (L'),Barcelona,L' Ametlla del Vallès,41.668354,2.259358,281
Arenys de Mar,Barcelona,Arenys de Mar,41.582411,2.551104,41
Arenys de Munt,Barcelona,Arenys de Munt,41.608144,2.539527,131
Argençola,Barcelona,Argençola,41.59486,1.46953,583
Argentona,Barcelona,Argentona,41.550913,2.398359,96
Artés,Barcelona,Artés,41.796591,1.95034,310
Avià,Barcelona,Avià,42.07452,1.825439,672
Avinyó,Barcelona,Avinyó,41.863596,1.971087,364
Avinyonet del Penedès,Barcelona,Avinyonet del Penedès,41.34284,1.812017,301
Badalona,Barcelona,Badalona,41.443092,2.231575,18
Badia del Vallès,Barcelona,Badia del Vallès,41.508766,2.116891,122
Bagà,Barcelona,Bagà,42.251064,1.865122,790
Balenyà,Barcelona,Balenyà,41.813418,2.234902,553
Balsareny,Barcelona,Balsareny,41.862399,1.874544,324
Barberà del Vallès,Barcelona,Barberà del Vallès,41.517308,2.125243,139
Barcelona,Barcelona,Barcelona,41.3825,2.176944,29
Begues,Barcelona,Begues,41.333881,1.916065,369
Bellprat,Barcelona,Bellprat,41.51695,1.43333,639
Berga,Barcelona,Berga,42.101496,1.844016,705
Bigues i Riells,Barcelona,Bigues i Riells,41.670439,2.201504,316
Borredà,Barcelona,Borredà,42.13564,1.99428,859
Bruc (El),Barcelona,El Bruc,41.58333,1.78333,490
Brull (El),Barcelona,El Brull,41.81657,2.30531,842
Cabanyes (Les),Barcelona,Les Cabanyes,41.37287,1.688919,256
Cabrera d'Anoia,Barcelona,Cabrera d'Anoia,41.485582,1.709933,263
Cabrera de Mar,Barcelona,Cabrera de Mar,41.527272,2.397678,119
Cabrils,Barcelona,Cabrils,41.52819,2.368618,157
Calaf,Barcelona,Calaf,41.731601,1.516317,678
Calders,Barcelona,Calders,41.783381,1.98081,540
Caldes de Montbui,Barcelona,Caldes de Montbui,41.630059,2.16897,217
Caldes d'Estrac,Barcelona,Caldes d'Estrac,41.56506,2.513271,15
Calella,Barcelona,Calella,41.614211,2.655708,12
Calldetenes,Barcelona,Calldetenes,41.952271,2.280429,466
Callús,Barcelona,Callús,41.782097,1.783982,263
Calonge de Segarra,Barcelona,Calonge de Segarra,41.76132,1.47715,556
Campins,Barcelona,Campins,41.71667,2.46667,280
Canet de Mar,Barcelona,Canet de Mar,41.590931,2.580201,36
Canovelles,Barcelona,Canovelles,41.61667,2.28333,157
Cànoves i Samalús,Barcelona,Cànoves i Samalús,41.68333,2.35,345
Canyelles,Barcelona,Canyelles,41.272894,1.713749,233
Capellades,Barcelona,Capellades,41.530204,1.685225,328
Capolat,Barcelona,Capolat,42.0772,1.75352,1274
Cardedeu,Barcelona,Cardedeu,41.641295,2.358295,199
Cardona,Barcelona,Cardona,41.910243,1.675859,542
Carme,Barcelona,Carme,41.53198,1.62074,330
Casserres,Barcelona,Casserres,42.013164,1.841182,625
Castell de l'Areny,Barcelona,Castell de l'Areny,42.17291,1.94529,922
Castellar de n'Hug,Barcelona,Castellar de n'Hug,42.28333,2.01667,1405
Castellar del Riu,Barcelona,Castellar del Riu,42.12299,1.77378,1541
Castellar del Vallès,Barcelona,Castellar del Vallès,41.614909,2.086842,330
Castellbell i el Vilar,Barcelona,Castellbell i el Vilar,41.63395,1.86394,198
Castellbisbal,Barcelona,Castellbisbal,41.474096,1.981281,147
Castellcir,Barcelona,Castellcir,41.76074,2.16128,702
Castelldefels,Barcelona,Castelldefels,41.277848,1.972694,8
Castellet i la Gornal,Barcelona,Castellet i la Gornal,41.266732,1.650145,186
Castellfollit de Riubregós,Barcelona,Castellfollit de Riubregós,41.76667,1.43333,552
Castellfollit del Boix,Barcelona,Castellfollit del Boix,41.66667,1.7,570
Castellgalí,Barcelona,Castellgalí,41.67492,1.82103,331
Castellnou de Bages,Barcelona,Castellnou de Bages,41.83444,1.83721,500
Castellolí,Barcelona,Castellolí,41.59829,1.70057,396
Castellterçol,Barcelona,Castellterçol,41.75209,2.119968,718
Castellví de la Marca,Barcelona,Castellví de la Marca,41.33366,1.61265,221
Castellví de Rosanes,Barcelona,Castellví de Rosanes,41.45,1.9,153
Centelles,Barcelona,Centelles,41.797367,2.223586,508
Cercs,Barcelona,Cercs,42.12749,1.86782,720
Cerdanyola del Vallès,Barcelona,Cerdanyola del Vallès,41.493535,2.137145,94
Cervelló,Barcelona,Cervelló,41.397172,1.960812,128
Collbató,Barcelona,Collbató,41.57009,1.82712,389
Collsuspina,Barcelona,Collsuspina,41.8258,2.17546,902
Copons,Barcelona,Copons,41.63662,1.5181,425
Corbera de Llobregat,Barcelona,Corbera de Llobregat,41.415472,1.928995,255
Cornellà de Llobregat,Barcelona,Cornellà de Llobregat,41.354399,2.072954,23
Cubelles,Barcelona,Cubelles,41.206673,1.676196,9
Dosrius,Barcelona,Dosrius,41.594429,2.405796,143
Esparreguera,Barcelona,Esparreguera,41.537869,1.867658,189
Esplugues de Llobregat,Barcelona,Esplugues de Llobregat,41.36804,2.080015,66
Espunyola (L'),Barcelona,L' Espunyola,41.409602,2.203027,9
Esquirol (L'),Barcelona,L' Esquirol,41.366322,2.012836,78
Estany (L'),Barcelona,L' Estany,42.43665,1.927325,1215
Figaró-Montmany,Barcelona,Figaró-Montmany,41.71253,2.247515,504
Fígols,Barcelona,Fígols,42.18102,1.83605,1145
Fogars de la Selva,Barcelona,Fogars de la Selva,41.739019,2.679752,46
Fogars de Montclús,Barcelona,Fogars de Montclús,41.73333,2.45,534
Folgueroles,Barcelona,Folgueroles,41.938264,2.314687,539
Fonollosa,Barcelona,Fonollosa,41.759157,1.742004,395
Font-rubí,Barcelona,Font-rubí,41.4343,1.59096,582
Franqueses del Vallès (Les),Barcelona,Les Franqueses del Vallès,41.645286,2.299086,218
Gaià,Barcelona,Gaià,41.91667,1.93333,478
Gallifa,Barcelona,Gallifa,41.693163,2.115456,490
Garriga (La),Barcelona,La Garriga,41.681392,2.285161,241
Gavà,Barcelona,Gavà,41.308083,2.008065,23
Gelida,Barcelona,Gelida,41.445502,1.869174,146
Gironella,Barcelona,Gironella,42.032792,1.880694,452
Gisclareny,Barcelona,Gisclareny,42.26092,1.79821,1100
Granada (La),Barcelona,La Granada,41.376935,1.72,259
Granera,Barcelona,Granera,41.72741,2.05924,778
Granollers,Barcelona,Granollers,41.608586,2.297085,196
Gualba,Barcelona,Gualba,41.73333,2.5,184
Guardiola de Berguedà,Barcelona,Guardiola de Berguedà,42.235131,1.876536,753
Gurb,Barcelona,Gurb,41.956196,2.232554,518
Hospitalet de Llobregat (L'),Barcelona,L' Hospitalet de Llobregat,41.361337,2.116416,13
Hostalets de Pierola (Els),Barcelona,Els Hostalets de Pierola,41.541536,1.796359,292
Igualada,Barcelona,Igualada,41.585445,1.623363,343
Jorba,Barcelona,Jorba,41.60193,1.5475,397
Llacuna (La),Barcelona,La Llacuna,41.471035,1.532805,618
Llagosta (La),Barcelona,La Llagosta,41.516109,2.198783,52
Lliçà d'Amunt,Barcelona,Lliçà d'Amunt,41.604612,2.241653,131
Lliçà de Vall,Barcelona,Lliçà de Vall,41.582033,2.237176,119
Llinars del Vallès,Barcelona,Llinars del Vallès,41.642212,2.399957,191
Lluçà,Barcelona,Lluçà,42.05,2.03333,742
Malgrat de Mar,Barcelona,Malgrat de Mar,41.645758,2.739721,9
Malla,Barcelona,Malla,41.89461,2.2437,510
Manlleu,Barcelona,Manlleu,42.002677,2.286046,455
Manresa,Barcelona,Manresa,41.730648,1.831997,250
Marganell,Barcelona,Marganell,41.63388,1.80427,394
Martorell,Barcelona,Martorell,41.481731,1.916816,72
Martorelles,Barcelona,Martorelles,41.529028,2.231623,91
Masies de Roda (Le)s,Barcelona,Le Masies de Rodas,42.01944,2.23546,533
Masies de Voltregà (Le)s,Barcelona,Le Masies de Voltregàs,42.024167,2.236111,514
Masnou (El),Barcelona,El Masnou,41.482393,2.312081,56
Masquefa,Barcelona,Masquefa,41.500363,1.812874,258
Matadepera,Barcelona,Matadepera,41.616911,2.012558,557
Mataró,Barcelona,Mataró,41.540517,2.435491,49
Mediona,Barcelona,Mediona,41.483122,1.627702,438
Moià,Barcelona,Moià,41.812045,2.098455,715
Molins de Rei,Barcelona,Molins de Rei,41.41011,2.021963,35
Mollet del Vallès,Barcelona,Mollet del Vallès,41.54126,2.215969,71
Monistrol de Calders,Barcelona,Monistrol de Calders,41.755199,2.015227,522
Monistrol de Montserrat,Barcelona,Monistrol de Montserrat,41.614616,1.848522,141
Montcada i Reixac,Barcelona,Montcada i Reixac,41.482157,2.188071,36
Montclar,Barcelona,Montclar,42.01754,1.76365,706
Montesquiu,Barcelona,Montesquiu,42.11667,2.21667,679
Montgat,Barcelona,Montgat,41.469472,2.282422,30
Montmajor,Barcelona,Montmajor,42.01748,1.73502,751
Montmaneu,Barcelona,Montmaneu,41.71253,2.247515,504
Montmeló,Barcelona,Montmeló,41.560166,2.26475,90
Montornès del Vallès,Barcelona,Montornès del Vallès,41.54147,2.266694,115
Montseny,Barcelona,Montseny,41.75726,2.39944,534
Muntanyola,Barcelona,Muntanyola,41.88333,2.18333,777
Mura,Barcelona,Mura,41.69943,1.97612,460
Navarcles,Barcelona,Navarcles,41.754559,1.908955,276
Navàs,Barcelona,Navàs,41.898534,1.875536,368
Nou de Berguedà (La),Barcelona,La Nou de Berguedà,42.16667,1.88333,923
Òdena,Barcelona,Òdena,41.606033,1.640768,389
Olèrdola,Barcelona,Olèrdola,41.31667,1.71667,175
Olesa de Bonesvalls,Barcelona,Olesa de Bonesvalls,41.35435,1.84907,277
Olesa de Montserrat,Barcelona,Olesa de Montserrat,41.546024,1.887374,111
Olivella,Barcelona,Olivella,41.309904,1.807034,200
Olost,Barcelona,Olost,41.985226,2.094532,569
Olvan,Barcelona,Olvan,42.06667,1.9,613
Orís,Barcelona,Orís,42.05967,2.22066,695
Oristà,Barcelona,Oristà,41.93333,2.06667,555
Orpí,Barcelona,Orpí,41.5187,1.57536,496
Òrrius,Barcelona,Òrrius,41.555313,2.352949,266
Pacs del Penedès,Barcelona,Pacs del Penedès,41.36023,1.65906,234
Palafolls,Barcelona,Palafolls,41.668069,2.751671,18
Palau-solità i Plegamans,Barcelona,Palau-solità i Plegamans,41.582768,2.171902,121
Pallejà,Barcelona,Pallejà,41.419962,1.996692,43
Palma de Cervelló (La),Barcelona,La Palma de Cervelló,41.410722,1.969937,92
Papiol (El),Barcelona,El Papiol,41.438706,2.007361,96
Parets del Vallès,Barcelona,Parets del Vallès,41.572636,2.234415,91
Perafita,Barcelona,Perafita,42.042655,2.106529,759
Piera,Barcelona,Piera,41.524672,1.749059,310
Pineda de Mar,Barcelona,Pineda de Mar,41.630397,2.690832,16
Pla del Penedès (El),Barcelona,El Pla del Penedès,41.41667,1.71667,221
Pobla de Claramunt (La),Barcelona,La Pobla de Claramunt,41.553908,1.677239,268
Pobla de Lillet (La),Barcelona,La Pobla de Lillet,42.243751,1.97636,849
Polinyà,Barcelona,Polinyà,41.542608,2.162721,98
Pont de Vilomara i Rocafort (El),Barcelona,El Pont de Vilomara i Rocafort,41.70726,1.90889,423
Pontons,Barcelona,Pontons,41.41313,1.51458,620
Prat de Llobregat (El),Barcelona,El Prat de Llobregat,41.330291,2.093821,12
Prats de Lluçanès,Barcelona,Prats de Lluçanès,42.008826,2.030915,716
Prats de Rei (Els),Barcelona,Els Prats de Rei,41.70592,1.54319,612
Premià de Dalt,Barcelona,Premià de Dalt,41.5,2.35,73
Premià de Mar,Barcelona,Premià de Mar,41.494808,2.357761,31
Puigdàlber,Barcelona,Puigdàlber,41.4,1.7,238
Puig-reig,Barcelona,Puig-reig,41.968962,1.882443,436
Pujalt,Barcelona,Pujalt,41.7171,1.42088,749
Quar (La),Barcelona,La Quar,42.1,1.98333,901
Rajadell,Barcelona,Rajadell,41.72802,1.70621,349
Rellinars,Barcelona,Rellinars,41.634372,1.908365,377
Ripollet,Barcelona,Ripollet,41.488396,2.167641,50
Roca del Vallès (La),Barcelona,La Roca del Vallès,41.584137,2.32705,132
Roda de Ter,Barcelona,Roda de Ter,41.982193,2.308657,453
Rubí,Barcelona,Rubí,41.489885,2.03218,141
Rubió,Barcelona,Rubió,41.656054,1.571038,640
Rupit i Pruit,Barcelona,Rupit i Pruit,42.01649,2.46005,835
Sabadell,Barcelona,Sabadell,41.544526,2.104533,191
Sagàs,Barcelona,Sagàs,42.05,1.96667,731
Saldes,Barcelona,Saldes,42.23333,1.73333,1391
Sallent,Barcelona,Sallent,41.824291,1.894494,276
Sant Adrià de Besòs,Barcelona,Sant Adrià de Besòs,41.4333,2.23333,11
Sant Agustí de Lluçanès,Barcelona,Sant Agustí de Lluçanès,42.08333,2.13333,837
Sant Andreu de la Barca,Barcelona,Sant Andreu de la Barca,41.456871,1.969413,43
Sant Andreu de Llavaneres,Barcelona,Sant Andreu de Llavaneres,41.56667,2.48333,116
Sant Antoni de Vilamajor,Barcelona,Sant Antoni de Vilamajor,41.684875,2.396083,269
Sant Bartomeu del Grau,Barcelona,Sant Bartomeu del Grau,41.983353,2.175229,876
Sant Boi de Llobregat,Barcelona,Sant Boi de Llobregat,41.343215,2.042572,43
Sant Boi de Lluçanès,Barcelona,Sant Boi de Lluçanès,42.05,2.15,770
Sant Cebrià de Vallalta,Barcelona,Sant Cebrià de Vallalta,41.619861,2.600738,67
Sant Celoni,Barcelona,Sant Celoni,41.686636,2.489442,156
Sant Climent de Llobregat,Barcelona,Sant Climent de Llobregat,41.336103,1.997091,85
Sant Cugat del Vallès,Barcelona,Sant Cugat del Vallès,41.471349,2.081398,130
Sant Cugat Sesgarrigues,Barcelona,Sant Cugat Sesgarrigues,41.361038,1.764484,263
Sant Esteve de Palautordera,Barcelona,Sant Esteve de Palautordera,41.703263,2.436219,235
Sant Esteve Sesrovires,Barcelona,Sant Esteve Sesrovires,41.493495,1.872702,165
Sant Feliu de Codines,Barcelona,Sant Feliu de Codines,41.689415,2.16297,479
Sant Feliu de Llobregat,Barcelona,Sant Feliu de Llobregat,41.382246,2.048811,34
Sant Feliu Sasserra,Barcelona,Sant Feliu Sasserra,41.95,2.03333,541
Sant Fost de Campsentelles,Barcelona,Sant Fost de Campsentelles,41.522217,2.220305,56
Sant Fruitós de Bages,Barcelona,Sant Fruitós de Bages,41.751519,1.872893,255
Sant Hipòlit de Voltregà,Barcelona,Sant Hipòlit de Voltregà,42.012228,2.242763,489
Sant Iscle de Vallalta,Barcelona,Sant Iscle de Vallalta,41.654107,2.569281,530
Sant Jaume de Frontanyà,Barcelona,Sant Jaume de Frontanyà,42.18742,2.02389,1068
Sant Joan de Vilatorrada,Barcelona,Sant Joan de Vilatorrada,41.73926,1.802822,239
Sant Joan Despí,Barcelona,Sant Joan Despí,41.368263,2.060764,28
Sant Julià de Cerdanyola,Barcelona,Sant Julià de Cerdanyola,42.243751,1.97636,849
Sant Julià de Vilatorta,Barcelona,Sant Julià de Vilatorta,41.923958,2.320305,576
Sant Just Desvern,Barcelona,Sant Just Desvern,41.382692,2.075829,116
Sant Llorenç d'Hortons,Barcelona,Sant Llorenç d'Hortons,41.465757,1.823102,221
Sant Llorenç Savall,Barcelona,Sant Llorenç Savall,41.684391,2.050667,519
Sant Martí d'Albars,Barcelona,Sant Martí d'Albars,42.03333,2.08333,631
Sant Martí de Centelles,Barcelona,Sant Martí de Centelles,41.76617,2.20566,714
Sant Martí de Tous,Barcelona,Sant Martí de Tous,41.55,1.51667,463
Sant Martí Sarroca,Barcelona,Sant Martí Sarroca,41.385513,1.611223,298
Sant Martí Sesgueioles,Barcelona,Sant Martí Sesgueioles,41.68333,1.5,560
Sant Mateu de Bages,Barcelona,Sant Mateu de Bages,41.838709,1.739512,369
Sant Pere de Ribes,Barcelona,Sant Pere de Ribes,41.259338,1.774521,45
Sant Pere de Riudebitlles,Barcelona,Sant Pere de Riudebitlles,41.45113,1.705987,245
Sant Pere de Torelló,Barcelona,Sant Pere de Torelló,42.071789,1.933194,716
Sant Pere de Vilamajor,Barcelona,Sant Pere de Vilamajor,41.68333,2.38333,313
Sant Pere Sallavinera,Barcelona,Sant Pere Sallavinera,41.73333,1.58333,611
Sant Pol de Mar,Barcelona,Sant Pol de Mar,41.602525,2.620289,48
Sant Quintí de Mediona,Barcelona,Sant Quintí de Mediona,41.46235,1.66391,321
Sant Quirze de Besora,Barcelona,Sant Quirze de Besora,42.101701,2.216336,582
Sant Quirze del Vallès,Barcelona,Sant Quirze del Vallès,41.532697,2.084986,171
Sant Quirze Safaja,Barcelona,Sant Quirze Safaja,41.729046,2.149768,619
Sant Sadurní d'Anoia,Barcelona,Sant Sadurní d'Anoia,41.41667,1.78333,146
Sant Sadurní d'Osormort,Barcelona,Sant Sadurní d'Osormort,41.9,2.38333,528
Sant Salvador de Guardiola,Barcelona,Sant Salvador de Guardiola,41.68333,1.76667,313
Sant Vicenç de Castellet,Barcelona,Sant Vicenç de Castellet,41.664403,1.857659,186
Sant Vicenç de Montalt,Barcelona,Sant Vicenç de Montalt,41.576274,2.505557,127
Sant Vicenç de Torelló,Barcelona,Sant Vicenç de Torelló,42.062676,2.272585,565
Sant Vicenç dels Horts,Barcelona,Sant Vicenç dels Horts,41.385978,2.000922,49
Santa Cecília de Voltregà,Barcelona,Santa Cecília de Voltregà,42.0,2.23333,555
Santa Coloma de Cervelló,Barcelona,Santa Coloma de Cervelló,41.361555,2.003404,150
Santa Coloma de Gramenet,Barcelona,Santa Coloma de Gramenet,41.453431,2.209092,47
Santa Eugènia de Berga,Barcelona,Santa Eugènia de Berga,41.902398,2.280224,511
Santa Eulàlia de Riuprimer,Barcelona,Santa Eulàlia de Riuprimer,41.91058,2.18903,579
Santa Eulàlia de Ronçana,Barcelona,Santa Eulàlia de Ronçana,41.65,2.23333,173
Santa Fe del Penedès,Barcelona,Santa Fe del Penedès,41.38333,1.71667,248
Santa Margarida de Montbui,Barcelona,Santa Margarida de Montbui,41.556596,1.60491,388
Santa Margarida i els Monjos,Barcelona,Santa Margarida i els Monjos,41.310336,1.66369,180
Santa Maria de Besora,Barcelona,Santa Maria de Besora,42.12705,2.25848,850
Santa Maria de Martorelles,Barcelona,Santa Maria de Martorelles,41.51667,2.25,163
Santa Maria de Merlès,Barcelona,Santa Maria de Merlès,42.0,1.98333,520
Santa Maria de Miralles,Barcelona,Santa Maria de Miralles,41.50448,1.5102,551
Santa Maria de Palautordera,Barcelona,Santa Maria de Palautordera,41.694513,2.443936,214
Santa Maria d'Oló,Barcelona,Santa Maria d'Oló,41.87509,2.035379,518
Santa Perpètua de Mogoda,Barcelona,Santa Perpètua de Mogoda,41.53333,2.18333,71
Santa Susanna,Barcelona,Santa Susanna,41.73333,2.4,674
Santpedor,Barcelona,Santpedor,41.784082,1.840928,329
Sentmenat,Barcelona,Sentmenat,41.612478,2.138657,212
Seva,Barcelona,Seva,41.83603,2.283494,690
Sitges,Barcelona,Sitges,41.230643,1.785764,10
Sobremunt,Barcelona,Sobremunt,42.03597,2.16502,878
Sora,Barcelona,Sora,42.11236,2.16083,701
Subirats,Barcelona,Subirats,41.4,1.83333,446
Súria,Barcelona,Súria,41.833359,1.75573,336
Tagamanent,Barcelona,Tagamanent,41.73747,2.2672,340
Talamanca,Barcelona,Talamanca,41.738004,1.975215,541
Taradell,Barcelona,Taradell,41.875818,2.285575,625
Tavèrnoles,Barcelona,Tavèrnoles,41.95592,2.32533,514
Tavertet,Barcelona,Tavertet,41.99572,2.4186,873
Teià,Barcelona,Teià,41.497251,2.31983,119
Terrassa,Barcelona,Terrassa,41.567133,2.017361,304
Tiana,Barcelona,Tiana,41.47663,2.269792,94
Tona,Barcelona,Tona,41.849465,2.228366,600
Tordera,Barcelona,Tordera,41.698049,2.717785,41
Torelló,Barcelona,Torelló,42.049856,2.26059,503
Torre de Claramunt (La),Barcelona,La Torre de Claramunt,41.53044,1.66117,332
Torrelavit,Barcelona,Torrelavit,41.45,1.73333,233
Torrelles de Foix,Barcelona,Torrelles de Foix,41.38333,1.56667,420
Torrelles de Llobregat,Barcelona,Torrelles de Llobregat,41.350622,1.978463,123
Ullastrell,Barcelona,Ullastrell,41.525302,1.956932,301
Vacarisses,Barcelona,Vacarisses,41.6,1.91667,412
Vallbona d'Anoia,Barcelona,Vallbona d'Anoia,41.518461,1.707702,284
Vallcebre,Barcelona,Vallcebre,42.20347,1.81816,1129
Vallgorguina,Barcelona,Vallgorguina,41.64822,2.50996,222
Vallirana,Barcelona,Vallirana,41.38676,1.93205,183
Vallromanes,Barcelona,Vallromanes,41.536932,2.298002,204
Veciana,Barcelona,Veciana,41.672325,1.482873,672
Vic,Barcelona,Vic,41.923104,2.256585,488
Vilada,Barcelona,Vilada,42.13695,1.93162,718
Viladecans,Barcelona,Viladecans,41.321979,2.010207,61
Viladecavalls,Barcelona,Viladecavalls,41.559685,1.953131,262
Vilafranca del Penedès,Barcelona,Vilafranca del Penedès,41.34337,1.698646,226
Vilalba Sasserra,Barcelona,Vilalba Sasserra,41.65,2.45,233
Vilanova de Sau,Barcelona,Vilanova de Sau,41.947,2.3844,566
Vilanova del Camí,Barcelona,Vilanova del Camí,41.574955,1.644977,320
Vilanova del Vallès,Barcelona,Vilanova del Vallès,41.555357,2.296782,117
Vilanova i la Geltrú,Barcelona,Vilanova i la Geltrú,41.22392,1.72511,24
Vilassar de Dalt,Barcelona,Vilassar de Dalt,41.513249,2.358651,116
Vilassar de Mar,Barcelona,Vilassar de Mar,41.505941,2.391612,22
Vilobí del Penedès,Barcelona,Vilobí del Penedès,41.388613,1.661603,288
Viver i Serrateix,Barcelona,Viver i Serrateix,41.9502,1.79864,669
Abajas,Burgos,Abajas,42.6231,-3.58086,846
Adrada de Haza,Burgos,Adrada de Haza,41.59454,-3.82326,830
Aguas Cándidas,Burgos,Aguas Cándidas,42.71652,-3.50258,716
Aguilar de Bureba,Burgos,Aguilar de Bureba,42.591397,-3.325796,693
Albillos,Burgos,Albillos,42.2768,-3.78908,830
Alcocero de Mola,Burgos,Alcocero de Mola,42.47222,-3.3579,801
Alfoz de Bricia,Burgos,Alfoz de Bricia,42.90051,-3.8761,757
Alfoz de Quintanadueñas,Burgos,Alfoz de Quintanadueñas,42.384486,-3.73538,847
Alfoz de Santa Gadea,Burgos,Alfoz de Santa Gadea,42.945412,-3.953661,940
Altable,Burgos,Altable,42.60276,-3.07719,715
Altos (Los),Burgos,Los Altos,42.745232,-3.607229,1004
Ameyugo,Burgos,Ameyugo,42.65617,-3.0617,548
Anguix,Burgos,Anguix,41.75331,-3.93125,816
Aranda de Duero,Burgos,Aranda de Duero,41.667132,-3.698658,800
Arandilla,Burgos,Arandilla,41.73778,-3.42914,887
Arauzo de Miel,Burgos,Arauzo de Miel,41.85878,-3.38773,999
Arauzo de Salce,Burgos,Arauzo de Salce,41.81919,-3.41191,943
Arauzo de Torre,Burgos,Arauzo de Torre,41.79818,-3.42314,920
Arcos,Burgos,Arcos,42.26435,-3.75406,851
Arenillas de Riopisuerga,Burgos,Arenillas de Riopisuerga,42.3568,-4.233993,789
Arija,Burgos,Arija,42.9935,-3.94497,848
Arlanzón,Burgos,Arlanzón,42.32267,-3.45784,985
Arraya de Oca,Burgos,Arraya de Oca,42.41488,-3.39781,925
Atapuerca,Burgos,Atapuerca,42.37757,-3.5079,961
Ausines (Los),Burgos,Los Ausines,42.215932,-3.587735,987
Avellanosa de Muñó,Burgos,Avellanosa de Muñó,41.98349,-3.82553,870
Bahabón de Esgueva,Burgos,Bahabón de Esgueva,41.86162,-3.7298,917
Balbases (Los),Burgos,Los Balbases,42.21507,-4.06481,797
Baños de Valdearados,Burgos,Baños de Valdearados,41.7701,-3.55589,867
Bañuelos de Bureba,Burgos,Bañuelos de Bureba,42.50258,-3.27958,783
Barbadillo de Herreros,Burgos,Barbadillo de Herreros,42.14974,-3.17702,1112
Barbadillo del Mercado,Burgos,Barbadillo del Mercado,42.03858,-3.35669,952
Barbadillo del Pez,Burgos,Barbadillo del Pez,42.11879,-3.22802,1051
Barrio de Muñó,Burgos,Barrio de Muñó,42.17584,-4.00715,775
Barrios de Bureba (Los),Burgos,Los Barrios de Bureba,42.64607,-3.39139,636
Barrios de Colina,Burgos,Barrios de Colina,42.39595,-3.46001,971
Basconcillos del Tozo,Burgos,Basconcillos del Tozo,42.70236,-3.98938,911
Bascuñana,Burgos,Bascuñana,42.42548,-3.08231,800
Belbimbre,Burgos,Belbimbre,42.16873,-4.0128,790
Belorado,Burgos,Belorado,42.418376,-3.195192,770
Berberana,Burgos,Berberana,42.91784,-3.06063,607
Berlangas de Roa,Burgos,Berlangas de Roa,41.68913,-3.87284,781
Berzosa de Bureba,Burgos,Berzosa de Bureba,42.62678,-3.26652,681
Bozoó,Burgos,Bozoó,42.74933,-3.08547,735
Brazacorta,Burgos,Brazacorta,41.71737,-3.36711,913
Briviesca,Burgos,Briviesca,42.550301,-3.324216,724
Bugedo,Burgos,Bugedo,42.64912,-3.01786,538
Buniel,Burgos,Buniel,42.31197,-3.8223,826
Burgos,Burgos,Burgos,42.343288,-3.693108,864
Busto de Bureba,Burgos,Busto de Bureba,42.6591,-3.26512,713
Cabañes de Esgueva,Burgos,Cabañes de Esgueva,41.83023,-3.78824,874
Cabezón de la Sierra,Burgos,Cabezón de la Sierra,41.93434,-3.24154,1008
Caleruega,Burgos,Caleruega,41.82548,-3.48593,968
Campillo de Aranda,Burgos,Campillo de Aranda,41.609055,-3.731442,911
Campolara,Burgos,Campolara,42.11953,-3.4274,974
Canicosa de la Sierra,Burgos,Canicosa de la Sierra,41.93673,-3.04089,1142
Cantabrana,Burgos,Cantabrana,42.342869,-3.694385,862
Carazo,Burgos,Carazo,41.969444,-3.353889,1128
Carcedo de Bureba,Burgos,Carcedo de Bureba,42.57818,-3.4983,753
Carcedo de Burgos,Burgos,Carcedo de Burgos,42.285798,-3.639468,935
Cardeñadijo,Burgos,Cardeñadijo,42.30217,-3.66779,911
Cardeñajimeno,Burgos,Cardeñajimeno,42.33038,-3.62103,928
Cardeñuela Riopico,Burgos,Cardeñuela Riopico,42.36019,-3.5582,922
Carrias,Burgos,Carrias,42.48141,-3.28319,812
Cascajares de Bureba,Burgos,Cascajares de Bureba,42.67884,-3.23768,799
Cascajares de la Sierra,Burgos,Cascajares de la Sierra,42.06177,-3.39936,928
Castellanos de Castro,Burgos,Castellanos de Castro,42.32806,-4.03417,872
Castil de Peones,Burgos,Castil de Peones,42.48348,-3.38461,785
Castildelgado,Burgos,Castildelgado,42.43756,-3.08389,764
Castrillo de la Reina,Burgos,Castrillo de la Reina,41.98714,-3.2356,992
Castrillo de la Vega,Burgos,Castrillo de la Vega,41.651698,-3.780214,816
Castrillo de Riopisuerga,Burgos,Castrillo de Riopisuerga,42.51476,-4.25337,821
Castrillo del Val,Burgos,Castrillo del Val,42.337531,-3.57135,927
Castrillo Mota de Judíos,Burgos,Castrillo Mota de Judíos,42.30782,-4.17283,787
Castrojeriz,Burgos,Castrojeriz,42.288053,-4.142424,796
Cavia,Burgos,Cavia,42.279424,-3.845342,863
Cayuela,Burgos,Cayuela,42.27223,-3.81895,824
Cebrecos,Burgos,Cebrecos,41.98408,-3.59661,956
Celada del Camino,Burgos,Celada del Camino,42.26359,-3.93362,797
Cerezo de Río Tirón,Burgos,Cerezo de Río Tirón,42.4914,-3.136,639
Cerratón de Juarros,Burgos,Cerratón de Juarros,42.42227,-3.37347,962
Ciadoncha,Burgos,Ciadoncha,42.15814,-3.93235,796
Cillaperlata,Burgos,Cillaperlata,42.7807,-3.37599,537
Cilleruelo de Abajo,Burgos,Cilleruelo de Abajo,41.88405,-3.79722,914
Cilleruelo de Arriba,Burgos,Cilleruelo de Arriba,41.90487,-3.66102,962
Ciruelos de Cervera,Burgos,Ciruelos de Cervera,41.90562,-3.53015,1019
Cogollos,Burgos,Cogollos,42.19982,-3.70005,887
Condado de Treviño,Burgos,Condado de Treviño,42.726558,-2.692982,558
Contreras,Burgos,Contreras,42.02004,-3.41084,1028
Coruña del Conde,Burgos,Coruña del Conde,41.76566,-3.39059,897
Covarrubias,Burgos,Covarrubias,42.05926,-3.51956,895
Cubillo del Campo,Burgos,Cubillo del Campo,42.16854,-3.61025,993
Cubo de Bureba,Burgos,Cubo de Bureba,42.64011,-3.20626,685
Cueva de Roa (La),Burgos,La Cueva de Roa,41.66683,-3.94118,767
Cuevas de San Clemente,Burgos,Cuevas de San Clemente,42.13009,-3.5684,1033
Encío,Burgos,Encío,42.67115,-3.0868,612
Espinosa de Cervera,Burgos,Espinosa de Cervera,41.89683,-3.46858,1030
Espinosa de los Monteros,Burgos,Espinosa de los Monteros,43.07732,-3.551038,756
Espinosa del Camino,Burgos,Espinosa del Camino,42.4059,-3.2802,900
Estépar,Burgos,Estépar,42.27731,-3.89946,815
Fontioso,Burgos,Fontioso,41.94273,-3.73872,962
Frandovínez,Burgos,Frandovínez,42.31032,-3.83783,825
Fresneda de la Sierra Tirón,Burgos,Fresneda de la Sierra Tirón,42.31535,-3.13596,979
Fresneña,Burgos,Fresneña,42.41366,-3.13452,851
Fresnillo de las Dueñas,Burgos,Fresnillo de las Dueñas,41.647,-3.64558,806
Fresno de Río Tirón,Burgos,Fresno de Río Tirón,42.467034,-3.18587,816
Fresno de Rodilla,Burgos,Fresno de Rodilla,42.42054,-3.48507,978
Frías,Burgos,Frías,42.76225,-3.29394,555
Fuentebureba,Burgos,Fuentebureba,42.634,-3.2351,678
Fuentecén,Burgos,Fuentecén,41.62852,-3.86867,820
Fuentelcésped,Burgos,Fuentelcésped,41.59162,-3.64064,894
Fuentelisendo,Burgos,Fuentelisendo,41.62274,-3.90129,827
Fuentemolinos,Burgos,Fuentemolinos,41.60477,-3.85005,884
Fuentenebro,Burgos,Fuentenebro,41.52873,-3.75449,912
Fuentespina,Burgos,Fuentespina,41.634044,-3.686798,821
Galbarros,Burgos,Galbarros,42.52729,-3.43827,934
Gallega (La),Burgos,La Gallega,41.89861,-3.26406,1113
Grijalba,Burgos,Grijalba,42.43002,-4.11896,813
Grisaleña,Burgos,Grisaleña,42.59122,-3.26416,745
Gumiel de Izán,Burgos,Gumiel de Izán,41.77303,-3.68755,853
Gumiel de Mercado,Burgos,Gumiel de Mercado,41.75589,-3.8027,836
Hacinas,Burgos,Hacinas,41.98514,-3.28709,997
Haza,Burgos,Haza,41.61667,-3.81667,900
Hontanas,Burgos,Hontanas,42.31312,-4.04529,878
Hontangas,Burgos,Hontangas,41.58216,-3.7955,831
Hontoria de la Cantera,Burgos,Hontoria de la Cantera,42.18879,-3.64251,945
Hontoria de Valdearados,Burgos,Hontoria de Valdearados,41.74488,-3.51983,864
Hontoria del Pinar,Burgos,Hontoria del Pinar,41.84838,-3.16245,1063
Hormazas (Las),Burgos,Las Hormazas,42.5275,-3.926667,905
Hornillos del Camino,Burgos,Hornillos del Camino,42.33863,-3.9256,825
Horra (La),Burgos,La Horra,41.74139,-3.8756,804
Hortigüela,Burgos,Hortigüela,42.06842,-3.42578,940
Hoyales de Roa,Burgos,Hoyales de Roa,41.65893,-3.86202,811
Huérmeces,Burgos,Huérmeces,42.5225,-3.77072,893
Huerta de Arriba,Burgos,Huerta de Arriba,42.11672,-3.08212,1206
Huerta de Rey,Burgos,Huerta de Rey,41.8391,-3.34755,986
Humada,Burgos,Humada,42.66667,-4.08333,955
Hurones,Burgos,Hurones,42.417764,-3.587166,944
Ibeas de Juarros,Burgos,Ibeas de Juarros,42.335439,-3.498621,980
Ibrillos,Burgos,Ibrillos,42.45431,-3.08238,755
Iglesiarrubia,Burgos,Iglesiarrubia,41.97383,-3.84701,890
Iglesias,Burgos,Iglesias,42.312016,-3.984506,923
Isar,Burgos,Isar,42.3614,-3.9304,833
Itero del Castillo,Burgos,Itero del Castillo,42.28988,-4.24441,777
Jaramillo de la Fuente,Burgos,Jaramillo de la Fuente,42.11472,-3.31239,1062
Jaramillo Quemado,Burgos,Jaramillo Quemado,42.08568,-3.35868,993
Junta de Traslaloma,Burgos,Junta de Traslaloma,43.051425,-3.392922,737
Junta de Villalba de Losa,Burgos,Junta de Villalba de Losa,42.9501,-3.06996,680
Jurisdicción de Lara,Burgos,Jurisdicción de Lara,42.142185,-3.460174,1004
Jurisdicción de San Zadornil,Burgos,Jurisdicción de San Zadornil,42.83902,-3.15819,707
Lerma,Burgos,Lerma,42.023659,-3.755581,848
Llano de Bureba,Burgos,Llano de Bureba,42.62435,-3.4589,644
Madrigal del Monte,Burgos,Madrigal del Monte,42.14464,-3.67571,940
Madrigalejo del Monte,Burgos,Madrigalejo del Monte,42.12442,-3.72509,894
Mahamud,Burgos,Mahamud,42.11981,-3.9406,830
Mambrilla de Castrejón,Burgos,Mambrilla de Castrejón,41.66634,-3.98448,838
Mambrillas de Lara,Burgos,Mambrillas de Lara,42.09446,-3.46194,991
Mamolar,Burgos,Mamolar,41.92762,-3.36228,1078
Manciles,Burgos,Manciles,42.45728,-3.94461,894
Mazuela,Burgos,Mazuela,42.20767,-3.9192,826
Mecerreyes,Burgos,Mecerreyes,42.09536,-3.57393,987
Medina de Pomar,Burgos,Medina de Pomar,42.930478,-3.48517,585
Melgar de Fernamental,Burgos,Melgar de Fernamental,42.40407,-4.243837,803
Merindad de Cuesta-Urria,Burgos,Merindad de Cuesta-Urria,42.845481,-3.426259,548
Merindad de Montija,Burgos,Merindad de Montija,43.06106,-3.48217,695
Merindad de Río Ubierna,Burgos,Merindad de Río Ubierna,42.59358,-3.681353,1046
Merindad de Sotoscueva,Burgos,Merindad de Sotoscueva,43.02907,-3.64511,747
Merindad de Valdeporres,Burgos,Merindad de Valdeporres,43.077473,-3.789763,1319
Merindad de Valdivielso,Burgos,Merindad de Valdivielso,42.82363,-3.54439,579
Milagros,Burgos,Milagros,41.575,-3.69907,847
Miranda de Ebro,Burgos,Miranda de Ebro,42.686895,-2.9424,466
Miraveche,Burgos,Miraveche,42.67396,-3.19947,806
Modúbar de la Emparedada,Burgos,Modúbar de la Emparedada,42.26118,-3.65965,879
Monasterio de la Sierra,Burgos,Monasterio de la Sierra,42.0518,-3.19314,1173
Monasterio de Rodilla,Burgos,Monasterio de Rodilla,42.45776,-3.46966,876
Moncalvillo,Burgos,Moncalvillo,41.95413,-3.19886,1063
Monterrubio de la Demanda,Burgos,Monterrubio de la Demanda,42.14894,-3.11335,1207
Montorio,Burgos,Montorio,42.58469,-3.77724,957
Moradillo de Roa,Burgos,Moradillo de Roa,41.55164,-3.79118,922
Nava de Roa,Burgos,Nava de Roa,41.61326,-3.96442,791
Navas de Bureba,Burgos,Navas de Bureba,42.6809,-3.32698,750
Nebreda,Burgos,Nebreda,41.96881,-3.6343,916
Neila,Burgos,Neila,42.06016,-2.99691,1187
Olmedillo de Roa,Burgos,Olmedillo de Roa,41.78362,-3.9342,847
Olmillos de Muñó,Burgos,Olmillos de Muñó,42.20322,-3.93911,811
Oña,Burgos,Oña,42.734,-3.41459,583
Oquillas,Burgos,Oquillas,41.83085,-3.70564,903
Orbaneja Riopico,Burgos,Orbaneja Riopico,42.36083,-3.58223,923
Padilla de Abajo,Burgos,Padilla de Abajo,42.40774,-4.17652,798
Padilla de Arriba,Burgos,Padilla de Arriba,42.43803,-4.19094,821
Padrones de Bureba,Burgos,Padrones de Bureba,42.70582,-3.53296,774
Palacios de la Sierra,Burgos,Palacios de la Sierra,41.96392,-3.12788,1065
Palacios de Riopisuerga,Burgos,Palacios de Riopisuerga,42.34395,-4.25686,777
Palazuelos de la Sierra,Burgos,Palazuelos de la Sierra,42.21162,-3.46014,1110
Palazuelos de Muñó,Burgos,Palazuelos de Muñó,42.19692,-3.98984,785
Pampliega,Burgos,Pampliega,42.20582,-3.98666,807
Pancorbo,Burgos,Pancorbo,42.629676,-3.111785,636
Pardilla,Burgos,Pardilla,41.55183,-3.71089,885
Partido de la Sierra en Tobalina,Burgos,Partido de la Sierra en Tobalina,42.72464,-3.23942,722
Pedrosa de Duero,Burgos,Pedrosa de Duero,41.71289,-3.98804,838
Pedrosa de Río Úrbel,Burgos,Pedrosa de Río Úrbel,42.416015,-3.841172,896
Pedrosa del Páramo,Burgos,Pedrosa del Páramo,42.44208,-3.9719,946
Pedrosa del Príncipe,Burgos,Pedrosa del Príncipe,42.24918,-4.19849,773
Peñaranda de Duero,Burgos,Peñaranda de Duero,41.68849,-3.47863,859
Peral de Arlanza,Burgos,Peral de Arlanza,42.064475,-4.067068,856
Piérnigas,Burgos,Piérnigas,42.5903,-3.41337,737
Pineda de la Sierra,Burgos,Pineda de la Sierra,42.2156,-3.2969,1207
Pineda Trasmonte,Burgos,Pineda Trasmonte,41.9092,-3.69566,954
Pinilla de los Barruecos,Burgos,Pinilla de los Barruecos,41.91791,-3.30371,1086
Pinilla de los Moros,Burgos,Pinilla de los Moros,42.06815,-3.32706,968
Pinilla Trasmonte,Burgos,Pinilla Trasmonte,41.87324,-3.61971,936
Poza de la Sal,Burgos,Poza de la Sal,42.66542,-3.5014,757
Prádanos de Bureba,Burgos,Prádanos de Bureba,42.50264,-3.34752,758
Pradoluengo,Burgos,Pradoluengo,42.323726,-3.200385,963
Presencio,Burgos,Presencio,42.18656,-3.90135,816
Puebla de Arganzón (La),Burgos,La Puebla de Arganzón,42.76622,-2.83059,479
Puentedura,Burgos,Puentedura,42.04134,-3.58227,862
Quemada,Burgos,Quemada,41.70073,-3.57476,838
Quintana del Pidio,Burgos,Quintana del Pidio,41.75886,-3.75121,847
Quintanabureba,Burgos,Quintanabureba,42.58665,-3.36684,692
Quintanaélez,Burgos,Quintanaélez,42.66921,-3.29877,714
Quintanaortuño,Burgos,Quintanaortuño,42.45,-3.68333,864
Quintanapalla,Burgos,Quintanapalla,42.40914,-3.53296,919
Quintanar de la Sierra,Burgos,Quintanar de la Sierra,41.986702,-3.031937,1130
Quintanavides,Burgos,Quintanavides,42.48084,-3.42449,813
Quintanilla de la Mata,Burgos,Quintanilla de la Mata,41.98855,-3.76756,879
Quintanilla del Agua y Tordueles,Burgos,Quintanilla del Agua y Tordueles,42.051315,-3.645675,905
Quintanilla del Coco,Burgos,Quintanilla del Coco,41.98333,-3.51667,951
Quintanilla San García,Burgos,Quintanilla San García,42.5485,-3.19321,730
Quintanilla Vivar,Burgos,Quintanilla Vivar,42.41585,-3.68849,849
Quintanillas (Las),Burgos,Las Quintanillas,42.3725,-3.843889,842
Rabanera del Pinar,Burgos,Rabanera del Pinar,41.89375,-3.19665,1096
Rábanos,Burgos,Rábanos,42.31971,-3.27029,1175
Rabé de las Calzadas,Burgos,Rabé de las Calzadas,42.34065,-3.83414,830
Rebolledo de la Torre,Burgos,Rebolledo de la Torre,42.68931,-4.22693,948
Redecilla del Camino,Burgos,Redecilla del Camino,42.43804,-3.06547,742
Redecilla del Campo,Burgos,Redecilla del Campo,42.46675,-3.11531,743
Regumiel de la Sierra,Burgos,Regumiel de la Sierra,41.955008,-2.989327,1127
Reinoso,Burgos,Reinoso,42.50915,-3.38466,889
Retuerta,Burgos,Retuerta,42.03316,-3.49918,904
Revilla del Campo,Burgos,Revilla del Campo,42.21081,-3.54289,939
Revilla Vallejera,Burgos,Revilla Vallejera,42.14674,-4.13379,790
Revilla y Ahedo (La),Burgos,La Revilla y Ahedo,41.99754,-3.35232,1028
Revillarruz,Burgos,Revillarruz,42.23006,-3.65246,884
Rezmondo,Burgos,Rezmondo,42.51565,-4.23877,827
Riocavado de la Sierra,Burgos,Riocavado de la Sierra,42.15209,-3.19759,1139
Roa,Burgos,Roa,41.696705,-3.929606,806
Rojas,Burgos,Rojas,42.57781,-3.44195,720
Royuela de Río Franco,Burgos,Royuela de Río Franco,42.00217,-3.95547,836
Rubena,Burgos,Rubena,42.38746,-3.57485,912
Rublacedo de Abajo,Burgos,Rublacedo de Abajo,42.55332,-3.50236,803
Rucandio,Burgos,Rucandio,42.7511,-3.54166,788
Salas de Bureba,Burgos,Salas de Bureba,42.6919,-3.47359,640
Salas de los Infantes,Burgos,Salas de los Infantes,42.018566,-3.280383,971
Saldaña de Burgos,Burgos,Saldaña de Burgos,42.25838,-3.69707,862
Salinillas de Bureba,Burgos,Salinillas de Bureba,42.55243,-3.38753,897
San Adrián de Juarros,Burgos,San Adrián de Juarros,42.27427,-3.47551,1041
San Juan del Monte,Burgos,San Juan del Monte,41.68313,-3.52337,850
San Mamés de Burgos,Burgos,San Mamés de Burgos,42.33685,-3.79397,842
San Martín de Rubiales,Burgos,San Martín de Rubiales,41.64191,-3.99134,793
San Millán de Lara,Burgos,San Millán de Lara,42.13621,-3.34515,1096
San Vicente del Valle,Burgos,San Vicente del Valle,42.33756,-3.1621,977
Santa Cecilia,Burgos,Santa Cecilia,42.05225,-3.80345,843
Santa Cruz de la Salceda,Burgos,Santa Cruz de la Salceda,41.59591,-3.59317,903
Santa Cruz del Valle Urbión,Burgos,Santa Cruz del Valle Urbión,42.30558,-3.2214,959
Santa Gadea del Cid,Burgos,Santa Gadea del Cid,42.71531,-3.05885,502
Santa Inés,Burgos,Santa Inés,42.04013,-3.70322,863
Santa María del Campo,Burgos,Santa María del Campo,42.132034,-3.972097,813
Santa María del Invierno,Burgos,Santa María del Invierno,42.44288,-3.43782,850
Santa María del Mercadillo,Burgos,Santa María del Mercadillo,41.869547,-3.558141,957
Santa María Rivarredonda,Burgos,Santa María Rivarredonda,42.64048,-3.18046,689
Santa Olalla de Bureba,Burgos,Santa Olalla de Bureba,42.47721,-3.44109,854
Santibáñez de Esgueva,Burgos,Santibáñez de Esgueva,41.83143,-3.75316,891
Santibáñez del Val,Burgos,Santibáñez del Val,41.97354,-3.48142,939
Santo Domingo de Silos,Burgos,Santo Domingo de Silos,41.964,-3.4174,1022
Sargentes de la Lora,Burgos,Sargentes de la Lora,42.76917,-3.87278,1016
Sarracín,Burgos,Sarracín,42.25813,-3.68608,860
Sasamón,Burgos,Sasamón,42.41687,-4.04288,820
Sequera de Haza (La),Burgos,La Sequera de Haza,41.56398,-3.81715,864
Solarana,Burgos,Solarana,41.97936,-3.66828,887
Sordillos,Burgos,Sordillos,42.46197,-4.10726,821
Sotillo de la Ribera,Burgos,Sotillo de la Ribera,41.77717,-3.82525,846
Sotragero,Burgos,Sotragero,42.40996,-3.71312,847
Sotresgudo,Burgos,Sotresgudo,42.57935,-4.17725,871
Susinos del Páramo,Burgos,Susinos del Páramo,42.47108,-3.92555,909
Tamarón,Burgos,Tamarón,42.27386,-3.99154,818
Tardajos,Burgos,Tardajos,42.34909,-3.817,824
Tejada,Burgos,Tejada,41.95249,-3.53514,1081
Terradillos de Esgueva,Burgos,Terradillos de Esgueva,41.81885,-3.84318,869
Tinieblas de la Sierra,Burgos,Tinieblas de la Sierra,42.185188,-3.363838,1202
Tobar,Burgos,Tobar,42.349774,-3.671651,873
Tordómar,Burgos,Tordómar,42.0463,-3.86514,821
Torrecilla del Monte,Burgos,Torrecilla del Monte,42.0949,-3.69356,944
Torregalindo,Burgos,Torregalindo,41.58299,-3.75222,834
Torrelara,Burgos,Torrelara,42.16673,-3.51689,1016
Torrepadre,Burgos,Torrepadre,42.04388,-3.93701,795
Torresandino,Burgos,Torresandino,41.8292,-3.90981,862
Tórtoles de Esgueva,Burgos,Tórtoles de Esgueva,41.81611,-4.024,849
Tosantos,Burgos,Tosantos,42.41368,-3.24286,821
Trespaderne,Burgos,Trespaderne,42.802778,-3.388634,555
Tubilla del Agua,Burgos,Tubilla del Agua,42.70932,-3.80116,779
Tubilla del Lago,Burgos,Tubilla del Lago,41.80154,-3.58626,892
Úrbel del Castillo,Burgos,Úrbel del Castillo,42.62,-3.843611,940
Vadocondes,Burgos,Vadocondes,41.63924,-3.57378,812
Valdeande,Burgos,Valdeande,41.83302,-3.52792,944
Valdezate,Burgos,Valdezate,41.60232,-3.93045,828
Valdorros,Burgos,Valdorros,42.170454,-3.723172,910
Vallarta de Bureba,Burgos,Vallarta de Bureba,42.58864,-3.20457,721
Valle de las Navas,Burgos,Valle de las Navas,42.468059,-3.578369,892
Valle de Losa,Burgos,Valle de Losa,42.993245,-3.247164,643
Valle de Manzanedo,Burgos,Valle de Manzanedo,42.89818,-3.71242,607
Valle de Mena,Burgos,Valle de Mena,43.08464,-3.30194,339
Valle de Oca,Burgos,Valle de Oca,42.445,-3.323543,843
Valle de Santibáñez,Burgos,Valle de Santibáñez,42.47735,-3.81911,955
Valle de Sedano,Burgos,Valle de Sedano,42.72837,-3.76035,729
Valle de Tobalina,Burgos,Valle de Tobalina,42.77494,-3.203113,513
Valle de Valdebezana,Burgos,Valle de Valdebezana,42.972281,-3.825262,831
Valle de Valdelaguna,Burgos,Valle de Valdelaguna,42.1004,-3.12917,1202
Valle de Valdelucio,Burgos,Valle de Valdelucio,42.721282,-4.063233,972
Valle de Zamanzas,Burgos,Valle de Zamanzas,42.8566,-3.74635,722
Vallejera,Burgos,Vallejera,42.18431,-4.1549,830
Valles de Palenzuela,Burgos,Valles de Palenzuela,42.12019,-4.0775,807
Valluércanes,Burgos,Valluércanes,42.5722,-3.12113,704
Valmala,Burgos,Valmala,42.3059,-3.25456,991
Vid de Bureba (La),Burgos,La Vid de Bureba,42.63068,-3.30074,698
Vid y Barrios (La),Burgos,La Vid y Barrios,41.629121,-3.488094,824
Vileña,Burgos,Vileña,42.62227,-3.32293,664
Villadiego,Burgos,Villadiego,42.51589,-4.00958,841
Villaescusa de Roa,Burgos,Villaescusa de Roa,41.72727,-4.0172,898
Villaescusa la Sombría,Burgos,Villaescusa la Sombría,42.41518,-3.4184,907
Villaespasa,Burgos,Villaespasa,42.09991,-3.40436,960
Villafranca Montes de Oca,Burgos,Villafranca Montes de Oca,42.38781,-3.30949,954
Villafruela,Burgos,Villafruela,41.91647,-3.9137,912
Villagalijo,Burgos,Villagalijo,42.34872,-3.19203,896
Villagonzalo Pedernales,Burgos,Villagonzalo Pedernales,42.301823,-3.735445,900
Villahoz,Burgos,Villahoz,42.07587,-3.9129,825
Villalba de Duero,Burgos,Villalba de Duero,41.68243,-3.74443,808
Villalbilla de Burgos,Burgos,Villalbilla de Burgos,42.34757,-3.78101,838
Villalbilla de Gumiel,Burgos,Villalbilla de Gumiel,41.80621,-3.62584,919
Villaldemiro,Burgos,Villaldemiro,42.24718,-3.98534,809
Villalmanzo,Burgos,Villalmanzo,42.0484,-3.74195,858
Villamayor de los Montes,Burgos,Villamayor de los Montes,42.10565,-3.76542,891
Villamayor de Treviño,Burgos,Villamayor de Treviño,42.46048,-4.11923,820
Villambistia,Burgos,Villambistia,42.40543,-3.26192,860
Villamedianilla,Burgos,Villamedianilla,42.1607,-4.14592,800
Villamiel de la Sierra,Burgos,Villamiel de la Sierra,42.19124,-3.41771,1149
Villangómez,Burgos,Villangómez,42.17961,-3.77419,850
Villanueva de Argaño,Burgos,Villanueva de Argaño,42.383311,-3.939876,847
Villanueva de Carazo,Burgos,Villanueva de Carazo,41.98275,-3.32428,1057
Villanueva de Gumiel,Burgos,Villanueva de Gumiel,41.73778,-3.62658,844
Villanueva de Teba,Burgos,Villanueva de Teba,42.6489,-3.16313,724
Villaquirán de la Puebla,Burgos,Villaquirán de la Puebla,42.28287,-4.10037,817
Villaquirán de los Infantes,Burgos,Villaquirán de los Infantes,42.22744,-4.00864,812
Villarcayo de Merindad de Castilla la Vieja,Burgos,Villarcayo de Merindad de Castilla la Vieja,42.938933,-3.569492,596
Villariezo,Burgos,Villariezo,42.26965,-3.73272,859
Villasandino,Burgos,Villasandino,42.37072,-4.10975,793
Villasur de Herreros,Burgos,Villasur de Herreros,42.30764,-3.3942,1034
Villatuelda,Burgos,Villatuelda,41.81499,-3.88054,858
Villaverde del Monte,Burgos,Villaverde del Monte,42.16075,-3.81421,850
Villaverde-Mogina,Burgos,Villaverde-Mogina,42.16041,-4.05024,775
Villayerno Morquillas,Burgos,Villayerno Morquillas,42.397322,-3.639835,933
Villazopeque,Burgos,Villazopeque,42.19845,-4.01688,784
Villegas,Burgos,Villegas,42.469444,-4.015278,829
Villoruebo,Burgos,Villoruebo,42.16874,-3.44159,1114
Viloria de Rioja,Burgos,Viloria de Rioja,42.42608,-3.10056,800
Vilviestre del Pinar,Burgos,Vilviestre del Pinar,41.95033,-3.07803,1132
Vizcaínos,Burgos,Vizcaínos,42.10359,-3.26698,1026
Zael,Burgos,Zael,42.10587,-3.82623,845
Zarzosa de Río Pisuerga,Burgos,Zarzosa de Río Pisuerga,42.54613,-4.25638,865
Zazuar,Burgos,Zazuar,41.69528,-3.55451,832
Zuñeda,Burgos,Zuñeda,42.60501,-3.22632,718
Abadía,Cáceres,Abadía,40.25922,-5.97828,453
Abertura,Cáceres,Abertura,39.24352,-5.81394,397
Acebo,Cáceres,Acebo,40.2017,-6.7172,509
Acehúche,Cáceres,Acehúche,39.802203,-6.633267,338
Aceituna,Cáceres,Aceituna,40.15008,-6.33292,480
Ahigal,Cáceres,Ahigal,40.189347,-6.188442,388
Alagón del Río,Cáceres,Alagón del Río,39.97328,-6.316475,259
Albalá,Cáceres,Albalá,39.255859,-6.185592,501
Alcántara,Cáceres,Alcántara,39.716337,-6.883391,260
Alcollarín,Cáceres,Alcollarín,39.2447,-5.73924,314
Alcuéscar,Cáceres,Alcuéscar,39.180525,-6.231699,463
Aldea del Cano,Cáceres,Aldea del Cano,39.288675,-6.319567,399
Aldea del Obispo (La),Cáceres,La Aldea del Obispo,39.570115,-5.921337,447
Aldeacentenera,Cáceres,Aldeacentenera,39.527927,-5.630118,563
Aldeanueva de la Vera,Cáceres,Aldeanueva de la Vera,40.126014,-5.701695,643
Aldeanueva del Camino,Cáceres,Aldeanueva del Camino,40.258999,-5.92897,530
Aldehuela de Jerte,Cáceres,Aldehuela de Jerte,40.01008,-6.239764,261
Alía,Cáceres,Alía,39.448501,-5.217851,579
Aliseda,Cáceres,Aliseda,39.422152,-6.69244,334
Almaraz,Cáceres,Almaraz,39.814166,-5.676165,275
Almoharín,Cáceres,Almoharín,39.175217,-6.041539,294
Arroyo de la Luz,Cáceres,Arroyo de la Luz,39.483506,-6.582844,347
Arroyomolinos,Cáceres,Arroyomolinos,39.185568,-6.162929,402
Arroyomolinos de la Vera,Cáceres,Arroyomolinos de la Vera,40.05277,-5.85111,601
Baños de Montemayor,Cáceres,Baños de Montemayor,40.318803,-5.857728,710
Barrado,Cáceres,Barrado,40.08477,-5.88068,812
Belvís de Monroy,Cáceres,Belvís de Monroy,39.81859,-5.60327,383
Benquerencia,Cáceres,Benquerencia,39.30994,-6.08465,446
Berrocalejo,Cáceres,Berrocalejo,39.81948,-5.34951,379
Berzocana,Cáceres,Berzocana,39.43673,-5.46121,714
Bohonal de Ibor,Cáceres,Bohonal de Ibor,39.78392,-5.480828,340
Botija,Cáceres,Botija,39.345819,-6.074522,422
Brozas,Cáceres,Brozas,39.611341,-6.778873,412
Cabañas del Castillo,Cáceres,Cabañas del Castillo,39.54804,-5.51203,793
Cabezabellosa,Cáceres,Cabezabellosa,40.13763,-6.00086,849
Cabezuela del Valle,Cáceres,Cabezuela del Valle,40.193106,-5.806342,505
Cabrero,Cáceres,Cabrero,40.11324,-5.89293,736
Cáceres,Cáceres,Cáceres,39.464967,-6.377459,462
Cachorrilla,Cáceres,Cachorrilla,39.91557,-6.66909,317
Cadalso,Cáceres,Cadalso,40.23743,-6.54083,434
Calzadilla,Cáceres,Calzadilla,40.06014,-6.53328,358
Caminomorisco,Cáceres,Caminomorisco,40.32719,-6.28923,479
Campillo de Deleitosa,Cáceres,Campillo de Deleitosa,39.70297,-5.57436,500
Campo Lugar,Cáceres,Campo Lugar,39.16761,-5.75336,318
Cañamero,Cáceres,Cañamero,39.380414,-5.38797,610
Cañaveral,Cáceres,Cañaveral,39.793415,-6.389006,364
Carbajo,Cáceres,Carbajo,39.60333,-7.19565,333
Carcaboso,Cáceres,Carcaboso,40.049735,-6.214542,275
Carrascalejo,Cáceres,Carrascalejo,39.647639,-5.216582,591
Casar de Cáceres,Cáceres,Casar de Cáceres,39.561001,-6.417497,369
Casar de Palomero,Cáceres,Casar de Palomero,40.29483,-6.25698,526
Casares de las Hurdes,Cáceres,Casares de las Hurdes,40.43333,-6.28333,583
Casas de Don Antonio,Cáceres,Casas de Don Antonio,39.23578,-6.29143,406
Casas de Don Gómez,Cáceres,Casas de Don Gómez,40.00932,-6.60073,324
Casas de Millán,Cáceres,Casas de Millán,39.817491,-6.329281,474
Casas de Miravete,Cáceres,Casas de Miravete,39.72688,-5.74363,453
Casas del Castañar,Cáceres,Casas del Castañar,40.10785,-5.90509,684
Casas del Monte,Cáceres,Casas del Monte,40.203457,-5.960658,588
Casatejada,Cáceres,Casatejada,39.887505,-5.681793,271
Casillas de Coria,Cáceres,Casillas de Coria,39.96543,-6.63711,245
Castañar de Ibor,Cáceres,Castañar de Ibor,39.628869,-5.417838,654
Ceclavín,Cáceres,Ceclavín,39.821806,-6.772569,332
Cedillo,Cáceres,Cedillo,39.65099,-7.49817,268
Cerezo,Cáceres,Cerezo,40.23678,-6.22764,399
Cilleros,Cáceres,Cilleros,40.113164,-6.792239,452
Collado de la Vera,Cáceres,Collado de la Vera,40.05729,-5.72052,447
Conquista de la Sierra,Cáceres,Conquista de la Sierra,39.3507,-5.73464,442
Coria,Cáceres,Coria,39.98587,-6.533753,268
Cuacos de Yuste,Cáceres,Cuacos de Yuste,40.102726,-5.723831,521
Cumbre (La),Cáceres,La Cumbre,39.4046,-5.97635,481
Deleitosa,Cáceres,Deleitosa,39.643715,-5.646155,559
Descargamaría,Cáceres,Descargamaría,40.30446,-6.48666,518
Eljas,Cáceres,Eljas,40.217155,-6.846111,592
Escurial,Cáceres,Escurial,39.168245,-5.885497,316
Fresnedoso de Ibor,Cáceres,Fresnedoso de Ibor,39.68418,-5.50899,517
Galisteo,Cáceres,Galisteo,39.981585,-6.277335,258
Garciaz,Cáceres,Garciaz,39.41287,-5.62822,660
Garganta la Olla,Cáceres,Garganta la Olla,40.11049,-5.77665,586
Garganta (La),Cáceres,La Garganta,40.32888,-5.82321,1128
Gargantilla,Cáceres,Gargantilla,40.234975,-5.903079,952
Gargüera,Cáceres,Gargüera,40.0613,-5.92782,526
Garrovillas de Alconétar,Cáceres,Garrovillas de Alconétar,39.711388,-6.548226,323
Garvín,Cáceres,Garvín,39.71984,-5.34678,503
Gata,Cáceres,Gata,40.237908,-6.596263,651
Gordo (El),Cáceres,El Gordo,39.8656,-5.34343,326
Granja (La),Cáceres,La Granja,40.15566,-6.88673,414
Guadalupe,Cáceres,Guadalupe,39.452274,-5.327189,641
Guijo de Coria,Cáceres,Guijo de Coria,40.10098,-6.46383,448
Guijo de Galisteo,Cáceres,Guijo de Galisteo,39.972094,-6.377561,285
Guijo de Granadilla,Cáceres,Guijo de Granadilla,40.192985,-6.16374,393
Guijo de Santa Bárbara,Cáceres,Guijo de Santa Bárbara,40.1541,-5.65414,922
Herguijuela,Cáceres,Herguijuela,39.37452,-5.76001,460
Hernán-Pérez,Cáceres,Hernán-Pérez,40.212823,-6.464001,436
Herrera de Alcántara,Cáceres,Herrera de Alcántara,39.63865,-7.40619,264
Herreruela,Cáceres,Herreruela,39.462021,-6.906893,323
Hervás,Cáceres,Hervás,40.272294,-5.862741,670
Higuera,Cáceres,Higuera,39.464967,-6.377459,462
Hinojal,Cáceres,Hinojal,39.708454,-6.356587,342
Holguera,Cáceres,Holguera,39.89814,-6.350222,277
Hoyos,Cáceres,Hoyos,40.163439,-6.724292,542
Huélaga,Cáceres,Huélaga,40.05582,-6.61568,285
Ibahernando,Cáceres,Ibahernando,39.325162,-5.918215,539
Jaraicejo,Cáceres,Jaraicejo,39.664956,-5.814435,490
Jaraíz de la Vera,Cáceres,Jaraíz de la Vera,40.03407,-5.75231,436
Jarandilla de la Vera,Cáceres,Jarandilla de la Vera,40.129322,-5.658795,619
Jarilla,Cáceres,Jarilla,39.12942,-6.15018,351
Jerte,Cáceres,Jerte,40.222299,-5.750755,611
Ladrillar,Cáceres,Ladrillar,40.46576,-6.22427,704
Logrosán,Cáceres,Logrosán,39.336539,-5.490481,481
Losar de la Vera,Cáceres,Losar de la Vera,40.121554,-5.604164,529
Madrigal de la Vera,Cáceres,Madrigal de la Vera,40.14772,-5.368682,386
Madrigalejo,Cáceres,Madrigalejo,39.1372,-5.628575,296
Madroñera,Cáceres,Madroñera,39.424389,-5.758214,585
Majadas,Cáceres,Majadas,39.942646,-5.746874,264
Malpartida de Cáceres,Cáceres,Malpartida de Cáceres,39.445685,-6.509214,369
Malpartida de Plasencia,Cáceres,Malpartida de Plasencia,39.978067,-6.044828,446
Marchagaz,Cáceres,Marchagaz,40.26769,-6.27485,521
Mata de Alcántara,Cáceres,Mata de Alcántara,39.71738,-6.81825,338
Membrío,Cáceres,Membrío,39.526818,-7.053254,332
Mesas de Ibor,Cáceres,Mesas de Ibor,39.75587,-5.54637,484
Miajadas,Cáceres,Miajadas,39.150756,-5.907272,300
Millanes,Cáceres,Millanes,39.84917,-5.58079,372
Mirabel,Cáceres,Mirabel,39.862175,-6.232815,510
Mohedas de Granadilla,Cáceres,Mohedas de Granadilla,40.268579,-6.202347,448
Monroy,Cáceres,Monroy,39.635988,-6.209761,370
Montánchez,Cáceres,Montánchez,39.225626,-6.149893,708
Montehermoso,Cáceres,Montehermoso,40.088083,-6.350407,399
Moraleja,Cáceres,Moraleja,40.068705,-6.658929,263
Morcillo,Cáceres,Morcillo,40.01884,-6.39746,270
Navaconcejo,Cáceres,Navaconcejo,40.177698,-5.830343,464
Navalmoral de la Mata,Cáceres,Navalmoral de la Mata,39.89158,-5.54064,298
Navalvillar de Ibor,Cáceres,Navalvillar de Ibor,39.5839,-5.41328,675
Navas del Madroño,Cáceres,Navas del Madroño,39.621833,-6.653625,438
Navezuelas,Cáceres,Navezuelas,39.50918,-5.43766,920
Nuñomoral,Cáceres,Nuñomoral,40.40692,-6.24636,501
Oliva de Plasencia,Cáceres,Oliva de Plasencia,40.11227,-6.08648,404
Palomero,Cáceres,Palomero,40.24688,-6.27706,452
Pasarón de la Vera,Cáceres,Pasarón de la Vera,40.05175,-5.82124,598
Pedroso de Acim,Cáceres,Pedroso de Acim,39.82522,-6.41251,452
Peraleda de la Mata,Cáceres,Peraleda de la Mata,39.853305,-5.460702,339
Peraleda de San Román,Cáceres,Peraleda de San Román,39.7413,-5.38726,474
Perales del Puerto,Cáceres,Perales del Puerto,40.156472,-6.681163,422
Pescueza,Cáceres,Pescueza,39.91807,-6.64589,329
Pesga (La),Cáceres,La Pesga,40.326122,-6.175329,442
Piedras Albas,Cáceres,Piedras Albas,39.78417,-6.92588,356
Pinofranqueado,Cáceres,Pinofranqueado,40.301987,-6.331637,453
Piornal,Cáceres,Piornal,40.115778,-5.84562,1187
Plasencia,Cáceres,Plasencia,40.036822,-6.086921,377
Plasenzuela,Cáceres,Plasenzuela,39.38194,-6.04786,427
Portaje,Cáceres,Portaje,39.91757,-6.56218,379
Portezuelo,Cáceres,Portezuelo,39.81233,-6.47433,366
Pozuelo de Zarzón,Cáceres,Pozuelo de Zarzón,40.147514,-6.415008,469
Pueblonuevo de Miramontes,Cáceres,Pueblonuevo de Miramontes,40.0606,-5.37832,287
Puerto de Santa Cruz,Cáceres,Puerto de Santa Cruz,39.31631,-5.85875,451
Rebollar,Cáceres,Rebollar,40.15389,-5.89956,601
Riolobos,Cáceres,Riolobos,39.920144,-6.303836,271
