municipio,provincia,municipio_nombre_humano,lat,lon,kms_capital_provincia
Agurain/Salvatierra,Álava,Agurain/Salvatierra,42.847308,-2.392287,29.925819
Alegría-Dulantzi,Álava,Alegría-Dulantzi,42.841339,-2.51244,15.245745
Amurrio,Álava,Amurrio,43.052099,-3.001084,40.120036999999996
Añana,Álava,Añana,42.80199,-2.98636,34.224366
Aramaio,Álava,Aramaio,43.039,-2.60173,28.003846000000003
Armiñón,Álava,Armiñón,42.72313,-2.87172,29.055999
Arraia-Maeztu,Álava,Arraia-Maeztu,42.74284,-2.44683,25.551118
Arratzua-Ubarrundia,Álava,Arratzua-Ubarrundia,42.889187,-2.639355,5.852825
Artziniega,Álava,Artziniega,43.120812,-3.127981,54.539106
Asparrena,Álava,Asparrena,42.889667,-2.316775,36.936415999999994
Ayala/Aiara,Álava,Ayala/Aiara,43.069205,-3.024081,44.226995
Baños de Ebro/Mañueta,Álava,Baños de Ebro/Mañueta,42.52997,-2.67924,66.54245
Barrundia,Álava,Barrundia,42.91377,-2.5071,19.441073
Berantevilla,Álava,Berantevilla,42.68254,-2.85832,37.30453
Bernedo,Álava,Bernedo,42.62663,-2.49784,40.059795
Campezo/Kanpezu,Álava,Campezo/Kanpezu,42.69412,-2.36442,41.133918
Elburgo/Burgelu,Álava,Elburgo/Burgelu,42.84972,-2.54513,11.403306999999998
Elciego,Álava,Elciego,42.515216,-2.619526,47.591479
Elvillar/Bilar,Álava,Elvillar/Bilar,42.56994,-2.54502,50.93513
Erriberabeitia,Álava,Erriberabeitia,42.910532,-2.754306,11.016056
Erriberagoitia/Ribera Alta,Álava,Erriberagoitia/Ribera Alta,42.910532,-2.754306,11.016056
Harana/Valle de Arana,Álava,Harana/Valle de Arana,42.910532,-2.754306,11.016056
Iruña Oka/Iruña de Oca,Álava,Iruña Oka/Iruña de Oca,42.82931,-2.81194,12.930897000000002
Iruraiz-Gauna,Álava,Iruraiz-Gauna,42.82001,-2.49002,17.866819
Kripan,Álava,Kripan,42.59113,-2.51656,51.496974
Kuartango,Álava,Kuartango,42.895743,-2.933869,36.678466
Labastida/Bastida,Álava,Labastida/Bastida,42.588749,-2.796281,48.241712
Lagrán,Álava,Lagrán,42.62625,-2.58385,37.484655
Laguardia,Álava,Laguardia,42.553699,-2.584773,45.626647
Lanciego/Lantziego,Álava,Lanciego/Lantziego,42.56248,-2.51343,54.514898
Lantarón,Álava,Lantarón,42.728169,-3.004472,43.826629999999994
Lapuebla de Labarca,Álava,Lapuebla de Labarca,42.49454,-2.5734,84.72726399999999
Laudio/Llodio,Álava,Laudio/Llodio,43.142083,-2.959191,48.420661
Legutio,Álava,Legutio,42.979847,-2.642626,15.684183
Leza,Álava,Leza,42.56552,-2.63324,41.458468
Moreda de Álava/Moreda Araba,Álava,Moreda de Álava/Moreda Araba,42.52571,-2.40828,58.613799
Navaridas,Álava,Navaridas,42.54566,-2.6265,44.091741
Okondo,Álava,Okondo,43.179363,-3.00113,55.178411
Oyón-Oion,Álava,Oyón-Oion,42.505159,-2.435766,61.665629
Peñacerrada-Urizaharra,Álava,Peñacerrada-Urizaharra,42.64356,-2.70796,26.893748
Samaniego,Álava,Samaniego,42.56854,-2.67974,42.811084
San Millán/Donemiliaga,Álava,San Millán/Donemiliaga,42.92552,-2.42733,26.833096
Urkabustaiz,Álava,Urkabustaiz,42.972748,-2.920274,27.679906
Valdegovía/Gaubea,Álava,Valdegovía/Gaubea,42.84777,-3.09883,46.483239999999995
Villabuena de Álava/Eskuernaga,Álava,Villabuena de Álava/Eskuernaga,42.54788,-2.66552,46.095922
Vitoria-Gasteiz,Álava,Vitoria-Gasteiz,42.854747,-2.676179,0.0
Yécora/Iekora,Álava,Yécora/Iekora,42.5681,-2.47038,51.634980000000006
Zalduondo,Álava,Zalduondo,42.884831,-2.349995,38.610561000000004
Zambrana,Álava,Zambrana,42.66102,-2.87909,36.020223
Zigoitia,Álava,Zigoitia,42.97258,-2.72226,15.164954
Zuia,Álava,Zuia,42.98404,-2.830075,25.830468
Abengibre,Albacete,Abengibre,39.209727,-1.541551,46.266957000000005
Alatoz,Albacete,Alatoz,39.09495,-1.36098,48.142014
Albacete,Albacete,Albacete,38.995097,-1.86197,0.0
Albatana,Albacete,Albatana,38.571977,-1.522897,76.807122
Alborea,Albacete,Alborea,39.278861,-1.394938,59.567752
Alcadozo,Albacete,Alcadozo,38.648845,-1.979948,44.195269
Alcalá del Júcar,Albacete,Alcalá del Júcar,39.2,-1.43333,63.289371
Alcaraz,Albacete,Alcaraz,38.697248,-2.531032,82.427056
Almansa,Albacete,Almansa,38.869442,-1.104684,72.637562
Alpera,Albacete,Alpera,38.95838,-1.231399,71.25397699999999
Ayna,Albacete,Ayna,38.55,-2.08333,62.525286
Balazote,Albacete,Balazote,38.885548,-2.154767,31.232795000000003
Ballestero (El),Albacete,El Ballestero,38.84179,-2.45608,67.08961500000001
Balsa de Ves,Albacete,Balsa de Ves,39.26667,-1.2,78.577038
Barrax,Albacete,Barrax,39.045505,-2.2014,30.26011
Bienservida,Albacete,Bienservida,38.51716,-2.61087,108.373575
Bogarra,Albacete,Bogarra,38.58139,-2.2129,76.094658
Bonete,Albacete,Bonete,38.871511,-1.348672,50.748531
Bonillo (El),Albacete,El Bonillo,38.950366,-2.539122,68.05211800000001
Carcelén,Albacete,Carcelén,39.10202,-1.30879,53.465841999999995
Casas de Juan Núñez,Albacete,Casas de Juan Núñez,39.101931,-1.558941,30.123792
Casas de Lázaro,Albacete,Casas de Lázaro,38.77056,-2.24044,46.118786
Casas de Ves,Albacete,Casas de Ves,39.25847,-1.333317,65.52403
Casas-Ibáñez,Albacete,Casas-Ibáñez,39.286062,-1.472436,52.773075
Caudete,Albacete,Caudete,38.704119,-0.982596,101.770264
Cenizate,Albacete,Cenizate,39.302534,-1.662663,42.035230000000006
Chinchilla de Monte-Aragón,Albacete,Chinchilla de Monte-Aragón,38.920442,-1.724524,16.401571
Corral-Rubio,Albacete,Corral-Rubio,38.83462,-1.46034,46.110468
Cotillas,Albacete,Cotillas,38.43115,-2.5055,130.564391
Elche de la Sierra,Albacete,Elche de la Sierra,38.450066,-2.048251,99.767068
Férez,Albacete,Férez,38.35,-2.0,103.605425
Fuensanta,Albacete,Fuensanta,39.23333,-2.06667,48.793345
Fuente-Álamo,Albacete,Fuente-Álamo,38.692302,-1.431733,65.45639700000001
Fuentealbilla,Albacete,Fuentealbilla,39.268081,-1.550586,45.192902000000004
Gineta (La),Albacete,La Gineta,39.113108,-1.995466,19.960517
Golosalvo,Albacete,Golosalvo,39.23333,-1.63333,37.218337
Hellín,Albacete,Hellín,38.511341,-1.700442,64.554714
Herrera (La),Albacete,La Herrera,38.61931,-1.78428,64.490926
Higueruela,Albacete,Higueruela,38.962437,-1.442711,46.002408
Hoya-Gonzalo,Albacete,Hoya-Gonzalo,38.9579,-1.55679,33.254934
Jorquera,Albacete,Jorquera,39.16667,-1.51667,39.278717
Letur,Albacete,Letur,38.36626,-2.10206,114.368084
Lezuza,Albacete,Lezuza,38.949114,-2.355022,50.035364
Liétor,Albacete,Liétor,38.542124,-1.954139,88.904924
Madrigueras,Albacete,Madrigueras,39.236245,-1.801448,35.607784
Mahora,Albacete,Mahora,39.212436,-1.725506,28.675328
Masegoso,Albacete,Masegoso,38.716894,-2.319049,70.59989999999999
Minaya,Albacete,Minaya,39.269856,-2.321385,54.785845
Molinicos,Albacete,Molinicos,38.46717,-2.23939,119.616191
Montalvos,Albacete,Montalvos,39.16667,-2.01667,29.738688
Montealegre del Castillo,Albacete,Montealegre del Castillo,38.788701,-1.326689,60.754276
Motilleja,Albacete,Motilleja,39.179532,-1.791175,25.996073
Munera,Albacete,Munera,39.040675,-2.481521,56.600962
Navas de Jorquera,Albacete,Navas de Jorquera,39.28333,-1.71667,37.258532
Nerpio,Albacete,Nerpio,38.1475,-2.30202,185.218769
Ontur,Albacete,Ontur,38.614717,-1.496775,69.611688
Ossa de Montiel,Albacete,Ossa de Montiel,38.964586,-2.745895,82.046345
Paterna del Madera,Albacete,Paterna del Madera,38.59751,-2.34421,111.184563
Peñas de San Pedro,Albacete,Peñas de San Pedro,38.725749,-2.000757,33.952423
Peñascosa,Albacete,Peñascosa,38.67215,-2.40991,84.223913
Pétrola,Albacete,Pétrola,38.82628,-1.55662,35.036026
Povedilla,Albacete,Povedilla,38.70022,-2.60212,89.99697400000001
Pozo Cañada,Albacete,Pozo Cañada,38.800099,-1.731457,28.343476
Pozohondo,Albacete,Pozohondo,38.719396,-1.910827,46.026
Pozo-Lorente,Albacete,Pozo-Lorente,39.076172,-1.506999,35.715429
Pozuelo,Albacete,Pozuelo,38.80989,-2.10101,43.967442000000005
Recueja (La),Albacete,La Recueja,39.18333,-1.48333,47.936276
Riópar,Albacete,Riópar,38.498214,-2.417356,116.683166
Robledo,Albacete,Robledo,38.772166,-2.429938,70.535912
Roda (La),Albacete,La Roda,39.205464,-2.159211,40.493313
Salobre,Albacete,Salobre,38.59297,-2.55038,94.817561
San Pedro,Albacete,San Pedro,38.826557,-2.186231,37.937074
Socovos,Albacete,Socovos,38.333014,-1.985622,103.52237
Tarazona de la Mancha,Albacete,Tarazona de la Mancha,39.263047,-1.913329,39.643184
Tobarra,Albacete,Tobarra,38.592141,-1.690738,54.617163999999995
Valdeganga,Albacete,Valdeganga,39.134507,-1.677173,28.519869999999997
Vianos,Albacete,Vianos,38.63316,-2.50045,88.971719
Villa de Ves,Albacete,Villa de Ves,39.2,-1.23333,69.743765
Villalgordo del Júcar,Albacete,Villalgordo del Júcar,39.296005,-2.062247,52.70493
Villamalea,Albacete,Villamalea,39.361525,-1.59769,52.174663
Villapalacios,Albacete,Villapalacios,38.578937,-2.632598,97.98597
Villarrobledo,Albacete,Villarrobledo,39.267868,-2.601427,88.100352
Villatoya,Albacete,Villatoya,39.319141,-1.331182,71.006262
Villavaliente,Albacete,Villavaliente,39.12646,-1.45712,40.883475
Villaverde de Guadalimar,Albacete,Villaverde de Guadalimar,38.45525,-2.51782,125.419197
Viveros,Albacete,Viveros,38.771487,-2.57414,77.75264800000001
Yeste,Albacete,Yeste,38.367359,-2.319032,133.026006
Agost,Alicante,Agost,38.435937,-0.638589,17.519998
Agres,Alicante,Agres,38.78333,-0.51667,75.391019
Aigües,Alicante,Aigües,38.501351,-0.364025,23.890366999999998
Albatera,Alicante,Albatera,38.180289,-0.872395,45.33791
Alcalalí,Alicante,Alcalalí,38.754724,-0.043421,81.570256
Alcocer de Planes,Alicante,Alcocer de Planes,38.79501,-0.40244,72.37047199999999
Alcoleja,Alicante,Alcoleja,38.66992,-0.32382,74.108779
Alcoy/Alcoi,Alicante,Alcoy/Alcoi,38.701616,-0.476523,58.761709
Alfafara,Alicante,Alfafara,38.77339,-0.55551,79.401583
Alfàs del Pi (l'),Alicante,L' Alfàs del Pi,38.566318,-0.104676,48.689337
Algorfa,Alicante,Algorfa,38.084582,-0.796363,57.09708800000001
Algueña,Alicante,Algueña,38.339218,-1.002629,54.268692
Alicante/Alacant,Alicante,Alicante/Alacant,38.360892,-0.486281,0.0
Almoradí,Alicante,Almoradí,38.110237,-0.792414,52.777699
Almudaina,Alicante,Almudaina,38.75999,-0.35149,76.59260499999999
Alqueria d'Asnar (l'),Alicante,L' Alqueria d'Asnar,38.360892,-0.486281,72
Altea,Alicante,Altea,38.596675,-0.055608,51.82248
Aspe,Alicante,Aspe,38.343766,-0.766951,28.820704999999997
Atzúbia (l'),Alicante,L' Atzúbia,38.338892,-0.509477,4.070081
Balones,Alicante,Balones,38.73726,-0.34324,72.80158800000001
Banyeres de Mariola,Alicante,Banyeres de Mariola,38.715255,-0.660488,56.599176
Benasau,Alicante,Benasau,38.69047,-0.34278,69.175432
Beneixama,Alicante,Beneixama,38.701806,-0.765858,74.16704
Benejúzar,Alicante,Benejúzar,38.076894,-0.838707,61.641148
Benferri,Alicante,Benferri,38.144565,-0.963573,55.740341
Beniarbeig,Alicante,Beniarbeig,38.822288,-0.006177,87.207058
Beniardá,Alicante,Beniardá,38.68433,-0.21629,63.903389000000004
Beniarrés,Alicante,Beniarrés,38.820507,-0.378199,77.497161
Benidoleig,Alicante,Benidoleig,38.7919,-0.03162,90.65489699999999
Benidorm,Alicante,Benidorm,38.542305,-0.127103,45.456987999999996
Benifallim,Alicante,Benifallim,38.66259,-0.39994,61.53644
Benifato,Alicante,Benifato,38.67395,-0.2292,63.689614999999996
Benigembla,Alicante,Benigembla,38.75494,-0.10903,88.048521
Benijófar,Alicante,Benijófar,38.062653,-0.745904,58.819616
Benilloba,Alicante,Benilloba,38.70012,-0.38998,64.783745
Benillup,Alicante,Benillup,38.75398,-0.37991,72.881747
Benimantell,Alicante,Benimantell,38.67709,-0.21057,61.37774700000001
Benimarfull,Alicante,Benimarfull,38.7759,-0.39079,70.12508
Benimassot,Alicante,Benimassot,38.75,-0.28333,79.83882399999999
Benimeli,Alicante,Benimeli,38.82362,-0.04221,90.694649
Benissa,Alicante,Benissa,38.715345,0.051209,72.674939
Benitachell/Poble Nou de Benitatxell (el),Alicante,El Benitachell/Poble Nou de Benitatxell,38.724094,0.150938,80.217993
Biar,Alicante,Biar,38.62662,-0.7623,47.890299
Bigastro,Alicante,Bigastro,38.06162,-0.894344,65.20472099999999
Bolulla,Alicante,Bolulla,38.67529,-0.11184,68.19624400000001
Busot,Alicante,Busot,38.464904,-0.432603,18.112807
Callosa de Segura,Alicante,Callosa de Segura,38.126098,-0.875694,51.42148
Callosa d'en Sarrià,Alicante,Callosa d'en Sarrià,38.64888,-0.123885,64.120291
Calp,Alicante,Calp,38.658408,0.05646,65.83058500000001
Campello (el),Alicante,El Campello,38.428712,-0.400416,14.762881
Campo de Mirra/Camp de Mirra (el),Alicante,El Campo de Mirra/Camp de Mirra,38.70001,-0.79462,73.860182
Cañada,Alicante,Cañada,38.39711,-0.5831,11.507243
Castalla,Alicante,Castalla,38.599887,-0.667946,36.168037
Castell de Castells,Alicante,Castell de Castells,38.735695,-0.187075,88.035458
Castell de Guadalest (el),Alicante,El Castell de Guadalest,38.6768,-0.19908,61.184134
Catral,Alicante,Catral,38.16056,-0.802149,44.358688
Cocentaina,Alicante,Cocentaina,38.754923,-0.441782,65.16956900000001
Confrides,Alicante,Confrides,38.68451,-0.2689,79.370818
Cox,Alicante,Cox,38.141697,-0.887969,48.837855000000005
Crevillent,Alicante,Crevillent,38.247745,-0.814187,36.788305
Daya Nueva,Alicante,Daya Nueva,38.113322,-0.761471,53.251963
Daya Vieja,Alicante,Daya Vieja,38.1048,-0.73804,57.884034
Dénia,Alicante,Dénia,38.840863,0.103315,91.30220200000001
Dolores,Alicante,Dolores,38.139232,-0.769951,52.869319000000004
Elche/Elx,Alicante,Elche/Elx,38.262084,-0.700594,27.277099000000003
Elda,Alicante,Elda,38.47616,-0.795528,40.396854
Facheca,Alicante,Facheca,38.735,-0.26766,80.82422100000001
Famorca,Alicante,Famorca,38.73101,-0.24726,83.009172
Finestrat,Alicante,Finestrat,38.5671,-0.212203,40.812295
Fondó de les Neus (el)/Hondón de las Nieves,Alicante,El Fondó de les Neus/Hondón de las Nieves,38.308625,-0.851245,43.537005
Formentera del Segura,Alicante,Formentera del Segura,38.084955,-0.745611,55.793694
Gaianes,Alicante,Gaianes,38.8164,-0.40881,75.15103
Gata de Gorgos,Alicante,Gata de Gorgos,38.774048,0.083486,81.103415
Gorga,Alicante,Gorga,38.71896,-0.35589,70.197691
Granja de Rocamora,Alicante,Granja de Rocamora,38.15353,-0.892395,47.605331
Guardamar del Segura,Alicante,Guardamar del Segura,38.090032,-0.658152,63.746407
Hondón de los Frailes,Alicante,Hondón de los Frailes,38.273571,-0.926858,51.801947999999996
Ibi,Alicante,Ibi,38.618356,-0.580273,41.713074999999996
Jacarilla,Alicante,Jacarilla,38.060975,-0.867996,64.358512
Jávea/Xàbia,Alicante,Jávea/Xàbia,38.785694,0.150464,88.177954
Jijona/Xixona,Alicante,Jijona/Xixona,38.532651,-0.506731,27.145925
Llíber,Alicante,Llíber,38.74272,0.006,76.543447
Lorcha/Orxa (l'),Alicante,L' Lorcha/Orxa,38.360892,-0.486281,94
Millena,Alicante,Millena,38.73082,-0.36274,71.41637300000001
Monforte del Cid,Alicante,Monforte del Cid,38.379799,-0.722666,25.104011
Monóvar/Monòver,Alicante,Monóvar/Monòver,38.436388,-0.840944,44.194868
Montesinos (Los),Alicante,Los Montesinos,38.027433,-0.745376,67.420722
Murla,Alicante,Murla,38.76037,-0.08208,85.453259
Muro de Alcoy,Alicante,Muro de Alcoy,38.780312,-0.440017,67.981424
Mutxamel,Alicante,Mutxamel,38.407895,-0.448889,8.912436
Novelda,Alicante,Novelda,38.385706,-0.768862,30.230079999999997
Nucia (la),Alicante,La Nucia,38.599959,-0.132423,48.804370999999996
Ondara,Alicante,Ondara,38.824783,0.020541,84.62416
Onil,Alicante,Onil,38.628054,-0.675278,41.110531
Orba,Alicante,Orba,38.780068,-0.058304,93.103729
Orihuela,Alicante,Orihuela,38.082111,-0.946934,60.768522
Orxeta,Alicante,Orxeta,38.56397,-0.26299,39.421137
Parcent,Alicante,Parcent,38.7457,-0.064354,84.028656
Pedreguer,Alicante,Pedreguer,38.793927,0.035132,86.728323
Pego,Alicante,Pego,38.841697,-0.115876,101.160679
Penàguila,Alicante,Penàguila,38.68,-0.35845,66.78302400000001
Petrer,Alicante,Petrer,38.484322,-0.779674,42.241281
Pilar de la Horadada,Alicante,Pilar de la Horadada,37.862662,-0.788448,85.95315099999999
Pinós (el)/Pinoso,Alicante,El Pinós/Pinoso,38.400231,-1.043137,61.538406
Planes,Alicante,Planes,38.788175,-0.327363,78.68288700000001
Poblets (els),Alicante,Els Poblets,38.85381,0.02103,91.338903
Polop,Alicante,Polop,38.620263,-0.133733,51.129526
Quatretondeta,Alicante,Quatretondeta,38.72415,-0.31669,74.92660400000001
Rafal,Alicante,Rafal,38.103409,-0.848648,53.093428
Ràfol d'Almúnia (el),Alicante,El Ràfol d'Almúnia,38.8212,-0.05171,91.369315
Redován,Alicante,Redován,38.113556,-0.906116,55.206943
Relleu,Alicante,Relleu,38.588602,-0.310327,38.353189
Rojales,Alicante,Rojales,38.084971,-0.711904,59.724775
Romana (la),Alicante,La Romana,38.36667,-0.9,44.391231999999995
Sagra,Alicante,Sagra,38.817249,-0.068787,93.746493
Salinas,Alicante,Salinas,38.520186,-0.911996,57.348793
San Fulgencio,Alicante,San Fulgencio,38.11362,-0.717969,59.274578
San Isidro,Alicante,San Isidro,38.172481,-0.839029,45.227779000000005
San Miguel de Salinas,Alicante,San Miguel de Salinas,37.97764,-0.789116,70.48200999999999
San Vicente del Raspeig/Sant Vicent del Raspeig,Alicante,San Vicente del Raspeig/Sant Vicent del Raspeig,38.360892,-0.486281,10
Sanet y Negrals,Alicante,Sanet y Negrals,38.81967,-0.03406,89.81363499999999
Sant Joan d'Alacant,Alicante,Sant Joan d'Alacant,38.400609,-0.434204,8.556982
Santa Pola,Alicante,Santa Pola,38.194063,-0.554262,22.194
Sax,Alicante,Sax,38.534929,-0.820677,48.360684
Sella,Alicante,Sella,38.808107,0.053144,86.876051
Senija,Alicante,Senija,38.72804,0.04176,72.54229600000001
Tàrbena,Alicante,Tàrbena,38.69413,-0.10141,75.01777
Teulada,Alicante,Teulada,38.729169,0.10546,75.35283500000001
Tibi,Alicante,Tibi,38.53353,-0.576694,28.745721999999997
Tollos,Alicante,Tollos,38.75629,-0.27466,81.437709
Tormos,Alicante,Tormos,38.80143,-0.0716,93.268135
Torremanzanas/Torre de les Maçanes (la),Alicante,La Torremanzanas/Torre de les Maçanes,38.604168,-0.415178,43.792407
Torrevieja,Alicante,Torrevieja,37.985608,-0.673845,70.393017
Vall d'Alcalà (la),Alicante,La Vall d'Alcalà,38.79477,-0.25138,87.378375
Vall de Gallinera,Alicante,Vall de Gallinera,38.82313,-0.2417,89.318352
Vall de Laguar (la),Alicante,La Vall de Laguar,38.781025,-0.124025,101.45252599999999
Vall d'Ebo (la),Alicante,La Vall d'Ebo,38.80561,-0.1589,97.134061
Verger (el),Alicante,El Verger,38.856576,0.013177,91.034999
Villajoyosa/Vila Joiosa (la),Alicante,La Villajoyosa/Vila Joiosa,38.508793,-0.231359,35.868801999999995
Villena,Alicante,Villena,38.634512,-0.864459,60.473504999999996
Xaló,Alicante,Xaló,38.739807,-0.01167,78.340239
Abla,Almería,Abla,37.141895,-2.778084,65.51177
Abrucena,Almería,Abrucena,37.133457,-2.796909,68.945212
Adra,Almería,Adra,36.748564,-3.017817,57.089915
Albanchez,Almería,Albanchez,37.28361,-2.18229,83.427069
Alboloduy,Almería,Alboloduy,37.03346,-2.62164,34.737629
Albox,Almería,Albox,37.390608,-2.14149,124.61324400000001
Alcolea,Almería,Alcolea,36.97458,-2.9615,81.63466700000001
Alcóntar,Almería,Alcóntar,37.257894,-2.606439,120.16114400000001
Alcudia de Monteagud,Almería,Alcudia de Monteagud,37.23529,-2.2665,71.819503
Alhabia,Almería,Alhabia,36.99003,-2.58655,28.120186
Alhama de Almería,Almería,Alhama de Almería,36.957334,-2.568298,23.502161
Alicún,Almería,Alicún,36.9658,-2.60212,28.91455
Almería,Almería,Almería,36.844845,-2.456009,0.0
Almócita,Almería,Almócita,37.00262,-2.79051,48.694133
Alsodux,Almería,Alsodux,37.00246,-2.59476,29.799826
Antas,Almería,Antas,37.251074,-1.912721,89.68304499999999
Arboleas,Almería,Arboleas,37.351749,-2.07427,115.315885
Armuña de Almanzora,Almería,Armuña de Almanzora,37.3503,-2.4115,98.13994
Bacares,Almería,Bacares,37.25984,-2.45308,77.881354
Balanegra,Almería,Balanegra,36.748857,-2.913608,46.699971
Bayárcal,Almería,Bayárcal,37.03073,-2.99606,121.904298
Bayarque,Almería,Bayarque,37.33062,-2.4361,91.80995200000001
Bédar,Almería,Bédar,37.19389,-1.98166,84.56125999999999
Beires,Almería,Beires,37.01237,-2.79134,49.561502
Benahadux,Almería,Benahadux,36.927292,-2.460343,12.181913
Benitagla,Almería,Benitagla,37.23138,-2.23935,68.40716
Benizalón,Almería,Benizalón,37.21213,-2.2418,64.07708799999999
Bentarique,Almería,Bentarique,36.98823,-2.61991,30.849625
Berja,Almería,Berja,36.844738,-2.94636,65.029213
Canjáyar,Almería,Canjáyar,37.00985,-2.740139,42.314903
Cantoria,Almería,Cantoria,37.351722,-2.193388,130.96858
Carboneras,Almería,Carboneras,36.999559,-1.893074,70.119144
Castro de Filabres,Almería,Castro de Filabres,37.18484,-2.44024,51.89519
Chercos,Almería,Chercos,37.2545,-2.26657,80.234883
Chirivel,Almería,Chirivel,37.596309,-2.271043,180.856316
Cóbdar,Almería,Cóbdar,37.26166,-2.21098,80.79222800000001
Cuevas del Almanzora,Almería,Cuevas del Almanzora,37.295319,-1.877738,100.43144000000001
Dalías,Almería,Dalías,36.820318,-2.87108,47.725277
Ejido (El),Almería,El Ejido,36.773918,-2.814736,40.258428
Enix,Almería,Enix,36.87732,-2.6018,28.542521
Felix,Almería,Felix,36.86911,-2.65845,26.685751
Fines,Almería,Fines,37.363771,-2.267433,133.86780900000002
Fiñana,Almería,Fiñana,37.169512,-2.839102,72.26101
Fondón,Almería,Fondón,36.9802,-2.85957,56.996815999999995
Gádor,Almería,Gádor,36.952951,-2.491341,16.505917
Gallardos (Los),Almería,Los Gallardos,37.168106,-1.940568,78.678171
Garrucha,Almería,Garrucha,37.182789,-1.820321,90.661428
Gérgal,Almería,Gérgal,37.11886,-2.54012,44.450471
Huécija,Almería,Huécija,36.96804,-2.6094,28.630111
Huércal de Almería,Almería,Huércal de Almería,36.880862,-2.441678,5.127524
Huércal-Overa,Almería,Huércal-Overa,37.395639,-1.945354,110.319307
Íllar,Almería,Íllar,36.98562,-2.63871,31.889561
Instinción,Almería,Instinción,36.99344,-2.66046,34.028701
Laroya,Almería,Laroya,37.29771,-2.33419,87.254512
Láujar de Andarax,Almería,Láujar de Andarax,36.99416,-2.893955,87.62124899999999
Líjar,Almería,Líjar,37.29492,-2.21937,84.87927499999999
Lubrín,Almería,Lubrín,37.21538,-2.06678,88.636855
Lucainena de las Torres,Almería,Lucainena de las Torres,37.04038,-2.20095,57.626402999999996
Lúcar,Almería,Lúcar,37.40035,-2.42496,102.229494
Macael,Almería,Macael,37.335906,-2.290791,79.321966
María,Almería,María,37.710788,-2.164725,174.131752
Mojácar,Almería,Mojácar,37.120291,-1.837481,92.057809
Mojonera (La),Almería,La Mojonera,36.752832,-2.681988,27.717734
Nacimiento,Almería,Nacimiento,37.10615,-2.64846,53.819176999999996
Níjar,Almería,Níjar,36.964012,-2.207395,39.046738
Ohanes,Almería,Ohanes,37.03861,-2.74524,48.761581
Olula de Castro,Almería,Olula de Castro,37.17475,-2.4743,55.242563000000004
Olula del Río,Almería,Olula del Río,37.353887,-2.29565,81.57296
Oria,Almería,Oria,37.48397,-2.295461,145.191551
Padules,Almería,Padules,36.977131,-2.764865,54.723152
Partaloa,Almería,Partaloa,37.40764,-2.22526,132.702463
Paterna del Río,Almería,Paterna del Río,37.02222,-2.95343,93.026685
Pechina,Almería,Pechina,37.34612,-2.57895,104.726537
Pulpí,Almería,Pulpí,37.41134,-1.746038,116.486142
Purchena,Almería,Purchena,37.34761,-2.361655,142.946019
Rágol,Almería,Rágol,36.99523,-2.68178,36.321331
Rioja,Almería,Rioja,36.943298,-2.462973,14.453238
Roquetas de Mar,Almería,Roquetas de Mar,36.766784,-2.610328,22.665199
Santa Cruz de Marchena,Almería,Santa Cruz de Marchena,37.01736,-2.60337,31.809789000000002
Santa Fe de Mondújar,Almería,Santa Fe de Mondújar,36.97479,-2.53126,22.880104
Senés,Almería,Senés,37.20367,-2.34631,53.87592
Serón,Almería,Serón,37.343094,-2.510717,97.442054
Sierro,Almería,Sierro,37.32237,-2.39844,95.736722
Somontín,Almería,Somontín,37.39176,-2.38828,147.71176300000002
Sorbas,Almería,Sorbas,37.098392,-2.123837,73.039792
Suflí,Almería,Suflí,37.33866,-2.38817,101.5005
Tabernas,Almería,Tabernas,37.052305,-2.392007,34.364051999999994
Taberno,Almería,Taberno,37.4688,-2.07736,127.95631
Tahal,Almería,Tahal,37.22797,-2.2847,74.292598
Terque,Almería,Terque,36.98393,-2.59679,28.38976
Tíjola,Almería,Tíjola,37.34643,-2.433715,95.35576699999999
Tres Villas (Las),Almería,Las Tres Villas,37.158261,-2.715906,62.84232
Turre,Almería,Turre,37.152363,-1.894506,83.606604
Turrillas,Almería,Turrillas,37.02948,-2.26607,50.457294999999995
Uleila del Campo,Almería,Uleila del Campo,37.1846,-2.20491,58.768104
Urrácal,Almería,Urrácal,37.3974,-2.36485,146.082763
Velefique,Almería,Velefique,37.19407,-2.40155,52.266960999999995
Vélez-Blanco,Almería,Vélez-Blanco,37.692512,-2.095392,165.98443799999998
Vélez-Rubio,Almería,Vélez-Rubio,37.647982,-2.075089,159.826483
Vera,Almería,Vera,37.246352,-1.868843,90.59167
Viator,Almería,Viator,36.882156,-2.417627,7.17078
Vícar,Almería,Vícar,36.80006,-2.647875,23.542955999999997
Zurgena,Almería,Zurgena,37.34218,-2.03985,111.24054000000001
Adanero,Ávila,Adanero,40.94487,-4.60561,43.689362
Adrada (La),Ávila,La Adrada,40.30084,-4.635961,69.798825
Albornos,Ávila,Albornos,40.83795,-4.88129,35.71076599999999
Aldeanueva de Santa Cruz,Ávila,Aldeanueva de Santa Cruz,40.38189,-5.42142,75.48086500000001
Aldeaseca,Ávila,Aldeaseca,41.04912,-4.81707,68.355892
Aldehuela (La),Ávila,La Aldehuela,40.41092,-5.40983,69.260833
Amavida,Ávila,Amavida,40.57371,-5.06541,33.328291
Arenal (El),Ávila,El Arenal,40.265205,-5.086847,73.363973
Arenas de San Pedro,Ávila,Arenas de San Pedro,40.211957,-5.085076,78.47786900000001
Arevalillo,Ávila,Arevalillo,40.588392,-5.371343,75.270299
Arévalo,Ávila,Arévalo,41.062326,-4.720047,56.721736
Aveinte,Ávila,Aveinte,40.78227,-4.83649,23.259037
Avellaneda,Ávila,Avellaneda,40.38909,-5.38811,78.581041
Ávila,Ávila,Ávila,40.646709,-4.701896,0.0
Barco de Ávila (El),Ávila,El Barco de Ávila,40.357166,-5.521441,80.267536
Barraco (El),Ávila,El Barraco,40.477362,-4.645228,23.292686999999997
Barromán,Ávila,Barromán,41.06536,-4.93066,78.17501200000001
Becedas,Ávila,Becedas,40.40369,-5.63577,93.360983
Becedillas,Ávila,Becedillas,40.53821,-5.32561,68.853571
Bercial de Zapardiel,Ávila,Bercial de Zapardiel,41.04675,-4.9691,74.48966899999999
Berlanas (Las),Ávila,Las Berlanas,40.800813,-4.76019,21.536524
Bernuy-Zapardiel,Ávila,Bernuy-Zapardiel,40.9757,-4.94468,66.588035
Berrocalejo de Aragona,Ávila,Berrocalejo de Aragona,40.69436,-4.59474,17.01794
Blascomillán,Ávila,Blascomillán,40.80146,-5.08703,59.564573
Blasconuño de Matacabras,Ávila,Blasconuño de Matacabras,41.12368,-4.98983,93.829666
Blascosancho,Ávila,Blascosancho,40.87744,-4.63743,32.676666999999995
Bohodón (El),Ávila,El Bohodón,40.91612,-4.73,35.796434
Bohoyo,Ávila,Bohoyo,40.31584,-5.44294,89.830269
Bonilla de la Sierra,Ávila,Bonilla de la Sierra,40.53063,-5.26452,54.009029999999996
Brabos,Ávila,Brabos,40.77846,-4.93934,38.876185
Bularros,Ávila,Bularros,40.72808,-4.82914,17.617084
Burgohondo,Ávila,Burgohondo,40.414016,-4.785867,36.595242
Cabezas de Alambre,Ávila,Cabezas de Alambre,40.94218,-4.84184,40.757000999999995
Cabezas del Pozo,Ávila,Cabezas del Pozo,41.00139,-4.95454,69.255006
Cabezas del Villar,Ávila,Cabezas del Villar,40.715103,-5.210077,48.376884
Cabizuela,Ávila,Cabizuela,40.9009,-4.80212,34.020701
Canales,Ávila,Canales,40.667503,-4.663682,4.872539
Candeleda,Ávila,Candeleda,40.154493,-5.241504,98.976956
Cantiveros,Ávila,Cantiveros,40.95216,-4.95455,62.896582
Cardeñosa,Ávila,Cardeñosa,40.7424,-4.74579,15.152106999999999
Carrera (La),Ávila,La Carrera,40.45594,-5.42654,68.915285
Casas del Puerto,Ávila,Casas del Puerto,40.531848,-5.180026,44.199118999999996
Casasola,Ávila,Casasola,40.665588,-4.820289,17.113056
Casavieja,Ávila,Casavieja,40.280552,-4.765836,84.53541899999999
Casillas,Ávila,Casillas,40.3261,-4.57182,65.517494
Castellanos de Zapardiel,Ávila,Castellanos de Zapardiel,41.0845,-4.90984,80.586262
Cebreros,Ávila,Cebreros,40.45523,-4.463885,44.1
Cepeda la Mora,Ávila,Cepeda la Mora,40.4578,-5.04833,41.379677
Chamartín,Ávila,Chamartín,40.70267,-4.95769,25.761426
Cillán,Ávila,Cillán,40.70675,-4.98135,27.683512
Cisla,Ávila,Cisla,40.96662,-5.01406,61.367369
Colilla (La),Ávila,La Colilla,40.644661,-4.760599,6.040746
Collado de Contreras,Ávila,Collado de Contreras,40.88743,-4.9314,47.937581
Collado del Mirón,Ávila,Collado del Mirón,40.55307,-5.35398,70.70218799999999
Constanzana,Ávila,Constanzana,40.93821,-4.87515,56.350243
Crespos,Ávila,Crespos,40.870953,-4.970757,42.916725
Cuevas del Valle,Ávila,Cuevas del Valle,40.29418,-5.00938,64.09215
Diego del Carpio,Ávila,Diego del Carpio,40.666303,-5.33158,69.238143
Donjimeno,Ávila,Donjimeno,40.95978,-4.84627,59.308124
Donvidas,Ávila,Donvidas,41.08954,-4.80634,68.856921
Espinosa de los Caballeros,Ávila,Espinosa de los Caballeros,41.0087,-4.6537,49.466561
Flores de Ávila,Ávila,Flores de Ávila,40.93358,-5.07914,57.374047
Fontiveros,Ávila,Fontiveros,40.930535,-4.965307,60.495144
Fresnedilla,Ávila,Fresnedilla,40.23233,-4.62201,72.46155800000001
Fresno (El),Ávila,El Fresno,40.61572,-4.75746,8.568867000000001
Fuente el Saúz,Ávila,Fuente el Saúz,40.97771,-4.90825,68.435956
Fuentes de Año,Ávila,Fuentes de Año,41.01769,-4.89908,72.850673
Gallegos de Altamiros,Ávila,Gallegos de Altamiros,40.70634,-4.90643,22.706975
Gallegos de Sobrinos,Ávila,Gallegos de Sobrinos,40.71693,-5.11224,39.495959
Garganta del Villar,Ávila,Garganta del Villar,40.44965,-5.1042,46.679216999999994
Gavilanes,Ávila,Gavilanes,40.27791,-4.85321,70.448601
Gemuño,Ávila,Gemuño,40.59159,-4.78178,9.822591000000001
Gil García,Ávila,Gil García,40.28104,-5.592565,95.914367
Gilbuena,Ávila,Gilbuena,40.42206,-5.59201,94.365667
Gimialcón,Ávila,Gimialcón,40.87705,-5.12308,56.348775
Gotarrendura,Ávila,Gotarrendura,40.82652,-4.7409,25.140717000000002
Grandes y San Martín,Ávila,Grandes y San Martín,40.763114,-4.970927,42.185476
Guisando,Ávila,Guisando,40.22225,-5.1395,83.731986
Gutierre-Muñoz,Ávila,Gutierre-Muñoz,40.98295,-4.63839,45.28143
Hernansancho,Ávila,Hernansancho,40.85753,-4.73045,28.764895
Herradón de Pinares,Ávila,Herradón de Pinares,40.597608,-4.495836,22.853355
Herreros de Suso,Ávila,Herreros de Suso,40.803861,-5.038958,49.752203
Higuera de las Dueñas,Ávila,Higuera de las Dueñas,40.23903,-4.60361,70.641281
Hija de Dios (La),Ávila,La Hija de Dios,40.53013,-4.96734,27.80596
Horcajada (La),Ávila,La Horcajada,40.43674,-5.46615,75.02841599999999
Horcajo de las Torres,Ávila,Horcajo de las Torres,41.06497,-5.09092,84.465478
Hornillo (El),Ávila,El Hornillo,40.24994,-5.10356,76.932215
Hoyo de Pinares (El),Ávila,El Hoyo de Pinares,40.5005,-4.422379,45.314546
Hoyocasero,Ávila,Hoyocasero,40.3989,-4.97455,53.129135000000005
Hoyorredondo,Ávila,Hoyorredondo,40.4627,-5.41097,67.33591
Hoyos de Miguel Muñoz,Ávila,Hoyos de Miguel Muñoz,40.39237,-5.06713,56.681591
Hoyos del Collado,Ávila,Hoyos del Collado,40.35945,-5.20027,69.242818
Hoyos del Espino,Ávila,Hoyos del Espino,40.35623,-5.17505,66.65648
Hurtumpascual,Ávila,Hurtumpascual,40.692,-5.11379,41.725913999999996
Junciana,Ávila,Junciana,40.41076,-5.55698,88.928444
Langa,Ávila,Langa,41.0055,-4.85946,57.660712
Lanzahíta,Ávila,Lanzahíta,40.205188,-4.932959,89.33952099999999
Llanos de Tormes (Los),Ávila,Los Llanos de Tormes,40.32773,-5.50016,84.534903
Losar del Barco (El),Ávila,El Losar del Barco,40.397153,-5.537609,85.611378
Madrigal de las Altas Torres,Ávila,Madrigal de las Altas Torres,41.08999,-4.997505,90.034268
Maello,Ávila,Maello,40.80929,-4.51186,45.279279
Malpartida de Corneja,Ávila,Malpartida de Corneja,40.52208,-5.35026,66.252689
Mamblas,Ávila,Mamblas,41.01925,-5.00874,85.71658900000001
Mancera de Arriba,Ávila,Mancera de Arriba,40.79139,-5.14772,65.270782
Manjabálago y Ortigosa de Rioalmar,Ávila,Manjabálago y Ortigosa de Rioalmar,40.66441,-5.07719,47.53575300000001
Marlín,Ávila,Marlín,40.712201,-4.827554,15.352437
Martiherrero,Ávila,Martiherrero,40.67392,-4.78156,9.355731
Martínez,Ávila,Martínez,40.63046,-5.34801,81.338466
Mediana de Voltoya,Ávila,Mediana de Voltoya,40.70104,-4.56341,19.637874
Medinilla,Ávila,Medinilla,40.43967,-5.61772,92.263155
Mengamuñoz,Ávila,Mengamuñoz,40.50006,-4.99983,32.918290999999996
Mesegar de Corneja,Ávila,Mesegar de Corneja,40.50209,-5.30131,55.499921
Mijares,Ávila,Mijares,40.29654,-4.83651,67.419037
Mingorría,Ávila,Mingorría,40.75192,-4.66583,17.655933
Mirón (El),Ávila,El Mirón,40.53322,-5.40552,73.787012
Mironcillo,Ávila,Mironcillo,40.55435,-4.82449,18.943815999999998
Mirueña de los Infanzones,Ávila,Mirueña de los Infanzones,40.738133,-5.08621,39.368144
Mombeltrán,Ávila,Mombeltrán,40.260124,-5.017915,68.511481
Monsalupe,Ávila,Monsalupe,40.76953,-4.78131,20.300589
Moraleja de Matacabras,Ávila,Moraleja de Matacabras,41.10732,-4.95717,93.892105
Muñana,Ávila,Muñana,40.59042,-5.01447,29.462004
Muñico,Ávila,Muñico,40.70678,-5.02717,31.871596
Muñogalindo,Ávila,Muñogalindo,40.60324,-4.89895,18.362021000000002
Muñogrande,Ávila,Muñogrande,40.82181,-4.92224,36.363878
Muñomer del Peco,Ávila,Muñomer del Peco,40.85878,-4.87992,38.304411
Muñopepe,Ávila,Muñopepe,40.63408,-4.81876,12.37833
Muñosancho,Ávila,Muñosancho,40.92097,-5.03558,55.812837
Muñotello,Ávila,Muñotello,40.54236,-5.04187,36.066238
Narrillos del Álamo,Ávila,Narrillos del Álamo,40.56673,-5.46584,83.31067200000001
Narrillos del Rebollar,Ávila,Narrillos del Rebollar,40.66488,-4.96577,29.24253
Narros de Saldueña,Ávila,Narros de Saldueña,40.87268,-4.86908,39.484065
Narros del Castillo,Ávila,Narros del Castillo,40.85869,-5.0601,52.332177
Narros del Puerto,Ávila,Narros del Puerto,40.54131,-4.99292,33.486525
Nava de Arévalo,Ávila,Nava de Arévalo,40.97802,-4.77573,49.190371
Nava del Barco,Ávila,Nava del Barco,40.29321,-5.54022,91.206791
Navacepedilla de Corneja,Ávila,Navacepedilla de Corneja,40.48602,-5.1838,56.078736000000006
Navadijos,Ávila,Navadijos,40.42524,-5.08285,46.416074
Navaescurial,Ávila,Navaescurial,40.47163,-5.27756,57.681818
Navahondilla,Ávila,Navahondilla,40.3251,-4.49661,56.888932999999994
Navalacruz,Ávila,Navalacruz,40.43992,-4.93122,46.660513
Navalmoral,Ávila,Navalmoral,40.463493,-4.747432,28.381662
Navalonguilla,Ávila,Navalonguilla,40.27835,-5.50042,92.127475
Navalosa,Ávila,Navalosa,40.40212,-4.93,58.300422
Navalperal de Pinares,Ávila,Navalperal de Pinares,40.593808,-4.408051,32.196392
Navalperal de Tormes,Ávila,Navalperal de Tormes,40.3528,-5.30084,80.07817
Navaluenga,Ávila,Navaluenga,40.40875,-4.70533,32.997822
Navaquesera,Ávila,Navaquesera,40.42558,-4.91108,52.473595
Navarredonda de Gredos,Ávila,Navarredonda de Gredos,40.361959,-5.132643,61.952222
Navarredondilla,Ávila,Navarredondilla,40.45416,-4.82199,35.170701
Navarrevisca,Ávila,Navarrevisca,40.36417,-4.89352,50.823001
Navas del Marqués (Las),Ávila,Las Navas del Marqués,40.602557,-4.333014,38.316163
Navatalgordo,Ávila,Navatalgordo,40.4152,-4.87155,47.420945
Navatejares,Ávila,Navatejares,40.33602,-5.5322,84.098424
Neila de San Miguel,Ávila,Neila de San Miguel,40.42372,-5.6509,98.075576
Niharra,Ávila,Niharra,40.58945,-4.83895,14.535355
Ojos-Albos,Ávila,Ojos-Albos,40.70596,-4.51633,25.140674999999998
Orbita,Ávila,Orbita,40.99846,-4.64833,48.347983
Oso (El),Ávila,El Oso,40.83984,-4.76964,26.302129
Padiernos,Ávila,Padiernos,40.62168,-4.84523,14.1217
Pajares de Adaja,Ávila,Pajares de Adaja,40.92398,-4.64048,37.469286999999994
Palacios de Goda,Ávila,Palacios de Goda,41.11798,-4.78496,66.027142
Papatrigo,Ávila,Papatrigo,40.86752,-4.832724,36.188556
Parral (El),Ávila,El Parral,40.79858,-4.98994,45.258229
Pascualcobo,Ávila,Pascualcobo,40.65637,-5.27733,62.547610999999996
Pedro Bernardo,Ávila,Pedro Bernardo,40.243187,-4.911729,86.379893
Pedro-Rodríguez,Ávila,Pedro-Rodríguez,40.93727,-4.78571,42.874562
Peguerinos,Ávila,Peguerinos,40.637548,-4.232541,51.008941
Peñalba de Ávila,Ávila,Peñalba de Ávila,40.821441,-4.679826,30.940935999999997
Piedrahíta,Ávila,Piedrahíta,40.465141,-5.326679,59.243261
Piedralaves,Ávila,Piedralaves,40.317135,-4.699035,75.36839599999999
Poveda,Ávila,Poveda,40.56799,-5.07909,35.417241000000004
Poyales del Hoyo,Ávila,Poyales del Hoyo,40.17254,-5.16597,92.747782
Pozanco,Ávila,Pozanco,40.80095,-4.66772,27.798003
Pradosegar,Ávila,Pradosegar,40.5502,-5.07015,35.512855
Puerto Castilla,Ávila,Puerto Castilla,40.288,-5.62366,93.50331299999999
Rasueros,Ávila,Rasueros,41.02344,-5.07377,80.086632
Riocabado,Ávila,Riocabado,40.8314,-4.8043,33.494695
Riofrío,Ávila,Riofrío,40.54866,-4.77796,15.606649
Rivilla de Barajas,Ávila,Rivilla de Barajas,40.79986,-4.76256,21.400062
Salobral,Ávila,Salobral,40.61179,-4.81013,10.997762999999999
Salvadiós,Ávila,Salvadiós,40.87836,-5.09629,54.036705000000005
San Bartolomé de Béjar,Ávila,San Bartolomé de Béjar,40.399535,-5.669318,96.121441
San Bartolomé de Corneja,Ávila,San Bartolomé de Corneja,40.49257,-5.38519,65.632734
San Bartolomé de Pinares,Ávila,San Bartolomé de Pinares,40.542697,-4.539515,26.077502
San Esteban de los Patos,Ávila,San Esteban de los Patos,40.74705,-4.62413,21.018012
San Esteban de Zapardiel,Ávila,San Esteban de Zapardiel,41.0927,-4.90049,81.791723
San Esteban del Valle,Ávila,San Esteban del Valle,40.2751,-4.98215,66.097481
San García de Ingelmos,Ávila,San García de Ingelmos,40.773395,-5.11379,63.822409
San Juan de Gredos,Ávila,San Juan de Gredos,40.33732,-5.24838,79.114598
San Juan de la Encinilla,Ávila,San Juan de la Encinilla,40.8302,-4.83957,31.782469
San Juan de la Nava,Ávila,San Juan de la Nava,40.47826,-4.681924,22.291151
San Juan del Molinillo,Ávila,San Juan del Molinillo,40.45909,-4.81711,34.513265
San Juan del Olmo,Ávila,San Juan del Olmo,40.636773,-5.058838,38.65843100000001
San Lorenzo de Tormes,Ávila,San Lorenzo de Tormes,40.36984,-5.48848,77.320026
San Martín de la Vega del Alberche,Ávila,San Martín de la Vega del Alberche,40.667503,-4.663682,4.872539
San Martín del Pimpollar,Ávila,San Martín del Pimpollar,40.3683,-5.05443,53.587693
San Miguel de Corneja,Ávila,San Miguel de Corneja,40.48722,-5.28654,55.536348
San Miguel de Serrezuela,Ávila,San Miguel de Serrezuela,40.67064,-5.28858,64.536732
San Pascual,Ávila,San Pascual,40.88141,-4.75612,35.18047
San Pedro del Arroyo,Ávila,San Pedro del Arroyo,40.80213,-4.87074,31.334821
San Vicente de Arévalo,Ávila,San Vicente de Arévalo,40.96773,-4.80194,46.616496
Sanchidrián,Ávila,Sanchidrián,40.893744,-4.582107,37.573269999999994
Sanchorreja,Ávila,Sanchorreja,40.66475,-4.91494,23.470057
Santa Cruz de Pinares,Ávila,Santa Cruz de Pinares,40.54265,-4.58036,26.190307
Santa Cruz del Valle,Ávila,Santa Cruz del Valle,40.2516,-5.00133,69.942937
Santa María de los Caballeros,Ávila,Santa María de los Caballeros,40.38925,-5.45112,73.340552
Santa María del Arroyo,Ávila,Santa María del Arroyo,40.601155,-4.936439,21.604164
Santa María del Berrocal,Ávila,Santa María del Berrocal,40.50845,-5.40483,68.003564
Santa María del Cubillo,Ávila,Santa María del Cubillo,40.71908,-4.46655,31.148142
Santa María del Tiétar,Ávila,Santa María del Tiétar,40.302925,-4.542604,61.014506999999995
Santiago del Collado,Ávila,Santiago del Collado,40.43326,-5.35631,64.363995
Santiago del Tormes,Ávila,Santiago del Tormes,40.347488,-5.395378,82.142594
Santo Domingo de las Posadas,Ávila,Santo Domingo de las Posadas,40.812,-4.63383,24.911392
Santo Tomé de Zabarcos,Ávila,Santo Tomé de Zabarcos,40.78726,-4.91048,35.348853
Serrada (La),Ávila,La Serrada,40.63169,-4.79284,9.097985000000001
Serranillos,Ávila,Serranillos,40.325202,-4.905628,39.660594005882764
Sigeres,Ávila,Sigeres,40.79939,-4.93361,37.925254
Sinlabajos,Ávila,Sinlabajos,41.0765,-4.83242,69.30583
Solana de Ávila,Ávila,Solana de Ávila,40.33135,-5.63759,96.30432499999999
Solana de Rioalmar,Ávila,Solana de Rioalmar,40.73892,-5.01159,47.963260000000005
Solosancho,Ávila,Solosancho,40.55294,-4.90479,21.782166
Sotalbo,Ávila,Sotalbo,40.5417,-4.84548,20.959913
Sotillo de la Adrada,Ávila,Sotillo de la Adrada,40.293123,-4.586541,65.143215
Tiemblo (El),Ávila,El Tiemblo,40.413929,-4.502271,41.879124
Tiñosillos,Ávila,Tiñosillos,40.93543,-4.727323,37.890187
Tolbaños,Ávila,Tolbaños,40.75168,-4.58191,24.733613000000002
Tormellas,Ávila,Tormellas,40.30404,-5.51185,88.66660800000001
Tornadizos de Ávila,Ávila,Tornadizos de Ávila,40.62757,-4.61426,9.492428
Torre (La),Ávila,La Torre,40.5916,-4.96491,24.266693
Tórtoles,Ávila,Tórtoles,40.5612,-5.2612,58.015837
Umbrías,Ávila,Umbrías,40.3153,-5.58037,89.58116199999999
Vadillo de la Sierra,Ávila,Vadillo de la Sierra,40.60634,-5.12506,44.865559000000005
Valdecasa,Ávila,Valdecasa,40.65931,-5.01183,35.829539
Vega de Santa María,Ávila,Vega de Santa María,40.83618,-4.64287,28.811134
Velayos,Ávila,Velayos,40.84157,-4.62324,28.767148999999996
Villaflor,Ávila,Villaflor,40.74978,-4.884138,37.474778
Villafranca de la Sierra,Ávila,Villafranca de la Sierra,40.49806,-5.23005,51.285771000000004
Villanueva de Ávila,Ávila,Villanueva de Ávila,40.37284,-4.82395,46.150211000000006
Villanueva de Gómez,Ávila,Villanueva de Gómez,40.88269,-4.7165,31.878076
Villanueva del Aceral,Ávila,Villanueva del Aceral,41.04095,-4.85419,71.271259
Villanueva del Campillo,Ávila,Villanueva del Campillo,40.57646,-5.18002,48.101119
Villar de Corneja,Ávila,Villar de Corneja,40.47462,-5.43307,69.489598
Villarejo del Valle,Ávila,Villarejo del Valle,40.28638,-4.99674,65.339024
Villatoro,Ávila,Villatoro,40.549838,-5.118633,38.989786
Viñegra de Moraña,Ávila,Viñegra de Moraña,40.85074,-4.92114,39.452974999999995
Vita,Ávila,Vita,40.81178,-5.00583,46.626095
Zapardiel de la Cañada,Ávila,Zapardiel de la Cañada,40.60648,-5.33791,78.645717
Zapardiel de la Ribera,Ávila,Zapardiel de la Ribera,40.35554,-5.32826,82.782057
Acedera,Badajoz,Acedera,39.08414,-5.625607,133.032813
Aceuchal,Badajoz,Aceuchal,38.645953,-6.48728,61.25366
Ahillones,Badajoz,Ahillones,38.259328,-5.864075,130.381305
Alange,Badajoz,Alange,38.784989,-6.246106,81.12191899999999
Albuera (La),Badajoz,La Albuera,38.717333,-6.823226,25.224905
Alburquerque,Badajoz,Alburquerque,39.220369,-7.000693,44.858537
Alconchel,Badajoz,Alconchel,38.514743,-7.071697,44.950596
Alconera,Badajoz,Alconera,38.378914,-6.486219,87.36027899999999
Aljucén,Badajoz,Aljucén,39.04426,-6.33109,75.510085
Almendral,Badajoz,Almendral,38.613181,-6.822009,37.503976
Almendralejo,Badajoz,Almendralejo,38.683923,-6.408345,86.585089
Arroyo de San Serván,Badajoz,Arroyo de San Serván,38.854303,-6.454154,52.722866
Atalaya,Badajoz,Atalaya,38.338714,-6.487765,89.213776
Azuaga,Badajoz,Azuaga,38.260213,-5.679025,146.844072
Badajoz,Badajoz,Badajoz,38.876618,-6.980327,0.0
Barcarrota,Badajoz,Barcarrota,38.514744,-6.849092,50.211552000000005
Baterno,Badajoz,Baterno,38.95578,-4.91039,207.670733
Benquerencia de la Serena,Badajoz,Benquerencia de la Serena,38.67358,-5.36435,175.414457
Berlanga,Badajoz,Berlanga,38.282266,-5.829392,134.31574600000002
Bienvenida,Badajoz,Bienvenida,38.298282,-6.208785,105.35147
Bodonal de la Sierra,Badajoz,Bodonal de la Sierra,38.14701,-6.558262,106.1074
Burguillos del Cerro,Badajoz,Burguillos del Cerro,38.378731,-6.589193,94.260462
Cabeza del Buey,Badajoz,Cabeza del Buey,38.720666,-5.22195,189.728034
Cabeza la Vaca,Badajoz,Cabeza la Vaca,38.086152,-6.420675,164.99848300000002
Calamonte,Badajoz,Calamonte,38.887746,-6.387619,59.304051
Calera de León,Badajoz,Calera de León,38.106385,-6.336207,155.104199
Calzadilla de los Barros,Badajoz,Calzadilla de los Barros,38.300375,-6.314896,130.01323299999999
Campanario,Badajoz,Campanario,38.863511,-5.617804,139.703541
Campillo de Llerena,Badajoz,Campillo de Llerena,38.502136,-5.830793,139.331817
Capilla,Badajoz,Capilla,38.82036,-5.08417,210.617065
Carmonita,Badajoz,Carmonita,39.15455,-6.33864,93.75180999999999
Carrascalejo (El),Badajoz,El Carrascalejo,39.02021,-6.33427,73.46928999999999
Casas de Don Pedro,Badajoz,Casas de Don Pedro,39.104247,-5.329294,157.96948
Casas de Reina,Badajoz,Casas de Reina,38.2,-5.96667,124.024725
Castilblanco,Badajoz,Castilblanco,39.285581,-5.090236,199.791486
Castuera,Badajoz,Castuera,38.726483,-5.545868,156.91594899999998
Cheles,Badajoz,Cheles,38.513443,-7.282274,52.779622
Codosera (La),Badajoz,La Codosera,39.208401,-7.173379,59.041233999999996
Cordobilla de Lácara,Badajoz,Cordobilla de Lácara,39.146614,-6.435991,69.702808
Coronada (La),Badajoz,La Coronada,38.919642,-5.6701,132.134328
Corte de Peleas,Badajoz,Corte de Peleas,38.72529,-6.671912,44.560818
Cristina,Badajoz,Cristina,38.825438,-6.09967,91.323757
Don Álvaro,Badajoz,Don Álvaro,38.880935,-6.305323,67.586044
Don Benito,Badajoz,Don Benito,38.963236,-5.86046,116.163392
Entrín Bajo,Badajoz,Entrín Bajo,38.718534,-6.712663,40.591291
Esparragalejo,Badajoz,Esparragalejo,38.943824,-6.435232,68.184246
Esparragosa de la Serena,Badajoz,Esparragosa de la Serena,38.649558,-5.606726,162.319737
Esparragosa de Lares,Badajoz,Esparragosa de Lares,38.975376,-5.270202,167.58172399999998
Feria,Badajoz,Feria,38.512778,-6.564242,62.395967
Fregenal de la Sierra,Badajoz,Fregenal de la Sierra,38.166981,-6.652975,97.690056
Fuenlabrada de los Montes,Badajoz,Fuenlabrada de los Montes,39.133018,-4.935113,197.666077
Fuente de Cantos,Badajoz,Fuente de Cantos,38.246621,-6.30559,136.34337299999999
Fuente del Arco,Badajoz,Fuente del Arco,38.15,-5.9,132.068571
Fuente del Maestre,Badajoz,Fuente del Maestre,38.527681,-6.446825,68.04150999999999
Fuentes de León,Badajoz,Fuentes de León,38.067365,-6.539752,116.759682
Garbayuela,Badajoz,Garbayuela,39.048933,-4.999989,191.511897
Garlitos,Badajoz,Garlitos,38.88022,-5.04759,205.654525
Garrovilla (La),Badajoz,La Garrovilla,38.91966,-6.479167,56.222601000000004
Granja de Torrehermosa,Badajoz,Granja de Torrehermosa,38.309073,-5.596359,156.144034
Guadiana,Badajoz,Guadiana,38.921999,-6.689311,35.954608
Guareña,Badajoz,Guareña,38.860671,-6.101441,87.915497
Haba (La),Badajoz,La Haba,38.918877,-5.801104,124.30850199999999
Helechosa de los Montes,Badajoz,Helechosa de los Montes,39.310257,-4.907123,227.115554
Herrera del Duque,Badajoz,Herrera del Duque,39.168449,-5.052043,206.388415
Higuera de la Serena,Badajoz,Higuera de la Serena,38.6458,-5.742847,153.43658100000002
Higuera de Llerena,Badajoz,Higuera de Llerena,38.376049,-5.999326,119.405902
Higuera de Vargas,Badajoz,Higuera de Vargas,38.445993,-6.974924,56.494811999999996
Higuera la Real,Badajoz,Higuera la Real,38.140849,-6.689688,101.473724
Hinojosa del Valle,Badajoz,Hinojosa del Valle,38.483356,-6.184975,117.42505899999999
Hornachos,Badajoz,Hornachos,38.552797,-6.067863,125.069342
Jerez de los Caballeros,Badajoz,Jerez de los Caballeros,38.323191,-6.768334,74.810289
Lapa (La),Badajoz,La Lapa,38.45,-6.51667,82.915187
Llera,Badajoz,Llera,38.446292,-6.057016,115.301743
Llerena,Badajoz,Llerena,38.236797,-6.014742,118.288192
Lobón,Badajoz,Lobón,38.849937,-6.624885,34.549538
Magacela,Badajoz,Magacela,38.895194,-5.725719,136.881823
Maguilla,Badajoz,Maguilla,38.366699,-5.838887,139.333419
Malcocinado,Badajoz,Malcocinado,38.122861,-5.691956,163.132946
Malpartida de la Serena,Badajoz,Malpartida de la Serena,38.6747,-5.64054,157.330207
Manchita,Badajoz,Manchita,38.81404,-6.02041,96.731463
Medellín,Badajoz,Medellín,38.962575,-5.958762,102.381485
Medina de las Torres,Badajoz,Medina de las Torres,38.342121,-6.412546,85.826732
Mengabril,Badajoz,Mengabril,38.93554,-5.93335,107.762668
Mérida,Badajoz,Mérida,38.920403,-6.33538,63.730048000000004
Mirandilla,Badajoz,Mirandilla,39.000519,-6.289964,72.033666
Monesterio,Badajoz,Monesterio,38.088659,-6.272569,154.45732500000003
Montemolín,Badajoz,Montemolín,38.15,-6.2,155.824256
Monterrubio de la Serena,Badajoz,Monterrubio de la Serena,38.588876,-5.446405,179.22882800000002
Montijo,Badajoz,Montijo,38.910012,-6.614332,43.218083
Morera (La),Badajoz,La Morera,38.566233,-6.67151,53.315675000000006
Nava de Santiago (La),Badajoz,La Nava de Santiago,39.062982,-6.505422,57.257906999999996
Navalvillar de Pela,Badajoz,Navalvillar de Pela,39.090167,-5.468177,146.379231
Nogales,Badajoz,Nogales,38.587031,-6.748208,44.635701
Oliva de la Frontera,Badajoz,Oliva de la Frontera,38.276966,-6.917721,90.501915
Oliva de Mérida,Badajoz,Oliva de Mérida,38.790375,-6.125274,100.059163
Olivenza,Badajoz,Olivenza,38.683248,-7.099145,25.481232
Orellana de la Sierra,Badajoz,Orellana de la Sierra,39.019482,-5.507367,146.045712
Orellana la Vieja,Badajoz,Orellana la Vieja,39.004239,-5.535969,139.48326699999998
Palomas,Badajoz,Palomas,38.693202,-6.134943,107.639761
Parra (La),Badajoz,La Parra,38.521641,-6.622352,61.321203000000004
Peñalsordo,Badajoz,Peñalsordo,38.819576,-5.114346,207.806669
Peraleda del Zaucejo,Badajoz,Peraleda del Zaucejo,38.473821,-5.565506,188.206938
Puebla de Alcocer,Badajoz,Puebla de Alcocer,38.985527,-5.256793,177.265986
Puebla de la Calzada,Badajoz,Puebla de la Calzada,38.892895,-6.62529,41.799644
Puebla de la Reina,Badajoz,Puebla de la Reina,38.66511,-6.101906,111.460493
Puebla de Obando,Badajoz,Puebla de Obando,39.175682,-6.626117,48.477366
Puebla de Sancho Pérez,Badajoz,Puebla de Sancho Pérez,38.396352,-6.39873,79.514628
Puebla del Maestre,Badajoz,Puebla del Maestre,38.085132,-6.078725,175.945928
Puebla del Prior,Badajoz,Puebla del Prior,38.570397,-6.195755,112.581625
Pueblonuevo del Guadiana,Badajoz,Pueblonuevo del Guadiana,38.923141,-6.75574,30.638029
Quintana de la Serena,Badajoz,Quintana de la Serena,38.742574,-5.673837,147.62573
Reina,Badajoz,Reina,38.18333,-5.95,126.36189200000001
Rena,Badajoz,Rena,39.05252,-5.80868,115.80251799999999
Retamal de Llerena,Badajoz,Retamal de Llerena,38.577342,-5.839096,140.26225
Ribera del Fresno,Badajoz,Ribera del Fresno,38.550737,-6.238055,108.129507
Risco,Badajoz,Risco,38.891789,-5.114785,201.026965
Roca de la Sierra (La),Badajoz,La Roca de la Sierra,39.107242,-6.688593,39.343972
Salvaleón,Badajoz,Salvaleón,38.510694,-6.785731,56.729554
Salvatierra de los Barros,Badajoz,Salvatierra de los Barros,38.491343,-6.684296,57.972522
San Pedro de Mérida,Badajoz,San Pedro de Mérida,38.949408,-6.187106,77.223084
San Vicente de Alcántara,Badajoz,San Vicente de Alcántara,39.360878,-7.138322,66.270221
Sancti-Spíritus,Badajoz,Sancti-Spíritus,38.916798,-5.175599,193.395884
Santa Amalia,Badajoz,Santa Amalia,39.011502,-6.009702,95.431102
Santa Marta,Badajoz,Santa Marta,38.613684,-6.627812,46.361976000000006
Santos de Maimona (Los),Badajoz,Los Santos de Maimona,38.44777,-6.376137,76.326588
Segura de León,Badajoz,Segura de León,38.120154,-6.529577,110.180578
Siruela,Badajoz,Siruela,38.977951,-5.048693,201.404154
Solana de los Barros,Badajoz,Solana de los Barros,38.725263,-6.538392,47.306425
Talarrubias,Badajoz,Talarrubias,39.03551,-5.234665,170.688818
Talavera la Real,Badajoz,Talavera la Real,38.875892,-6.768634,23.615672999999997
Táliga,Badajoz,Táliga,38.52861,-7.01713,44.744534
Tamurejo,Badajoz,Tamurejo,38.991986,-4.952054,201.253524
Torre de Miguel Sesmero,Badajoz,Torre de Miguel Sesmero,38.618778,-6.7956,39.311167000000005
Torremayor,Badajoz,Torremayor,38.900898,-6.538429,48.621734
Torremejía,Badajoz,Torremejía,38.789071,-6.376616,72.262148
Trasierra,Badajoz,Trasierra,38.18333,-6.0,125.920659
Trujillanos,Badajoz,Trujillanos,38.952801,-6.256589,70.921706
Usagre,Badajoz,Usagre,38.355035,-6.165343,99.491505
Valdecaballeros,Badajoz,Valdecaballeros,39.24786,-5.197937,188.735203
Valdelacalzada,Badajoz,Valdelacalzada,38.888955,-6.701348,33.41511
Valdetorres,Badajoz,Valdetorres,38.915545,-6.068961,90.402565
Valencia de las Torres,Badajoz,Valencia de las Torres,38.40454,-6.003675,116.820053
Valencia del Mombuey,Badajoz,Valencia del Mombuey,38.242046,-7.119303,80.558136
Valencia del Ventoso,Badajoz,Valencia del Ventoso,38.26603,-6.47387,104.72251399999999
Valle de la Serena,Badajoz,Valle de la Serena,38.702375,-5.798414,145.479975
Valle de Matamoros,Badajoz,Valle de Matamoros,38.37889,-6.80371,67.140602
Valle de Santa Ana,Badajoz,Valle de Santa Ana,38.363528,-6.787644,69.828191
Valverde de Burguillos,Badajoz,Valverde de Burguillos,38.3271,-6.53648,92.031638
Valverde de Leganés,Badajoz,Valverde de Leganés,38.670196,-6.980389,35.937801
Valverde de Llerena,Badajoz,Valverde de Llerena,38.213203,-5.821879,136.950147
Valverde de Mérida,Badajoz,Valverde de Mérida,38.911671,-6.219633,74.785669
Villafranca de los Barros,Badajoz,Villafranca de los Barros,38.56199,-6.341567,99.299663
Villagarcía de la Torre,Badajoz,Villagarcía de la Torre,38.292562,-6.078689,108.99177499999999
Villagonzalo,Badajoz,Villagonzalo,38.862844,-6.196879,90.625236
Villalba de los Barros,Badajoz,Villalba de los Barros,38.612942,-6.508735,57.356767
Villanueva de la Serena,Badajoz,Villanueva de la Serena,38.975483,-5.797218,119.95176
Villanueva del Fresno,Badajoz,Villanueva del Fresno,38.374526,-7.167092,64.549731
Villar de Rena,Badajoz,Villar de Rena,39.110391,-5.739894,124.499607
Villar del Rey,Badajoz,Villar del Rey,39.131499,-6.849196,49.944193999999996
Villarta de los Montes,Badajoz,Villarta de los Montes,39.21386,-4.79227,222.43854000000002
Zafra,Badajoz,Zafra,38.422232,-6.412671,75.85782499999999
Zahínos,Badajoz,Zahínos,38.330241,-6.9546,71.094197
Zalamea de la Serena,Badajoz,Zalamea de la Serena,38.650717,-5.658486,157.841393
Zarza (La),Badajoz,La Zarza,38.811111,-6.215245,85.42384200000001
Zarza-Capilla,Badajoz,Zarza-Capilla,38.80711,-5.15682,202.112418
Alaior,Illes Balears,Alaior,39.932119,4.13792,132.96635928486117
Alaró,Illes Balears,Alaró,39.7049,2.793441,24.653324
Alcúdia,Illes Balears,Alcúdia,39.86072,3.118993,54.278725
Algaida,Illes Balears,Algaida,39.55894,2.892537,21.811331
Andratx,Illes Balears,Andratx,39.57429,2.420509,32.822874000000006
Ariany,Illes Balears,Ariany,39.650915,3.11245,50.382062
Artà,Illes Balears,Artà,39.69293,3.350646,78.87966899999999
Banyalbufar,Illes Balears,Banyalbufar,39.68734,2.51409,27.743176
Binissalem,Illes Balears,Binissalem,39.689121,2.843071,22.797765
Búger,Illes Balears,Búger,39.75809,2.98349,38.373976
Bunyola,Illes Balears,Bunyola,39.694825,2.700963,18.695913
Calvià,Illes Balears,Calvià,39.566048,2.506248,23.702358
Campanet,Illes Balears,Campanet,39.775651,2.964347,38.092587
Campos,Illes Balears,Campos,39.430852,3.019209,39.877803
Capdepera,Illes Balears,Capdepera,39.714978,3.461558,89.737081
Castell (Es),Illes Balears,Es Castell,39.8776,4.2899,143.97708416552834
Ciutadella de Menorca,Illes Balears,Ciutadella de Menorca,40.001435,3.838817,111.74701372736922
Consell,Illes Balears,Consell,39.668236,2.812239,19.537784
Costitx,Illes Balears,Costitx,39.65675,2.94953,38.000364000000005
Deià,Illes Balears,Deià,39.74806,2.64823,33.804147
Eivissa,Illes Balears,Eivissa,38.908487,1.431386,129.13551577552647
Escorca,Illes Balears,Escorca,39.842018,2.779031,68.11471
Esporles,Illes Balears,Esporles,39.66702,2.579695,17.591801
Estellencs,Illes Balears,Estellencs,39.653465,2.481365,49.816777
Felanitx,Illes Balears,Felanitx,39.470625,3.148632,51.554668
Ferreries,Illes Balears,Ferreries,39.983462,4.012557,124.66557449706487
Formentera,Illes Balears,Formentera,38.703041,1.427104,143.826643071225
Fornalutx,Illes Balears,Fornalutx,39.78232,2.74107,31.314725
Inca,Illes Balears,Inca,39.718621,2.90814,28.940783
Lloret de Vistalegre,Illes Balears,Lloret de Vistalegre,39.617377,2.975041,34.472117
Lloseta,Illes Balears,Lloseta,39.718307,2.869172,28.258803
Llubí,Illes Balears,Llubí,39.700055,3.005589,38.409241
Llucmajor,Illes Balears,Llucmajor,39.490416,2.889804,28.513883
Manacor,Illes Balears,Manacor,39.569516,3.206466,50.055241
Mancor de la Vall,Illes Balears,Mancor de la Vall,39.749956,2.873383,33.847188
Maó-Mahón,Illes Balears,Maó-Mahón,39.886087,4.261187,141.8021160700794
Maria de la Salut,Illes Balears,Maria de la Salut,39.665506,3.071064,46.781562
Marratxí,Illes Balears,Marratxí,39.638159,2.754566,12.454673000000001
Mercadal (Es),Illes Balears,Es Mercadal,39.988204,4.093772,131.35092801781525
Migjorn Gran (Es),Illes Balears,Es Migjorn Gran,39.94698,4.049753,126.2897937604943
Montuïri,Illes Balears,Montuïri,39.563663,2.980121,29.368655999999998
Muro,Illes Balears,Muro,39.734756,3.055532,42.568427
Palma,Illes Balears,Palma,39.575748,2.656644,0.0
Petra,Illes Balears,Petra,39.613472,3.113692,47.132381
Pobla (Sa),Illes Balears,Sa Pobla,39.7692,3.02394,42.601315
Pollença,Illes Balears,Pollença,39.877882,3.015565,53.357915999999996
Porreres,Illes Balears,Porreres,39.514881,3.023458,36.568822999999995
Puigpunyent,Illes Balears,Puigpunyent,39.622266,2.523958,15.783657999999999
Salines (Ses),Illes Balears,Ses Salines,39.338559,3.051021,51.510898999999995
Sant Antoni de Portmany,Illes Balears,Sant Antoni de Portmany,38.968799,1.290567,135.78086922301074
Sant Joan,Illes Balears,Sant Joan,39.595726,3.039081,37.235001
Sant Joan de Labritja,Illes Balears,Sant Joan de Labritja,39.077698,1.513265,113.03573985666024
Sant Josep de sa Talaia,Illes Balears,Sant Josep de sa Talaia,38.918679,1.291823,138.5695872629634
Sant Llorenç des Cardassar,Illes Balears,Sant Llorenç des Cardassar,39.610844,3.285971,58.481675
Sant Lluís,Illes Balears,Sant Lluís,39.849761,4.257916,140.63788550631085
Santa Eugènia,Illes Balears,Santa Eugènia,39.623846,2.838577,20.960232
Santa Eulària des Riu,Illes Balears,Santa Eulària des Riu,38.987302,1.542442,116.23116668815655
Santa Margalida,Illes Balears,Santa Margalida,39.703191,3.103177,48.74947
Santa María del Camí,Illes Balears,Santa María del Camí,39.648828,2.775023,15.944527
Santanyí,Illes Balears,Santanyí,39.355946,3.129117,52.389053
Selva,Illes Balears,Selva,39.75436,2.889076,35.448154
Sencelles,Illes Balears,Sencelles,39.646892,2.899581,26.375076
Sineu,Illes Balears,Sineu,39.643647,3.010668,40.928862
Sóller,Illes Balears,Sóller,39.767345,2.715649,25.173619
Son Servera,Illes Balears,Son Servera,39.61802,3.364648,65.90839
Valldemossa,Illes Balears,Valldemossa,39.710098,2.625143,18.498392
Vilafranca de Bonany,Illes Balears,Vilafranca de Bonany,39.569607,3.088169,38.713105999999996
Abrera,Barcelona,Abrera,41.49669,1.900894,6479.491562024886
Aguilar de Segarra,Barcelona,Aguilar de Segarra,41.74822,1.62919,6445.80988334535
Aiguafreda,Barcelona,Aiguafreda,41.768409,2.25115,6489.254192830055
Alella,Barcelona,Alella,41.496137,2.291909,6507.604258091697
Alpens,Barcelona,Alpens,42.1193,2.10135,6458.783718052476
Ametlla del Vallès (L'),Barcelona,L' Ametlla del Vallès,41.668354,2.259358,6495.503189566904
Arenys de Mar,Barcelona,Arenys de Mar,41.582411,2.551104,6521.2788512094385
Arenys de Munt,Barcelona,Arenys de Munt,41.608144,2.539527,6518.98579784172
Argençola,Barcelona,Argençola,41.59486,1.46953,6442.942111598245
Argentona,Barcelona,Argentona,41.550913,2.398359,6512.126560417562
Artés,Barcelona,Artés,41.796591,1.95034,6466.123156013098
Avià,Barcelona,Avià,42.07452,1.825439,6441.58565382733
Avinyó,Barcelona,Avinyó,41.863596,1.971087,6463.838626816145
Avinyonet del Penedès,Barcelona,Avinyonet del Penedès,41.34284,1.812017,6481.798668035895
Badalona,Barcelona,Badalona,41.443092,2.231575,6506.286382827737
Badia del Vallès,Barcelona,Badia del Vallès,41.508766,2.116891,6494.325324791366
Bagà,Barcelona,Bagà,42.251064,1.865122,6434.552544302434
Balenyà,Barcelona,Balenyà,41.813418,2.234902,6485.548082590206
Balsareny,Barcelona,Balsareny,41.862399,1.874544,6456.992567313192
Barberà del Vallès,Barcelona,Barberà del Vallès,41.517308,2.125243,6494.440943031199
Barcelona,Barcelona,Barcelona,42.341855,-79.596068,0.0
Begues,Barcelona,Begues,41.333881,1.916065,6489.7977338063565
Bellprat,Barcelona,Bellprat,41.51695,1.43333,6444.711198563368
Berga,Barcelona,Berga,42.101496,1.844016,6441.404119008721
Bigues i Riells,Barcelona,Bigues i Riells,41.670439,2.201504,6491.239892404799
Borredà,Barcelona,Borredà,42.13564,1.99428,6450.225161773164
Bruc (El),Barcelona,El Bruc,41.58333,1.78333,6466.152524361568
Brull (El),Barcelona,El Brull,41.81657,2.30531,6490.406488542434
Cabanyes (Les),Barcelona,Les Cabanyes,41.37287,1.688919,6471.234813897014
Cabrera d'Anoia,Barcelona,Cabrera d'Anoia,41.485582,1.709933,6466.386256495981
Cabrera de Mar,Barcelona,Cabrera de Mar,41.527272,2.397678,6513.421478088797
Cabrils,Barcelona,Cabrils,41.52819,2.368618,6511.285606773655
Calaf,Barcelona,Calaf,41.731601,1.516317,6438.636564683116
Calders,Barcelona,Calders,41.783381,1.98081,6469.050129845809
Caldes de Montbui,Barcelona,Caldes de Montbui,41.630059,2.16897,6491.1930303964355
Caldes d'Estrac,Barcelona,Caldes d'Estrac,41.56506,2.513271,6519.556509933155
Calella,Barcelona,Calella,41.614211,2.655708,6526.956123046022
Calldetenes,Barcelona,Calldetenes,41.952271,2.280429,6480.966016251954
Callús,Barcelona,Callús,41.782097,1.783982,6455.013806959856
Calonge de Segarra,Barcelona,Calonge de Segarra,41.76132,1.47715,6434.15868856957
Campins,Barcelona,Campins,41.71667,2.46667,6507.606408102164
Canet de Mar,Barcelona,Canet de Mar,41.590931,2.580201,6522.877336569209
Canovelles,Barcelona,Canovelles,41.61667,2.28333,6500.149313669758
Cànoves i Samalús,Barcelona,Cànoves i Samalús,41.68333,2.35,6501.146731101784
Canyelles,Barcelona,Canyelles,41.272894,1.713749,6478.676213763245
Capellades,Barcelona,Capellades,41.530204,1.685225,6462.093642723823
Capolat,Barcelona,Capolat,42.0772,1.75352,6436.293783656994
Cardedeu,Barcelona,Cardedeu,41.641295,2.358295,6504.124219555606
Cardona,Barcelona,Cardona,41.910243,1.675859,6440.0755710019
Carme,Barcelona,Carme,41.53198,1.62074,6457.355092647882
Casserres,Barcelona,Casserres,42.013164,1.841182,6446.146600184912
Castell de l'Areny,Barcelona,Castell de l'Areny,42.17291,1.94529,6444.641421214464
Castellar de n'Hug,Barcelona,Castellar de n'Hug,42.28333,2.01667,6443.556692316237
Castellar del Riu,Barcelona,Castellar del Riu,42.12299,1.77378,6435.183045278507
Castellar del Vallès,Barcelona,Castellar del Vallès,41.614909,2.086842,6486.160173006865
Castellbell i el Vilar,Barcelona,Castellbell i el Vilar,41.63395,1.86394,6469.088784681331
Castellbisbal,Barcelona,Castellbisbal,41.474096,1.981281,6486.54720528196
Castellcir,Barcelona,Castellcir,41.76074,2.16128,6483.2537443658075
Castelldefels,Barcelona,Castelldefels,41.277848,1.972694,6497.05320870093
Castellet i la Gornal,Barcelona,Castellet i la Gornal,41.266732,1.650145,6474.438443717701
Castellfollit de Riubregós,Barcelona,Castellfollit de Riubregós,41.76667,1.43333,6430.711781497556
Castellfollit del Boix,Barcelona,Castellfollit del Boix,41.66667,1.7,6455.474651744361
Castellgalí,Barcelona,Castellgalí,41.67492,1.82103,6463.7002005416825
Castellnou de Bages,Barcelona,Castellnou de Bages,41.83444,1.83721,6455.8886481981
Castellolí,Barcelona,Castellolí,41.59829,1.70057,6459.362631048627
Castellterçol,Barcelona,Castellterçol,41.75209,2.119968,6480.783543195127
Castellví de la Marca,Barcelona,Castellví de la Marca,41.33366,1.61265,6467.953224657517
Castellví de Rosanes,Barcelona,Castellví de Rosanes,41.45,1.9,6482.067264748096
Centelles,Barcelona,Centelles,41.797367,2.223586,6485.6450493644625
Cercs,Barcelona,Cercs,42.12749,1.86782,6441.650716958542
Cerdanyola del Vallès,Barcelona,Cerdanyola del Vallès,41.493535,2.137145,6496.642916651869
Cervelló,Barcelona,Cervelló,41.397172,1.960812,6489.431378155901
Collbató,Barcelona,Collbató,41.57009,1.82712,6470.045425804449
Collsuspina,Barcelona,Collsuspina,41.8258,2.17546,6480.5959225998095
Copons,Barcelona,Copons,41.63662,1.5181,6444.091479718901
Corbera de Llobregat,Barcelona,Corbera de Llobregat,41.415472,1.928995,6486.106446657968
Cornellà de Llobregat,Barcelona,Cornellà de Llobregat,41.354399,2.072954,6499.923133118039
Cubelles,Barcelona,Cubelles,41.206673,1.676196,6479.715996045867
Dosrius,Barcelona,Dosrius,41.594429,2.405796,6510.187251234712
Esparreguera,Barcelona,Esparreguera,41.537869,1.867658,6474.776620013544
Esplugues de Llobregat,Barcelona,Esplugues de Llobregat,41.36804,2.080015,6499.65661551
Espunyola (L'),Barcelona,L' Espunyola,41.409602,2.203027,6506.138353477131
Esquirol (L'),Barcelona,L' Esquirol,41.366322,2.012836,6494.922304941787
Estany (L'),Barcelona,L' Estany,42.43665,1.927325,6428.636421501841
Figaró-Montmany,Barcelona,Figaró-Montmany,41.71253,2.247515,6492.1543402553525
Fígols,Barcelona,Fígols,42.18102,1.83605,6436.389225024887
Fogars de la Selva,Barcelona,Fogars de la Selva,41.739019,2.679752,6521.572136973934
Fogars de Montclús,Barcelona,Fogars de Montclús,41.73333,2.45,6505.468891027531
Folgueroles,Barcelona,Folgueroles,41.938264,2.314687,6484.203254314103
Fonollosa,Barcelona,Fonollosa,41.759157,1.742004,6453.291696530242
Font-rubí,Barcelona,Font-rubí,41.4343,1.59096,6460.713319941737
Franqueses del Vallès (Les),Barcelona,Les Franqueses del Vallès,41.645286,2.299086,6499.656318605421
Gaià,Barcelona,Gaià,41.91667,1.93333,6458.152598151052
Gallifa,Barcelona,Gallifa,41.693163,2.115456,6483.788395330029
Garriga (La),Barcelona,La Garriga,41.681392,2.285161,6496.613183185227
Gavà,Barcelona,Gavà,41.308083,2.008065,6497.883457120448
Gelida,Barcelona,Gelida,41.445502,1.869174,6480.10469388046
Gironella,Barcelona,Gironella,42.032792,1.880694,6447.87251066998
Gisclareny,Barcelona,Gisclareny,42.26092,1.79821,6429.228318695488
Granada (La),Barcelona,La Granada,41.376935,1.72,6473.243836228126
Granera,Barcelona,Granera,41.72741,2.05924,6477.8257217205955
Granollers,Barcelona,Granollers,41.608586,2.297085,6501.593515910639
Gualba,Barcelona,Gualba,41.73333,2.5,6509.045225048939
Guardiola de Berguedà,Barcelona,Guardiola de Berguedà,42.235131,1.876536,6436.256568417079
Gurb,Barcelona,Gurb,41.956196,2.232554,6477.324697843524
Hospitalet de Llobregat (L'),Barcelona,L' Hospitalet de Llobregat,41.361337,2.116416,6502.654772128762
Hostalets de Pierola (Els),Barcelona,Els Hostalets de Pierola,41.541536,1.796359,6469.4454502540275
Igualada,Barcelona,Igualada,41.585445,1.623363,6454.53530554256
Jorba,Barcelona,Jorba,41.60193,1.5475,6448.153445429638
Llacuna (La),Barcelona,La Llacuna,41.471035,1.532805,6454.4562711686085
Llagosta (La),Barcelona,La Llagosta,41.516109,2.198783,6499.787716894327
Lliçà d'Amunt,Barcelona,Lliçà d'Amunt,41.604612,2.241653,6497.845258681013
Lliçà de Vall,Barcelona,Lliçà de Vall,41.582033,2.237176,6498.804005611441
Llinars del Vallès,Barcelona,Llinars del Vallès,41.642212,2.399957,6507.056149281758
Lluçà,Barcelona,Lluçà,42.05,2.03333,6457.816204491916
Malgrat de Mar,Barcelona,Malgrat de Mar,41.645758,2.739721,6531.168131867805
Malla,Barcelona,Malla,41.89461,2.2437,6481.593903701656
Manlleu,Barcelona,Manlleu,42.002677,2.286046,6478.525536546571
Manresa,Barcelona,Manresa,41.730648,1.831997,6461.350345885117
Marganell,Barcelona,Marganell,41.63388,1.80427,6464.808328192358
Martorell,Barcelona,Martorell,41.481731,1.916816,6481.481755544951
Martorelles,Barcelona,Martorelles,41.529028,2.231623,6501.4115150942935
Masies de Roda (Le)s,Barcelona,Le Masies de Rodas,42.01944,2.23546,6473.969750024068
Masies de Voltregà (Le)s,Barcelona,Le Masies de Voltregàs,0.0,0.0,9155.83490685205
Masnou (El),Barcelona,El Masnou,41.482393,2.312081,6509.832580936778
Masquefa,Barcelona,Masquefa,41.500363,1.812874,6472.956239543933
Matadepera,Barcelona,Matadepera,41.616911,2.012558,6480.7174133246135
Mataró,Barcelona,Mataró,41.540517,2.435491,6515.379147969813
Mediona,Barcelona,Mediona,41.483122,1.627702,6460.607563699463
Moià,Barcelona,Moià,41.812045,2.098455,6475.860346696162
Molins de Rei,Barcelona,Molins de Rei,41.41011,2.021963,6493.095922305423
Mollet del Vallès,Barcelona,Mollet del Vallès,41.54126,2.215969,6499.594580324934
Monistrol de Calders,Barcelona,Monistrol de Calders,41.755199,2.015227,6473.104305576067
Monistrol de Montserrat,Barcelona,Monistrol de Montserrat,41.614616,1.848522,6469.071765916361
Montcada i Reixac,Barcelona,Montcada i Reixac,41.482157,2.188071,6500.944807699199
Montclar,Barcelona,Montclar,42.01754,1.76365,6440.355191356914
Montesquiu,Barcelona,Montesquiu,42.11667,2.21667,6467.159373692836
Montgat,Barcelona,Montgat,41.469472,2.282422,6508.438232991378
Montmajor,Barcelona,Montmajor,42.01748,1.73502,6438.310014839472
Montmaneu,Barcelona,Montmaneu,41.71253,2.247515,6492.1543402553525
Montmeló,Barcelona,Montmeló,41.560166,2.26475,6502.021461902828
Montornès del Vallès,Barcelona,Montornès del Vallès,41.54147,2.266694,6503.221608475197
Montseny,Barcelona,Montseny,41.75726,2.39944,6500.49578124685
Muntanyola,Barcelona,Muntanyola,41.88333,2.18333,6477.913783820459
Mura,Barcelona,Mura,41.69943,1.97612,6473.445628666147
Navarcles,Barcelona,Navarcles,41.754559,1.908955,6465.523376638489
Navàs,Barcelona,Navàs,41.898534,1.875536,6455.034100516464
Nou de Berguedà (La),Barcelona,La Nou de Berguedà,42.16667,1.88333,6440.567201449582
Òdena,Barcelona,Òdena,41.606033,1.640768,6454.628652944746
Olèrdola,Barcelona,Olèrdola,41.31667,1.71667,6476.410414597321
Olesa de Bonesvalls,Barcelona,Olesa de Bonesvalls,41.35435,1.84907,6483.815187977086
Olesa de Montserrat,Barcelona,Olesa de Montserrat,41.546024,1.887374,6475.732802967082
Olivella,Barcelona,Olivella,41.309904,1.807034,6483.304171081281
Olost,Barcelona,Olost,41.985226,2.094532,6465.828191317145
Olvan,Barcelona,Olvan,42.06667,1.9,6447.354579150087
Orís,Barcelona,Orís,42.05967,2.22066,6470.649147769858
Oristà,Barcelona,Oristà,41.93333,2.06667,6466.755158097575
Orpí,Barcelona,Orpí,41.5187,1.57536,6454.837274448334
Òrrius,Barcelona,Òrrius,41.555313,2.352949,6508.621263985327
Pacs del Penedès,Barcelona,Pacs del Penedès,41.36023,1.65906,6469.797572367753
Palafolls,Barcelona,Palafolls,41.668069,2.751671,6530.751070215401
Palau-solità i Plegamans,Barcelona,Palau-solità i Plegamans,41.582768,2.171902,6494.080839027224
Pallejà,Barcelona,Pallejà,41.419962,1.996692,6490.720565916041
Palma de Cervelló (La),Barcelona,La Palma de Cervelló,41.410722,1.969937,6489.3200813799085
Papiol (El),Barcelona,El Papiol,41.438706,2.007361,6490.425695546538
Parets del Vallès,Barcelona,Parets del Vallès,41.572636,2.234415,6499.138721387824
Perafita,Barcelona,Perafita,42.042655,2.106529,6463.457253148327
Piera,Barcelona,Piera,41.524672,1.749059,6466.996035195322
Pineda de Mar,Barcelona,Pineda de Mar,41.630397,2.690832,6528.546969177925
Pla del Penedès (El),Barcelona,El Pla del Penedès,41.41667,1.71667,6470.759783476442
Pobla de Claramunt (La),Barcelona,La Pobla de Claramunt,41.553908,1.677239,6460.184170440975
Pobla de Lillet (La),Barcelona,La Pobla de Lillet,42.243751,1.97636,6442.895716937668
Polinyà,Barcelona,Polinyà,41.542608,2.162721,6495.69736923957
Pont de Vilomara i Rocafort (El),Barcelona,El Pont de Vilomara i Rocafort,41.70726,1.90889,6468.182674294808
Pontons,Barcelona,Pontons,41.41313,1.51458,6456.403651745321
Prat de Llobregat (El),Barcelona,El Prat de Llobregat,41.330291,2.093821,6502.793107125558
Prats de Lluçanès,Barcelona,Prats de Lluçanès,42.008826,2.030915,6459.955391703347
Prats de Rei (Els),Barcelona,Els Prats de Rei,41.70592,1.54319,6442.006722496452
Premià de Dalt,Barcelona,Premià de Dalt,41.5,2.35,6511.552448392737
Premià de Mar,Barcelona,Premià de Mar,41.494808,2.357761,6512.404310380969
Puigdàlber,Barcelona,Puigdàlber,41.4,1.7,6470.500765985436
Puig-reig,Barcelona,Puig-reig,41.968962,1.882443,6451.576032795132
Pujalt,Barcelona,Pujalt,41.7171,1.42088,6432.591462559593
Quar (La),Barcelona,La Quar,42.1,1.98333,6451.440401127444
Rajadell,Barcelona,Rajadell,41.72802,1.70621,6452.4724067065545
Rellinars,Barcelona,Rellinars,41.634372,1.908365,6472.254035501267
Ripollet,Barcelona,Ripollet,41.488396,2.167641,6499.124026256565
Roca del Vallès (La),Barcelona,La Roca del Vallès,41.584137,2.32705,6505.128263947413
Roda de Ter,Barcelona,Roda de Ter,41.982193,2.308657,6481.294586032415
Rubí,Barcelona,Rubí,41.489885,2.03218,6489.310742994329
Rubió,Barcelona,Rubió,41.656054,1.571038,6446.805922187955
Rupit i Pruit,Barcelona,Rupit i Pruit,42.01649,2.46005,6490.163180252317
Sabadell,Barcelona,Sabadell,41.544526,2.104533,6491.412494563617
Sagàs,Barcelona,Sagàs,42.05,1.96667,6453.053413321056
Saldes,Barcelona,Saldes,42.23333,1.73333,6426.135546083088
Sallent,Barcelona,Sallent,41.824291,1.894494,6460.563528693659
Sant Adrià de Besòs,Barcelona,Sant Adrià de Besòs,41.4333,2.23333,6506.968691156733
Sant Agustí de Lluçanès,Barcelona,Sant Agustí de Lluçanès,42.08333,2.13333,6463.085766793576
Sant Andreu de la Barca,Barcelona,Sant Andreu de la Barca,41.456871,1.969413,6486.6691518314165
Sant Andreu de Llavaneres,Barcelona,Sant Andreu de Llavaneres,41.56667,2.48333,6517.319971835599
Sant Antoni de Vilamajor,Barcelona,Sant Antoni de Vilamajor,41.684875,2.396083,6504.358430099845
Sant Bartomeu del Grau,Barcelona,Sant Bartomeu del Grau,41.983353,2.175229,6471.6996831234665
Sant Boi de Llobregat,Barcelona,Sant Boi de Llobregat,41.343215,2.042572,6498.372486524954
Sant Boi de Lluçanès,Barcelona,Sant Boi de Lluçanès,42.05,2.15,6466.148763056789
Sant Cebrià de Vallalta,Barcelona,Sant Cebrià de Vallalta,41.619861,2.600738,6522.700722559344
Sant Celoni,Barcelona,Sant Celoni,41.686636,2.489442,6510.940314027357
Sant Climent de Llobregat,Barcelona,Sant Climent de Llobregat,41.336103,1.997091,6495.503604015328
Sant Cugat del Vallès,Barcelona,Sant Cugat del Vallès,41.471349,2.081398,6493.896598952698
Sant Cugat Sesgarrigues,Barcelona,Sant Cugat Sesgarrigues,41.361038,1.764484,6477.346056546207
Sant Esteve de Palautordera,Barcelona,Sant Esteve de Palautordera,41.703263,2.436219,6506.188181253336
Sant Esteve Sesrovires,Barcelona,Sant Esteve Sesrovires,41.493495,1.872702,6477.645573213958
Sant Feliu de Codines,Barcelona,Sant Feliu de Codines,41.689415,2.16297,6487.405277449215
Sant Feliu de Llobregat,Barcelona,Sant Feliu de Llobregat,41.382246,2.048811,6496.60653457516
Sant Feliu Sasserra,Barcelona,Sant Feliu Sasserra,41.95,2.03333,6463.433488724527
Sant Fost de Campsentelles,Barcelona,Sant Fost de Campsentelles,41.522217,2.220305,6500.985772739397
Sant Fruitós de Bages,Barcelona,Sant Fruitós de Bages,41.751519,1.872893,6463.108912147092
Sant Hipòlit de Voltregà,Barcelona,Sant Hipòlit de Voltregà,42.012228,2.242763,6474.897263901524
Sant Iscle de Vallalta,Barcelona,Sant Iscle de Vallalta,41.654107,2.569281,6518.501440691083
Sant Jaume de Frontanyà,Barcelona,Sant Jaume de Frontanyà,42.18742,2.02389,6449.438012383572
Sant Joan de Vilatorrada,Barcelona,Sant Joan de Vilatorrada,41.73926,1.802822,6458.7730460730745
Sant Joan Despí,Barcelona,Sant Joan Despí,41.368263,2.060764,6498.259507857005
Sant Julià de Cerdanyola,Barcelona,Sant Julià de Cerdanyola,42.243751,1.97636,6442.895716937668
Sant Julià de Vilatorta,Barcelona,Sant Julià de Vilatorta,41.923958,2.320305,6485.412000244807
Sant Just Desvern,Barcelona,Sant Just Desvern,41.382692,2.075829,6498.524046769579
Sant Llorenç d'Hortons,Barcelona,Sant Llorenç d'Hortons,41.465757,1.823102,6475.646171072423
Sant Llorenç Savall,Barcelona,Sant Llorenç Savall,41.684391,2.050667,6479.639566515667
Sant Martí d'Albars,Barcelona,Sant Martí d'Albars,42.03333,2.08333,6462.324119087883
Sant Martí de Centelles,Barcelona,Sant Martí de Centelles,41.76617,2.20566,6486.124521901011
Sant Martí de Tous,Barcelona,Sant Martí de Tous,41.55,1.51667,6448.853537153389
Sant Martí Sarroca,Barcelona,Sant Martí Sarroca,41.385513,1.611223,6464.923874697024
Sant Martí Sesgueioles,Barcelona,Sant Martí Sesgueioles,41.68333,1.5,6440.170002125945
Sant Mateu de Bages,Barcelona,Sant Mateu de Bages,41.838709,1.739512,6448.646909465278
Sant Pere de Ribes,Barcelona,Sant Pere de Ribes,41.259338,1.774521,6483.824771450579
Sant Pere de Riudebitlles,Barcelona,Sant Pere de Riudebitlles,41.45113,1.705987,6468.045758198954
Sant Pere de Torelló,Barcelona,Sant Pere de Torelló,42.071789,1.933194,6449.439872708506
Sant Pere de Vilamajor,Barcelona,Sant Pere de Vilamajor,41.68333,2.38333,6503.533065365747
Sant Pere Sallavinera,Barcelona,Sant Pere Sallavinera,41.73333,1.58333,6443.352543876826
Sant Pol de Mar,Barcelona,Sant Pol de Mar,41.602525,2.620289,6525.08692377761
Sant Quintí de Mediona,Barcelona,Sant Quintí de Mediona,41.46235,1.66391,6464.384420552168
Sant Quirze de Besora,Barcelona,Sant Quirze de Besora,42.101701,2.216336,6467.976944165727
Sant Quirze del Vallès,Barcelona,Sant Quirze del Vallès,41.532697,2.084986,6490.679073193018
Sant Quirze Safaja,Barcelona,Sant Quirze Safaja,41.729046,2.149768,6484.219533887989
Sant Sadurní d'Anoia,Barcelona,Sant Sadurní d'Anoia,41.41667,1.78333,6475.558146365175
Sant Sadurní d'Osormort,Barcelona,Sant Sadurní d'Osormort,41.9,2.38333,6491.267511203324
Sant Salvador de Guardiola,Barcelona,Sant Salvador de Guardiola,41.68333,1.76667,6459.324775790305
Sant Vicenç de Castellet,Barcelona,Sant Vicenç de Castellet,41.664403,1.857659,6466.921604820607
Sant Vicenç de Montalt,Barcelona,Sant Vicenç de Montalt,41.576274,2.505557,6518.365957408021
Sant Vicenç de Torelló,Barcelona,Sant Vicenç de Torelló,42.062676,2.272585,6474.185482114526
Sant Vicenç dels Horts,Barcelona,Sant Vicenç dels Horts,41.385978,2.000922,6492.950771139009
Santa Cecília de Voltregà,Barcelona,Santa Cecília de Voltregà,42.0,2.23333,6474.9123324776365
Santa Coloma de Cervelló,Barcelona,Santa Coloma de Cervelló,41.361555,2.003404,6494.5141398043925
Santa Coloma de Gramenet,Barcelona,Santa Coloma de Gramenet,41.453431,2.209092,6504.084676343561
Santa Eugènia de Berga,Barcelona,Santa Eugènia de Berga,41.902398,2.280224,6483.765015154133
Santa Eulàlia de Riuprimer,Barcelona,Santa Eulàlia de Riuprimer,41.91058,2.18903,6476.785125039201
Santa Eulàlia de Ronçana,Barcelona,Santa Eulàlia de Ronçana,41.65,2.23333,6494.67753469851
Santa Fe del Penedès,Barcelona,Santa Fe del Penedès,41.38333,1.71667,6472.6427251556415
Santa Margarida de Montbui,Barcelona,Santa Margarida de Montbui,41.556596,1.60491,6454.831079088444
Santa Margarida i els Monjos,Barcelona,Santa Margarida i els Monjos,41.310336,1.66369,6472.950005957187
Santa Maria de Besora,Barcelona,Santa Maria de Besora,42.12705,2.25848,6469.557810778134
Santa Maria de Martorelles,Barcelona,Santa Maria de Martorelles,41.51667,2.25,6503.431311255417
Santa Maria de Merlès,Barcelona,Santa Maria de Merlès,42.0,1.98333,6457.049600055504
Santa Maria de Miralles,Barcelona,Santa Maria de Miralles,41.50448,1.5102,6450.946972715033
Santa Maria de Palautordera,Barcelona,Santa Maria de Palautordera,41.694513,2.443936,6507.236825673261
Santa Maria d'Oló,Barcelona,Santa Maria d'Oló,41.87509,2.035379,6467.793847349166
Santa Perpètua de Mogoda,Barcelona,Santa Perpètua de Mogoda,41.53333,2.18333,6497.702204244185
Santa Susanna,Barcelona,Santa Susanna,41.73333,2.4,6501.891757780998
Santpedor,Barcelona,Santpedor,41.784082,1.840928,6458.985350538553
Sentmenat,Barcelona,Sentmenat,41.612478,2.138657,6490.014274834227
Seva,Barcelona,Seva,41.83603,2.283494,6487.746481687114
Sitges,Barcelona,Sitges,41.230643,1.785764,6486.261124816655
Sobremunt,Barcelona,Sobremunt,42.03597,2.16502,6468.010088282963
Sora,Barcelona,Sora,42.11236,2.16083,6463.417792561489
Subirats,Barcelona,Subirats,41.4,1.83333,6480.09908456191
Súria,Barcelona,Súria,41.833359,1.75573,6450.1096781967935
Tagamanent,Barcelona,Tagamanent,41.73747,2.2672,6492.152796783794
Talamanca,Barcelona,Talamanca,41.738004,1.975215,6471.205928218787
Taradell,Barcelona,Taradell,41.875818,2.285575,6485.647966991033
Tavèrnoles,Barcelona,Tavèrnoles,41.95592,2.32533,6483.967111645349
Tavertet,Barcelona,Tavertet,41.99572,2.4186,6488.378824356882
Teià,Barcelona,Teià,41.497251,2.31983,6509.544299406861
Terrassa,Barcelona,Terrassa,41.567133,2.017361,6483.875597138462
Tiana,Barcelona,Tiana,41.47663,2.269792,6507.125056005793
Tona,Barcelona,Tona,41.849465,2.228366,6483.045134753512
Tordera,Barcelona,Tordera,41.698049,2.717785,6526.621371414034
Torelló,Barcelona,Torelló,42.049856,2.26059,6474.051195014736
Torre de Claramunt (La),Barcelona,La Torre de Claramunt,41.53044,1.66117,6460.350164798382
Torrelavit,Barcelona,Torrelavit,41.45,1.73333,6470.0773550805725
Torrelles de Foix,Barcelona,Torrelles de Foix,41.38333,1.56667,6461.83668291659
Torrelles de Llobregat,Barcelona,Torrelles de Llobregat,41.350622,1.978463,6493.339651221576
Ullastrell,Barcelona,Ullastrell,41.525302,1.956932,6481.90098064507
Vacarisses,Barcelona,Vacarisses,41.6,1.91667,6474.789671046643
Vallbona d'Anoia,Barcelona,Vallbona d'Anoia,41.518461,1.707702,6464.37200880634
Vallcebre,Barcelona,Vallcebre,42.20347,1.81816,6433.858033873585
Vallgorguina,Barcelona,Vallgorguina,41.64822,2.50996,6514.59077400333
Vallirana,Barcelona,Vallirana,41.38676,1.93205,6487.952096298567
Vallromanes,Barcelona,Vallromanes,41.536932,2.298002,6505.724802660424
Veciana,Barcelona,Veciana,41.672325,1.482873,6439.555994920914
Vic,Barcelona,Vic,41.923104,2.256585,6480.907454813924
Vilada,Barcelona,Vilada,42.13695,1.93162,6445.678011359502
Viladecans,Barcelona,Viladecans,41.321979,2.010207,6497.248913848674
Viladecavalls,Barcelona,Viladecavalls,41.559685,1.953131,6479.684607157904
Vilafranca del Penedès,Barcelona,Vilafranca del Penedès,41.34337,1.698646,6473.602245536923
Vilalba Sasserra,Barcelona,Vilalba Sasserra,41.65,2.45,6510.197397508281
Vilanova de Sau,Barcelona,Vilanova de Sau,41.947,2.3844,6488.688683875976
Vilanova del Camí,Barcelona,Vilanova del Camí,41.574955,1.644977,6456.679570559154
Vilanova del Vallès,Barcelona,Vilanova del Vallès,41.555357,2.296782,6504.591476929238
Vilanova i la Geltrú,Barcelona,Vilanova i la Geltrú,41.22392,1.72511,6482.267992441753
Vilassar de Dalt,Barcelona,Vilassar de Dalt,41.513249,2.358651,6511.4199376839615
Vilassar de Mar,Barcelona,Vilassar de Mar,41.505941,2.391612,6514.1993043152825
Vilobí del Penedès,Barcelona,Vilobí del Penedès,41.388613,1.661603,6468.378276555412
Viver i Serrateix,Barcelona,Viver i Serrateix,41.9502,1.79864,6446.630622124415
Abajas,Burgos,Abajas,42.6231,-3.58086,38.550377999999995
Adrada de Haza,Burgos,Adrada de Haza,41.59454,-3.82326,102.769936
Aguas Cándidas,Burgos,Aguas Cándidas,42.71652,-3.50258,60.089826
Aguilar de Bureba,Burgos,Aguilar de Bureba,42.591397,-3.325796,52.826223
Albillos,Burgos,Albillos,42.2768,-3.78908,14.985443
Alcocero de Mola,Burgos,Alcocero de Mola,42.47222,-3.3579,36.747082
Alfoz de Bricia,Burgos,Alfoz de Bricia,42.90051,-3.8761,85.560704
Alfoz de Quintanadueñas,Burgos,Alfoz de Quintanadueñas,42.384486,-3.73538,7.298634
Alfoz de Santa Gadea,Burgos,Alfoz de Santa Gadea,42.945412,-3.953661,98.048328
Altable,Burgos,Altable,42.60276,-3.07719,69.72327800000001
Altos (Los),Burgos,Los Altos,42.745232,-3.607229,49.384466
Ameyugo,Burgos,Ameyugo,42.65617,-3.0617,72.22320500000001
Anguix,Burgos,Anguix,41.75331,-3.93125,88.17300999999999
Aranda de Duero,Burgos,Aranda de Duero,41.667132,-3.698658,88.85657800000001
Arandilla,Burgos,Arandilla,41.73778,-3.42914,107.07869199999999
Arauzo de Miel,Burgos,Arauzo de Miel,41.85878,-3.38773,85.00201
Arauzo de Salce,Burgos,Arauzo de Salce,41.81919,-3.41191,101.16537
Arauzo de Torre,Burgos,Arauzo de Torre,41.79818,-3.42314,98.617517
Arcos,Burgos,Arcos,42.26435,-3.75406,14.228554
Arenillas de Riopisuerga,Burgos,Arenillas de Riopisuerga,42.3568,-4.233993,61.47271
Arija,Burgos,Arija,42.9935,-3.94497,93.877122
Arlanzón,Burgos,Arlanzón,42.32267,-3.45784,20.256297999999997
Arraya de Oca,Burgos,Arraya de Oca,42.41488,-3.39781,30.981565
Atapuerca,Burgos,Atapuerca,42.37757,-3.5079,21.369566
Ausines (Los),Burgos,Los Ausines,42.215932,-3.587735,22.254333
Avellanosa de Muñó,Burgos,Avellanosa de Muñó,41.98349,-3.82553,51.63112400000001
Bahabón de Esgueva,Burgos,Bahabón de Esgueva,41.86162,-3.7298,60.445472
Balbases (Los),Burgos,Los Balbases,42.21507,-4.06481,46.18510499999999
Baños de Valdearados,Burgos,Baños de Valdearados,41.7701,-3.55589,85.978966
Bañuelos de Bureba,Burgos,Bañuelos de Bureba,42.50258,-3.27958,50.561732000000006
Barbadillo de Herreros,Burgos,Barbadillo de Herreros,42.14974,-3.17702,77.551155
Barbadillo del Mercado,Burgos,Barbadillo del Mercado,42.03858,-3.35669,51.504603
Barbadillo del Pez,Burgos,Barbadillo del Pez,42.11879,-3.22802,71.27244400000001
Barrio de Muñó,Burgos,Barrio de Muñó,42.17584,-4.00715,40.198735
Barrios de Bureba (Los),Burgos,Los Barrios de Bureba,42.64607,-3.39139,59.934612
Barrios de Colina,Burgos,Barrios de Colina,42.39595,-3.46001,24.039638999999998
Basconcillos del Tozo,Burgos,Basconcillos del Tozo,42.70236,-3.98938,53.395464
Bascuñana,Burgos,Bascuñana,42.42548,-3.08231,56.59303
Belbimbre,Burgos,Belbimbre,42.16873,-4.0128,47.271402
Belorado,Burgos,Belorado,42.418376,-3.195192,45.278554
Berberana,Burgos,Berberana,42.91784,-3.06063,110.595314
Berlangas de Roa,Burgos,Berlangas de Roa,41.68913,-3.87284,97.697232
Berzosa de Bureba,Burgos,Berzosa de Bureba,42.62678,-3.26652,56.69347
Bozoó,Burgos,Bozoó,42.74933,-3.08547,82.651128
Brazacorta,Burgos,Brazacorta,41.71737,-3.36711,110.50726700000001
Briviesca,Burgos,Briviesca,42.550301,-3.324216,46.664416
Bugedo,Burgos,Bugedo,42.64912,-3.01786,77.457943
Buniel,Burgos,Buniel,42.31197,-3.8223,18.005695
Burgos,Burgos,Burgos,42.343288,-3.693108,0.0
Busto de Bureba,Burgos,Busto de Bureba,42.6591,-3.26512,60.923345
Cabañes de Esgueva,Burgos,Cabañes de Esgueva,41.83023,-3.78824,65.33199900000001
Cabezón de la Sierra,Burgos,Cabezón de la Sierra,41.93434,-3.24154,70.847302
Caleruega,Burgos,Caleruega,41.82548,-3.48593,92.001068
Campillo de Aranda,Burgos,Campillo de Aranda,41.609055,-3.731442,94.967629
Campolara,Burgos,Campolara,42.11953,-3.4274,45.376965
Canicosa de la Sierra,Burgos,Canicosa de la Sierra,41.93673,-3.04089,87.120018
Cantabrana,Burgos,Cantabrana,42.342869,-3.694385,0.166918
Carazo,Burgos,Carazo,11.744469,-86.252568,8531.95420096425
Carcedo de Bureba,Burgos,Carcedo de Bureba,42.57818,-3.4983,43.938036999999994
Carcedo de Burgos,Burgos,Carcedo de Burgos,42.285798,-3.639468,12.172099
Cardeñadijo,Burgos,Cardeñadijo,42.30217,-3.66779,8.405828999999999
Cardeñajimeno,Burgos,Cardeñajimeno,42.33038,-3.62103,7.980138
Cardeñuela Riopico,Burgos,Cardeñuela Riopico,42.36019,-3.5582,13.577767
Carrias,Burgos,Carrias,42.48141,-3.28319,55.213982
Cascajares de Bureba,Burgos,Cascajares de Bureba,42.67884,-3.23768,63.812675000000006
Cascajares de la Sierra,Burgos,Cascajares de la Sierra,42.06177,-3.39936,47.032556
Castellanos de Castro,Burgos,Castellanos de Castro,42.32806,-4.03417,49.940809
Castil de Peones,Burgos,Castil de Peones,42.48348,-3.38461,34.846097
Castildelgado,Burgos,Castildelgado,42.43756,-3.08389,55.126521000000004
Castrillo de la Reina,Burgos,Castrillo de la Reina,41.98714,-3.2356,64.073244
Castrillo de la Vega,Burgos,Castrillo de la Vega,41.651698,-3.780214,89.764623
Castrillo de Riopisuerga,Burgos,Castrillo de Riopisuerga,42.51476,-4.25337,72.28330199999999
Castrillo del Val,Burgos,Castrillo del Val,42.337531,-3.57135,11.166439
Castrillo Mota de Judíos,Burgos,Castrillo Mota de Judíos,42.30782,-4.17283,53.284189
Castrojeriz,Burgos,Castrojeriz,42.288053,-4.142424,49.755744
Cavia,Burgos,Cavia,42.279424,-3.845342,22.105322
Cayuela,Burgos,Cayuela,42.27223,-3.81895,24.067906999999998
Cebrecos,Burgos,Cebrecos,41.98408,-3.59661,58.130050000000004
Celada del Camino,Burgos,Celada del Camino,42.26359,-3.93362,26.930654999999998
Cerezo de Río Tirón,Burgos,Cerezo de Río Tirón,42.4914,-3.136,65.158907
Cerratón de Juarros,Burgos,Cerratón de Juarros,42.42227,-3.37347,32.836742
Ciadoncha,Burgos,Ciadoncha,42.15814,-3.93235,44.206790999999996
Cillaperlata,Burgos,Cillaperlata,42.7807,-3.37599,88.62612200000001
Cilleruelo de Abajo,Burgos,Cilleruelo de Abajo,41.88405,-3.79722,63.084334999999996
Cilleruelo de Arriba,Burgos,Cilleruelo de Arriba,41.90487,-3.66102,65.318713
Ciruelos de Cervera,Burgos,Ciruelos de Cervera,41.90562,-3.53015,69.72147199999999
Cogollos,Burgos,Cogollos,42.19982,-3.70005,19.040281999999998
Condado de Treviño,Burgos,Condado de Treviño,42.726558,-2.692982,110.427225
Contreras,Burgos,Contreras,42.02004,-3.41084,58.30752
Coruña del Conde,Burgos,Coruña del Conde,41.76566,-3.39059,111.557106
Covarrubias,Burgos,Covarrubias,42.05926,-3.51956,42.197235
Cubillo del Campo,Burgos,Cubillo del Campo,42.16854,-3.61025,25.122148000000003
Cubo de Bureba,Burgos,Cubo de Bureba,42.64011,-3.20626,62.094893000000006
Cueva de Roa (La),Burgos,La Cueva de Roa,41.66683,-3.94118,89.196978
Cuevas de San Clemente,Burgos,Cuevas de San Clemente,42.13009,-3.5684,30.625438
Encío,Burgos,Encío,42.67115,-3.0868,72.724576
Espinosa de Cervera,Burgos,Espinosa de Cervera,41.89683,-3.46858,69.02637
Espinosa de los Monteros,Burgos,Espinosa de los Monteros,43.07732,-3.551038,97.037024
Espinosa del Camino,Burgos,Espinosa del Camino,42.4059,-3.2802,38.161694000000004
Estépar,Burgos,Estépar,42.27731,-3.89946,24.375563
Fontioso,Burgos,Fontioso,41.94273,-3.73872,54.563784
Frandovínez,Burgos,Frandovínez,42.31032,-3.83783,19.408872
Fresneda de la Sierra Tirón,Burgos,Fresneda de la Sierra Tirón,42.31535,-3.13596,58.99024
Fresneña,Burgos,Fresneña,42.41366,-3.13452,51.124341
Fresnillo de las Dueñas,Burgos,Fresnillo de las Dueñas,41.647,-3.64558,98.44973900000001
Fresno de Río Tirón,Burgos,Fresno de Río Tirón,42.467034,-3.18587,63.043036
Fresno de Rodilla,Burgos,Fresno de Rodilla,42.42054,-3.48507,22.656920999999997
Frías,Burgos,Frías,42.76225,-3.29394,81.784968
Fuentebureba,Burgos,Fuentebureba,42.634,-3.2351,58.658950000000004
Fuentecén,Burgos,Fuentecén,41.62852,-3.86867,97.856912
Fuentelcésped,Burgos,Fuentelcésped,41.59162,-3.64064,97.481173
Fuentelisendo,Burgos,Fuentelisendo,41.62274,-3.90129,101.27357400000001
Fuentemolinos,Burgos,Fuentemolinos,41.60477,-3.85005,101.309314
Fuentenebro,Burgos,Fuentenebro,41.52873,-3.75449,104.09444900000001
Fuentespina,Burgos,Fuentespina,41.634044,-3.686798,90.880032
Galbarros,Burgos,Galbarros,42.52729,-3.43827,42.611565
Gallega (La),Burgos,La Gallega,41.89861,-3.26406,71.337583
Grijalba,Burgos,Grijalba,42.43002,-4.11896,57.23704
Grisaleña,Burgos,Grisaleña,42.59122,-3.26416,55.605735
Gumiel de Izán,Burgos,Gumiel de Izán,41.77303,-3.68755,71.77399100000001
Gumiel de Mercado,Burgos,Gumiel de Mercado,41.75589,-3.8027,75.46973200000001
Hacinas,Burgos,Hacinas,41.98514,-3.28709,60.661997
Haza,Burgos,Haza,41.61667,-3.81667,98.076409
Hontanas,Burgos,Hontanas,42.31312,-4.04529,51.995474
Hontangas,Burgos,Hontangas,41.58216,-3.7955,101.580681
Hontoria de la Cantera,Burgos,Hontoria de la Cantera,42.18879,-3.64251,21.52941
Hontoria de Valdearados,Burgos,Hontoria de Valdearados,41.74488,-3.51983,90.370432
Hontoria del Pinar,Burgos,Hontoria del Pinar,41.84838,-3.16245,81.420344
Hormazas (La)s,Burgos,La Hormazass,25.06817,-98.86556,8577.533615413182
Hornillos del Camino,Burgos,Hornillos del Camino,42.33863,-3.9256,33.923557
Horra (La),Burgos,La Horra,41.74139,-3.8756,78.64778600000001
Hortigüela,Burgos,Hortigüela,42.06842,-3.42578,45.151516
Hoyales de Roa,Burgos,Hoyales de Roa,41.65893,-3.86202,99.09931900000001
Huérmeces,Burgos,Huérmeces,42.5225,-3.77072,34.397082000000005
Huerta de Arriba,Burgos,Huerta de Arriba,42.11672,-3.08212,84.472755
Huerta de Rey,Burgos,Huerta de Rey,41.8391,-3.34755,81.36653
Humada,Burgos,Humada,42.66667,-4.08333,63.115161
Hurones,Burgos,Hurones,42.417764,-3.587166,15.533905
Ibeas de Juarros,Burgos,Ibeas de Juarros,42.335439,-3.498621,16.500653999999997
Ibrillos,Burgos,Ibrillos,42.45431,-3.08238,57.690258
Iglesiarrubia,Burgos,Iglesiarrubia,41.97383,-3.84701,53.918946000000005
Iglesias,Burgos,Iglesias,42.312016,-3.984506,41.201373
Isar,Burgos,Isar,42.3614,-3.9304,30.631684
Itero del Castillo,Burgos,Itero del Castillo,42.28988,-4.24441,59.846822
Jaramillo de la Fuente,Burgos,Jaramillo de la Fuente,42.11472,-3.31239,57.591654000000005
Jaramillo Quemado,Burgos,Jaramillo Quemado,42.08568,-3.35868,51.634208
Junta de Traslaloma,Burgos,Junta de Traslaloma,43.051425,-3.392922,101.841729
Junta de Villalba de Losa,Burgos,Junta de Villalba de Losa,42.9501,-3.06996,115.06773299999999
Jurisdicción de Lara,Burgos,Jurisdicción de Lara,42.142185,-3.460174,47.410606
Jurisdicción de San Zadornil,Burgos,Jurisdicción de San Zadornil,42.83902,-3.15819,110.81811599999999
Lerma,Burgos,Lerma,42.023659,-3.755581,41.453438
Llano de Bureba,Burgos,Llano de Bureba,42.62435,-3.4589,63.352752
Madrigal del Monte,Burgos,Madrigal del Monte,42.14464,-3.67571,26.91387
Madrigalejo del Monte,Burgos,Madrigalejo del Monte,42.12442,-3.72509,28.447078
Mahamud,Burgos,Mahamud,42.11981,-3.9406,47.966876
Mambrilla de Castrejón,Burgos,Mambrilla de Castrejón,41.66634,-3.98448,91.428798
Mambrillas de Lara,Burgos,Mambrillas de Lara,42.09446,-3.46194,40.77604
Mamolar,Burgos,Mamolar,41.92762,-3.36228,73.10244999999999
Manciles,Burgos,Manciles,42.45728,-3.94461,39.312065000000004
Mazuela,Burgos,Mazuela,42.20767,-3.9192,43.359756999999995
Mecerreyes,Burgos,Mecerreyes,42.09536,-3.57393,35.464864
Medina de Pomar,Burgos,Medina de Pomar,42.930478,-3.48517,102.086523
Melgar de Fernamental,Burgos,Melgar de Fernamental,42.40407,-4.243837,56.01207
Merindad de Cuesta-Urria,Burgos,Merindad de Cuesta-Urria,42.845481,-3.426259,91.38593
Merindad de Montija,Burgos,Merindad de Montija,43.06106,-3.48217,91.940541
Merindad de Río Ubierna,Burgos,Merindad de Río Ubierna,42.59358,-3.681353,27.819834964894795
Merindad de Sotoscueva,Burgos,Merindad de Sotoscueva,43.02907,-3.64511,91.630601
Merindad de Valdeporres,Burgos,Merindad de Valdeporres,43.077473,-3.789763,107.203686
Merindad de Valdivielso,Burgos,Merindad de Valdivielso,42.82363,-3.54439,73.00876099999999
Milagros,Burgos,Milagros,41.575,-3.69907,97.15616800000001
Miranda de Ebro,Burgos,Miranda de Ebro,42.686895,-2.9424,85.505158
Miraveche,Burgos,Miraveche,42.67396,-3.19947,66.622579
Modúbar de la Emparedada,Burgos,Modúbar de la Emparedada,42.26118,-3.65965,17.304271
Monasterio de la Sierra,Burgos,Monasterio de la Sierra,42.0518,-3.19314,70.750882
Monasterio de Rodilla,Burgos,Monasterio de Rodilla,42.45776,-3.46966,25.534958
Moncalvillo,Burgos,Moncalvillo,41.95413,-3.19886,69.480766
Monterrubio de la Demanda,Burgos,Monterrubio de la Demanda,42.14894,-3.11335,83.426068
Montorio,Burgos,Montorio,42.58469,-3.77724,31.13957
Moradillo de Roa,Burgos,Moradillo de Roa,41.55164,-3.79118,103.26255
Nava de Roa,Burgos,Nava de Roa,41.61326,-3.96442,106.512902
Navas de Bureba,Burgos,Navas de Bureba,42.6809,-3.32698,70.259349
Nebreda,Burgos,Nebreda,41.96881,-3.6343,53.521665
Neila,Burgos,Neila,42.06016,-2.99691,95.814755
Olmedillo de Roa,Burgos,Olmedillo de Roa,41.78362,-3.9342,84.767031
Olmillos de Muñó,Burgos,Olmillos de Muñó,42.20322,-3.93911,40.865190000000005
Oña,Burgos,Oña,42.734,-3.41459,73.446236
Oquillas,Burgos,Oquillas,41.83085,-3.70564,66.212231
Orbaneja Riopico,Burgos,Orbaneja Riopico,42.36083,-3.58223,11.542726
Padilla de Abajo,Burgos,Padilla de Abajo,42.40774,-4.17652,52.320474000000004
Padilla de Arriba,Burgos,Padilla de Arriba,42.43803,-4.19094,56.216649
Padrones de Bureba,Burgos,Padrones de Bureba,42.70582,-3.53296,51.535022
Palacios de la Sierra,Burgos,Palacios de la Sierra,41.96392,-3.12788,75.632628
Palacios de Riopisuerga,Burgos,Palacios de Riopisuerga,42.34395,-4.25686,63.299206
Palazuelos de la Sierra,Burgos,Palazuelos de la Sierra,42.21162,-3.46014,29.94937
Palazuelos de Muñó,Burgos,Palazuelos de Muñó,42.19692,-3.98984,37.283591
Pampliega,Burgos,Pampliega,42.20582,-3.98666,36.787218
Pancorbo,Burgos,Pancorbo,42.629676,-3.111785,65.921913
Pardilla,Burgos,Pardilla,41.55183,-3.71089,100.21511500000001
Partido de la Sierra en Tobalina,Burgos,Partido de la Sierra en Tobalina,42.72464,-3.23942,79.224326
Pedrosa de Duero,Burgos,Pedrosa de Duero,41.71289,-3.98804,90.862539
Pedrosa de Río Úrbel,Burgos,Pedrosa de Río Úrbel,42.416015,-3.841172,29.087719
Pedrosa del Páramo,Burgos,Pedrosa del Páramo,42.44208,-3.9719,38.606307
Pedrosa del Príncipe,Burgos,Pedrosa del Príncipe,42.24918,-4.19849,56.231556
Peñaranda de Duero,Burgos,Peñaranda de Duero,41.68849,-3.47863,99.42515399999999
Peral de Arlanza,Burgos,Peral de Arlanza,42.064475,-4.067068,62.72265
Piérnigas,Burgos,Piérnigas,42.5903,-3.41337,58.449787
Pineda de la Sierra,Burgos,Pineda de la Sierra,42.2156,-3.2969,48.523438999999996
Pineda Trasmonte,Burgos,Pineda Trasmonte,41.9092,-3.69566,62.306419
Pinilla de los Barruecos,Burgos,Pinilla de los Barruecos,41.91791,-3.30371,68.423534
Pinilla de los Moros,Burgos,Pinilla de los Moros,42.06815,-3.32706,55.36473
Pinilla Trasmonte,Burgos,Pinilla Trasmonte,41.87324,-3.61971,75.020522
Poza de la Sal,Burgos,Poza de la Sal,42.66542,-3.5014,51.166230000000006
Prádanos de Bureba,Burgos,Prádanos de Bureba,42.50264,-3.34752,51.276855000000005
Pradoluengo,Burgos,Pradoluengo,42.323726,-3.200385,55.794940000000004
Presencio,Burgos,Presencio,42.18656,-3.90135,39.049228
Puebla de Arganzón (La),Burgos,La Puebla de Arganzón,42.76622,-2.83059,98.315468
Puentedura,Burgos,Puentedura,42.04134,-3.58227,53.374446000000006
Quemada,Burgos,Quemada,41.70073,-3.57476,91.139898
Quintana del Pidio,Burgos,Quintana del Pidio,41.75886,-3.75121,74.14142
Quintanabureba,Burgos,Quintanabureba,42.58665,-3.36684,54.345069
Quintanaélez,Burgos,Quintanaélez,42.66921,-3.29877,66.735856
Quintanaortuño,Burgos,Quintanaortuño,42.45,-3.68333,16.435667000000002
Quintanapalla,Burgos,Quintanapalla,42.40914,-3.53296,17.913459
Quintanar de la Sierra,Burgos,Quintanar de la Sierra,41.986702,-3.031937,83.661276
Quintanavides,Burgos,Quintanavides,42.48084,-3.42449,31.168979
Quintanilla de la Mata,Burgos,Quintanilla de la Mata,41.98855,-3.76756,45.223994
Quintanilla del Agua y Tordueles,Burgos,Quintanilla del Agua y Tordueles,42.051315,-3.645675,49.13414100000001
Quintanilla del Coco,Burgos,Quintanilla del Coco,41.98333,-3.51667,64.387968
Quintanilla San García,Burgos,Quintanilla San García,42.5485,-3.19321,56.793176
Quintanilla Vivar,Burgos,Quintanilla Vivar,42.41585,-3.68849,9.244454
Quintanillas (La)s,Burgos,La Quintanillass,25.06817,-98.86556,8577.533615413182
Rabanera del Pinar,Burgos,Rabanera del Pinar,41.89375,-3.19665,77.49085099999999
Rábanos,Burgos,Rábanos,42.31971,-3.27029,42.534157
Rabé de las Calzadas,Burgos,Rabé de las Calzadas,42.34065,-3.83414,20.930234
Rebolledo de la Torre,Burgos,Rebolledo de la Torre,42.68931,-4.22693,111.5528
Redecilla del Camino,Burgos,Redecilla del Camino,42.43804,-3.06547,56.661868000000005
Redecilla del Campo,Burgos,Redecilla del Campo,42.46675,-3.11531,59.464965
Regumiel de la Sierra,Burgos,Regumiel de la Sierra,41.955008,-2.989327,88.794958
Reinoso,Burgos,Reinoso,42.50915,-3.38466,35.692935
Retuerta,Burgos,Retuerta,42.03316,-3.49918,47.163766
Revilla del Campo,Burgos,Revilla del Campo,42.21081,-3.54289,25.74966
Revilla Vallejera,Burgos,Revilla Vallejera,42.14674,-4.13379,50.227673
Revilla y Ahedo (La),Burgos,La Revilla y Ahedo,41.99754,-3.35232,59.48748199999999
Revillarruz,Burgos,Revillarruz,42.23006,-3.65246,17.275303
Rezmondo,Burgos,Rezmondo,42.51565,-4.23877,73.424918
Riocavado de la Sierra,Burgos,Riocavado de la Sierra,42.15209,-3.19759,77.214591
Roa,Burgos,Roa,41.696705,-3.929606,85.948391
Rojas,Burgos,Rojas,42.57781,-3.44195,61.216712
Royuela de Río Franco,Burgos,Royuela de Río Franco,42.00217,-3.95547,58.28519
Rubena,Burgos,Rubena,42.38746,-3.57485,13.754892
Rublacedo de Abajo,Burgos,Rublacedo de Abajo,42.55332,-3.50236,40.938282
Rucandio,Burgos,Rucandio,42.7511,-3.54166,60.652519999999996
Salas de Bureba,Burgos,Salas de Bureba,42.6919,-3.47359,55.786868999999996
Salas de los Infantes,Burgos,Salas de los Infantes,42.018566,-3.280383,58.638765
Saldaña de Burgos,Burgos,Saldaña de Burgos,42.25838,-3.69707,12.268398
Salinillas de Bureba,Burgos,Salinillas de Bureba,42.55243,-3.38753,54.681032
San Adrián de Juarros,Burgos,San Adrián de Juarros,42.27427,-3.47551,22.878155
San Juan del Monte,Burgos,San Juan del Monte,41.68313,-3.52337,96.608098
San Mamés de Burgos,Burgos,San Mamés de Burgos,42.33685,-3.79397,9.572197000000001
San Martín de Rubiales,Burgos,San Martín de Rubiales,41.64191,-3.99134,95.39991400000001
San Millán de Lara,Burgos,San Millán de Lara,42.13621,-3.34515,54.185334000000005
San Vicente del Valle,Burgos,San Vicente del Valle,42.33756,-3.1621,55.971353
Santa Cecilia,Burgos,Santa Cecilia,42.05225,-3.80345,43.318125
Santa Cruz de la Salceda,Burgos,Santa Cruz de la Salceda,41.59591,-3.59317,104.33828
Santa Cruz del Valle Urbión,Burgos,Santa Cruz del Valle Urbión,42.30558,-3.2214,44.548604
Santa Gadea del Cid,Burgos,Santa Gadea del Cid,42.71531,-3.05885,77.47921799999999
Santa Inés,Burgos,Santa Inés,42.04013,-3.70322,40.678468
Santa María del Campo,Burgos,Santa María del Campo,42.132034,-3.972097,45.056783
Santa María del Invierno,Burgos,Santa María del Invierno,42.44288,-3.43782,30.331092
Santa María del Mercadillo,Burgos,Santa María del Mercadillo,41.869547,-3.558141,82.365453
Santa María Rivarredonda,Burgos,Santa María Rivarredonda,42.64048,-3.18046,63.050063
Santa Olalla de Bureba,Burgos,Santa Olalla de Bureba,42.47721,-3.44109,28.933792
Santibáñez de Esgueva,Burgos,Santibáñez de Esgueva,41.83143,-3.75316,65.385981
Santibáñez del Val,Burgos,Santibáñez del Val,41.97354,-3.48142,54.397826
Santo Domingo de Silos,Burgos,Santo Domingo de Silos,41.964,-3.4174,73.19458999999999
Sargentes de la Lora,Burgos,Sargentes de la Lora,42.76917,-3.87278,61.89119
Sarracín,Burgos,Sarracín,42.25813,-3.68608,13.15609
Sasamón,Burgos,Sasamón,42.41687,-4.04288,40.503084
Sequera de Haza (La),Burgos,La Sequera de Haza,41.56398,-3.81715,106.823452
Solarana,Burgos,Solarana,41.97936,-3.66828,50.414749
Sordillos,Burgos,Sordillos,42.46197,-4.10726,50.414773000000004
Sotillo de la Ribera,Burgos,Sotillo de la Ribera,41.77717,-3.82525,72.03357000000001
Sotragero,Burgos,Sotragero,42.40996,-3.71312,9.398301
Sotresgudo,Burgos,Sotresgudo,42.57935,-4.17725,62.737832000000004
Susinos del Páramo,Burgos,Susinos del Páramo,42.47108,-3.92555,41.508360999999994
Tamarón,Burgos,Tamarón,42.27386,-3.99154,36.623692000000005
Tardajos,Burgos,Tardajos,42.34909,-3.817,18.759209
Tejada,Burgos,Tejada,41.95249,-3.53514,63.29704
Terradillos de Esgueva,Burgos,Terradillos de Esgueva,41.81885,-3.84318,70.29971800000001
Tinieblas de la Sierra,Burgos,Tinieblas de la Sierra,42.185188,-3.363838,41.962025999999994
Tobar,Burgos,Tobar,42.349774,-3.671651,2.950868
Tordómar,Burgos,Tordómar,42.0463,-3.86514,47.857023
Torrecilla del Monte,Burgos,Torrecilla del Monte,42.0949,-3.69356,34.441818
Torregalindo,Burgos,Torregalindo,41.58299,-3.75222,99.344995
Torrelara,Burgos,Torrelara,42.16673,-3.51689,38.817326
Torrepadre,Burgos,Torrepadre,42.04388,-3.93701,58.795113
