municipio,provincia,municipio_nombre_humano,lat,lon,sitios_comercio,sitios_turismo,sitios_alojamiento,sitios_ocio,sitios_natural,sitios_servicio,sitios_actividad,sitios_entretenimiento,sitios_catering,sitios_sport,sitios_edificio,sitios_acceso_limitado,sitios_artificial,sitios_acceso,sitios_sin_acceso,sitios_patrimonio,sitios_carretera,sitios_cuota,sitios_comodidad
Agurain/Salvatierra,Álava,Agurain/Salvatierra,42.847308,-2.392287,3,0,0,0,0,0,0,0,0,1,2,0,0,0,0,0,0,0,0
Alegría-Dulantzi,Álava,Alegría-Dulantzi,42.841339,-2.51244,0,0,0,1,2,0,0,0,0,0,0,3,0,0,0,0,0,0,0
Amurrio,Álava,Amurrio,43.052099,-3.001084,3,0,0,0,0,2,0,0,1,0,0,0,0,0,0,0,0,0,0
Añana,Álava,Añana,42.80199,-2.98636,0,0,0,3,1,0,0,0,2,0,0,0,0,0,0,0,0,0,0
Aramaio,Álava,Aramaio,43.039,-2.60173,0,2,0,3,1,0,0,0,0,0,0,0,0,0,0,0,0,0,0
Armiñón,Álava,Armiñón,42.72313,-2.87172,0,0,0,0,1,0,0,0,0,0,2,0,0,0,0,0,0,0,0
Arraia-Maeztu,Álava,Arraia-Maeztu,42.74284,-2.44683,2,0,0,3,1,0,0,0,0,0,0,0,0,0,0,0,0,0,0
Arratzua-Ubarrundia,Álava,Arratzua-Ubarrundia,42.889187,-2.639355,0,0,0,0,1,0,0,0,3,0,2,0,0,0,0,0,0,0,0
Artziniega,Álava,Artziniega,43.120812,-3.127981,0,0,0,0,0,0,0,0,2,1,3,0,0,0,0,0,0,0,0
Asparrena,Álava,Asparrena,42.889667,-2.316775,2,0,0,0,0,3,0,0,1,0,0,0,0,0,0,0,0,0,0
Ayala/Aiara,Álava,Ayala/Aiara,43.069205,-3.024081,0,0,0,1,2,0,0,0,0,3,0,0,0,0,0,0,0,0,0
Baños de Ebro/Mañueta,Álava,Baños de Ebro/Mañueta,42.52997,-2.67924,0,3,0,0,1,0,0,0,0,2,0,0,0,0,0,0,0,0,0
Barrundia,Álava,Barrundia,42.91377,-2.5071,0,0,0,0,1,0,0,0,0,0,0,2,0,0,0,0,0,0,0
Berantevilla,Álava,Berantevilla,42.68254,-2.85832,0,0,0,0,1,3,0,0,2,0,0,0,0,0,0,0,0,0,0
Bernedo,Álava,Bernedo,42.62663,-2.49784,0,0,0,0,1,0,0,0,3,2,0,0,0,0,0,0,0,0,0
Campezo/Kanpezu,Álava,Campezo/Kanpezu,42.69412,-2.36442,0,0,0,0,1,0,0,0,0,0,2,0,3,0,0,0,0,0,0
Elburgo/Burgelu,Álava,Elburgo/Burgelu,42.84972,-2.54513,0,0,0,0,1,0,0,0,0,0,3,2,0,0,0,0,0,0,0
Elciego,Álava,Elciego,42.515216,-2.619526,1,0,0,0,0,3,0,0,2,0,0,0,0,0,0,0,0,0,0
Elvillar/Bilar,Álava,Elvillar/Bilar,42.56994,-2.54502,0,2,0,0,1,0,0,0,0,0,0,0,0,0,0,0,0,0,0
Erriberabeitia,Álava,Erriberabeitia,42.910532,-2.754306,0,0,0,0,1,0,0,0,0,0,0,0,0,0,0,0,0,0,0
Erriberagoitia/Ribera Alta,Álava,Erriberagoitia/Ribera Alta,42.910532,-2.754306,0,0,0,0,1,0,0,0,0,0,0,0,0,0,0,0,0,0,0
Harana/Valle de Arana,Álava,Harana/Valle de Arana,42.910532,-2.754306,0,0,0,0,1,0,0,0,0,0,0,0,0,0,0,0,0,0,0
Iruña Oka/Iruña de Oca,Álava,Iruña Oka/Iruña de Oca,42.82931,-2.81194,0,0,0,3,1,0,0,0,2,0,0,0,0,0,0,0,0,0,0
Iruraiz-Gauna,Álava,Iruraiz-Gauna,42.82001,-2.49002,0,0,0,0,1,0,0,0,0,0,2,0,0,0,0,0,0,0,0
Kripan,Álava,Kripan,42.59113,-2.51656,0,2,0,0,1,0,0,0,0,0,0,0,0,0,0,0,0,0,0
Kuartango,Álava,Kuartango,42.895743,-2.933869,0,2,0,0,1,0,0,0,0,0,0,0,0,0,0,0,0,0,0
Labastida/Bastida,Álava,Labastida/Bastida,42.588749,-2.796281,3,0,0,0,0,0,0,0,1,2,0,0,0,0,0,0,0,0,0
Lagrán,Álava,Lagrán,42.62625,-2.58385,0,0,0,2,1,0,0,0,3,0,0,0,0,0,0,0,0,0,0
Laguardia,Álava,Laguardia,42.553699,-2.584773,2,0,0,0,0,3,0,0,1,0,0,0,0,0,0,0,0,0,0
Lanciego/Lantziego,Álava,Lanciego/Lantziego,42.56248,-2.51343,0,2,0,0,1,0,0,0,0,0,0,0,0,0,0,0,0,0,0
Lantarón,Álava,Lantarón,42.728169,-3.004472,0,0,0,2,1,0,0,0,0,3,0,0,0,0,0,0,0,0,0
Lapuebla de Labarca,Álava,Lapuebla de Labarca,42.49454,-2.5734,0,0,0,3,1,0,0,0,0,2,0,0,0,0,0,0,0,0,0
Laudio/Llodio,Álava,Laudio/Llodio,43.142083,-2.959191,0,0,0,1,3,0,0,0,0,2,0,0,0,0,0,0,0,0,0
Legutio,Álava,Legutio,42.979847,-2.642626,0,0,0,2,1,3,0,0,0,0,0,0,0,0,0,0,0,0,0
Leza,Álava,Leza,42.56552,-2.63324,0,0,0,3,1,0,0,0,0,2,0,0,0,0,0,0,0,0,0
Moreda de Álava/Moreda Araba,Álava,Moreda de Álava/Moreda Araba,42.52571,-2.40828,0,0,0,2,1,0,0,0,0,0,0,0,0,0,0,0,0,0,0
Navaridas,Álava,Navaridas,42.54566,-2.6265,0,2,0,0,1,0,0,0,0,3,0,0,0,0,0,0,0,0,0
Okondo,Álava,Okondo,43.179363,-3.00113,0,0,0,0,1,0,0,0,0,0,2,0,0,0,0,0,0,0,0
Oyón-Oion,Álava,Oyón-Oion,42.505159,-2.435766,1,0,0,3,0,2,0,0,0,0,0,0,0,0,0,0,0,0,0
Peñacerrada-Urizaharra,Álava,Peñacerrada-Urizaharra,42.64356,-2.70796,0,0,0,0,1,0,0,0,2,0,0,0,0,0,0,0,0,0,0
Samaniego,Álava,Samaniego,42.56854,-2.67974,2,0,0,0,1,0,0,0,0,3,0,0,0,0,0,0,0,0,0
San Millán/Donemiliaga,Álava,San Millán/Donemiliaga,42.92552,-2.42733,0,0,3,0,1,0,0,0,0,0,0,2,0,0,0,0,0,0,0
Urkabustaiz,Álava,Urkabustaiz,42.972748,-2.920274,0,2,0,0,1,0,0,0,0,3,0,0,0,0,0,0,0,0,0
Valdegovía/Gaubea,Álava,Valdegovía/Gaubea,42.84777,-3.09883,0,2,0,0,1,0,0,0,0,0,3,0,0,0,0,0,0,0,0
Villabuena de Álava/Eskuernaga,Álava,Villabuena de Álava/Eskuernaga,42.54788,-2.66552,3,0,0,0,1,0,0,0,0,2,0,0,0,0,0,0,0,0,0
Vitoria-Gasteiz,Álava,Vitoria-Gasteiz,42.854747,-2.676179,1,0,0,0,0,3,0,0,2,0,0,0,0,0,0,0,0,0,0
Yécora/Iekora,Álava,Yécora/Iekora,42.5681,-2.47038,0,2,0,0,1,0,0,0,0,3,0,0,0,0,0,0,0,0,0
Zalduondo,Álava,Zalduondo,42.884831,-2.349995,0,0,0,0,1,0,0,0,0,0,3,2,0,0,0,0,0,0,0
Zambrana,Álava,Zambrana,42.66102,-2.87909,2,0,0,1,0,0,0,0,0,0,0,3,0,0,0,0,0,0,0
Zigoitia,Álava,Zigoitia,42.97258,-2.72226,0,0,0,0,1,0,0,0,0,0,0,0,0,0,0,0,0,0,0
Zuia,Álava,Zuia,42.98404,-2.830075,0,0,0,2,1,0,0,0,0,0,3,0,0,0,0,0,0,0,0
Abengibre,Albacete,Abengibre,39.209727,-1.541551,0,0,0,3,1,0,0,0,0,2,0,0,0,0,0,0,0,0,0
Alatoz,Albacete,Alatoz,39.09495,-1.36098,0,0,0,0,3,0,0,0,2,1,0,0,0,0,0,0,0,0,0
Albacete,Albacete,Albacete,38.995097,-1.86197,1,0,0,0,0,2,0,0,3,0,0,0,0,0,0,0,0,0,0
Albatana,Albacete,Albatana,38.571977,-1.522897,0,0,0,3,2,0,0,0,0,1,0,0,0,0,0,0,0,0,0
Alborea,Albacete,Alborea,39.278861,-1.394938,0,0,0,1,2,0,0,0,0,3,0,0,0,0,0,0,0,0,0
Alcadozo,Albacete,Alcadozo,38.648845,-1.979948,2,0,0,1,0,0,0,0,0,3,0,0,0,0,0,0,0,0,0
Alcalá del Júcar,Albacete,Alcalá del Júcar,39.2,-1.43333,0,0,0,2,1,0,0,0,0,3,0,0,0,0,0,0,0,0,0
Alcaraz,Albacete,Alcaraz,38.697248,-2.531032,0,0,0,3,1,0,0,0,0,2,0,0,0,0,0,0,0,0,0
Almansa,Albacete,Almansa,38.869442,-1.104684,0,0,0,1,3,0,0,0,0,2,0,0,0,0,0,0,0,0,0
Alpera,Albacete,Alpera,38.95838,-1.231399,0,0,0,1,0,3,0,0,0,2,0,0,0,0,0,0,0,0,0
Ayna,Albacete,Ayna,38.55,-2.08333,0,2,0,3,1,0,0,0,0,0,0,0,0,0,0,0,0,0,0
Balazote,Albacete,Balazote,38.885548,-2.154767,3,0,0,1,0,0,0,0,0,2,0,0,0,0,0,0,0,0,0
Ballestero (El),Albacete,El Ballestero,38.84179,-2.45608,0,0,0,1,0,0,0,0,3,2,0,0,0,0,0,0,0,0,0
Balsa de Ves,Albacete,Balsa de Ves,39.26667,-1.2,0,0,0,2,1,0,0,0,0,3,0,0,0,0,0,0,0,0,0
Barrax,Albacete,Barrax,39.045505,-2.2014,0,0,0,1,0,0,0,0,0,2,3,0,0,0,0,0,0,0,0
Bienservida,Albacete,Bienservida,38.51716,-2.61087,0,0,3,0,1,0,0,0,0,2,0,0,0,0,0,0,0,0,0
Bogarra,Albacete,Bogarra,38.58139,-2.2129,0,3,0,1,2,0,0,0,0,0,0,0,0,0,0,0,0,0,0
Bonete,Albacete,Bonete,38.871511,-1.348672,0,0,0,1,3,0,0,0,0,2,0,0,0,0,0,0,0,0,0
Bonillo (El),Albacete,El Bonillo,38.950366,-2.539122,0,0,0,2,0,0,0,3,0,1,0,0,0,0,0,0,0,0,0
Carcelén,Albacete,Carcelén,39.10202,-1.30879,0,0,0,2,1,0,0,0,0,3,0,0,0,0,0,0,0,0,0
Casas de Juan Núñez,Albacete,Casas de Juan Núñez,39.101931,-1.558941,0,0,0,2,0,0,0,0,0,1,3,0,0,0,0,0,0,0,0
Casas de Lázaro,Albacete,Casas de Lázaro,38.77056,-2.24044,0,0,0,3,1,0,0,0,0,2,0,0,0,0,0,0,0,0,0
Casas de Ves,Albacete,Casas de Ves,39.25847,-1.333317,0,0,0,1,2,0,0,0,0,0,3,0,0,0,0,0,0,0,0
Casas-Ibáñez,Albacete,Casas-Ibáñez,39.286062,-1.472436,0,0,0,1,0,3,0,0,0,2,0,0,0,0,0,0,0,0,0
Caudete,Albacete,Caudete,38.704119,-0.982596,0,0,0,1,0,0,0,0,3,2,0,0,0,0,0,0,0,0,0
Cenizate,Albacete,Cenizate,39.302534,-1.662663,0,0,0,1,3,0,0,0,0,2,0,0,0,0,0,0,0,0,0
Chinchilla de Monte-Aragón,Albacete,Chinchilla de Monte-Aragón,38.920442,-1.724524,0,1,0,2,0,0,0,0,3,0,0,0,0,0,0,0,0,0,0
Corral-Rubio,Albacete,Corral-Rubio,38.83462,-1.46034,0,0,0,1,3,0,0,0,0,2,0,0,0,0,0,0,0,0,0
Cotillas,Albacete,Cotillas,38.43115,-2.5055,0,0,0,3,1,0,0,0,0,2,0,0,0,0,0,0,0,0,0
Elche de la Sierra,Albacete,Elche de la Sierra,38.450066,-2.048251,1,0,0,0,0,3,0,0,2,0,0,0,0,0,0,0,0,0,0
Férez,Albacete,Férez,38.35,-2.0,0,0,0,1,3,0,0,0,0,2,0,0,0,0,0,0,0,0,0
Fuensanta,Albacete,Fuensanta,39.23333,-2.06667,0,1,0,3,0,0,0,0,0,2,0,0,0,0,0,0,0,0,0
Fuente-Álamo,Albacete,Fuente-Álamo,38.692302,-1.431733,0,0,0,2,0,0,0,0,3,1,0,0,0,0,0,0,0,0,0
Fuentealbilla,Albacete,Fuentealbilla,39.268081,-1.550586,2,0,0,1,0,3,0,0,0,0,0,0,0,0,0,0,0,0,0
Gineta (La),Albacete,La Gineta,39.113108,-1.995466,0,0,0,2,0,3,0,0,0,1,0,0,0,0,0,0,0,0,0
Golosalvo,Albacete,Golosalvo,39.23333,-1.63333,0,0,0,0,1,3,0,0,0,2,0,0,0,0,0,0,0,0,0
Hellín,Albacete,Hellín,38.511341,-1.700442,3,2,0,1,0,0,0,0,0,0,0,0,0,0,0,0,0,0,0
Herrera (La),Albacete,La Herrera,38.61931,-1.78428,0,0,0,0,1,0,0,0,0,0,0,0,0,0,0,0,0,0,0
Higueruela,Albacete,Higueruela,38.962437,-1.442711,0,0,0,0,0,0,0,0,3,1,2,0,0,0,0,0,0,0,0
Hoya-Gonzalo,Albacete,Hoya-Gonzalo,38.9579,-1.55679,0,0,0,2,0,0,0,0,3,1,0,0,0,0,0,0,0,0,0
Jorquera,Albacete,Jorquera,39.16667,-1.51667,0,2,0,0,1,0,0,0,0,3,0,0,0,0,0,0,0,0,0
Letur,Albacete,Letur,38.36626,-2.10206,0,2,0,3,0,0,0,0,0,1,0,0,0,0,0,0,0,0,0
Lezuza,Albacete,Lezuza,38.949114,-2.355022,1,0,0,0,0,2,0,0,3,0,0,0,0,0,0,0,0,0,0
Liétor,Albacete,Liétor,38.542124,-1.954139,0,0,0,2,0,0,0,0,1,3,0,0,0,0,0,0,0,0,0
Madrigueras,Albacete,Madrigueras,39.236245,-1.801448,2,0,0,1,0,3,0,0,0,0,0,0,0,0,0,0,0,0,0
Mahora,Albacete,Mahora,39.212436,-1.725506,0,0,3,1,0,0,0,0,2,0,0,0,0,0,0,0,0,0,0
Masegoso,Albacete,Masegoso,38.716894,-2.319049,0,0,0,2,1,0,0,0,0,3,0,0,0,0,0,0,0,0,0
Minaya,Albacete,Minaya,39.269856,-2.321385,0,0,0,2,0,0,0,0,0,1,3,0,0,0,0,0,0,0,0
Molinicos,Albacete,Molinicos,38.46717,-2.23939,0,0,0,1,0,2,0,0,0,3,0,0,0,0,0,0,0,0,0
Montalvos,Albacete,Montalvos,39.16667,-2.01667,0,2,0,0,1,0,0,0,0,0,0,0,0,0,0,0,0,0,0
Montealegre del Castillo,Albacete,Montealegre del Castillo,38.788701,-1.326689,0,0,0,3,0,0,0,0,2,1,0,0,0,0,0,0,0,0,0
Motilleja,Albacete,Motilleja,39.179532,-1.791175,0,0,0,2,1,0,0,0,0,3,0,0,0,0,0,0,0,0,0
Munera,Albacete,Munera,39.040675,-2.481521,0,0,0,1,0,3,0,0,0,2,0,0,0,0,0,0,0,0,0
Navas de Jorquera,Albacete,Navas de Jorquera,39.28333,-1.71667,0,0,0,2,0,3,0,0,0,1,0,0,0,0,0,0,0,0,0
Nerpio,Albacete,Nerpio,38.1475,-2.30202,0,0,0,0,2,3,0,0,0,1,0,0,0,0,0,0,0,0,0
Ontur,Albacete,Ontur,38.614717,-1.496775,0,0,0,2,3,0,0,0,0,1,0,0,0,0,0,0,0,0,0
Ossa de Montiel,Albacete,Ossa de Montiel,38.964586,-2.745895,2,0,0,1,0,0,0,0,0,3,0,0,0,0,0,0,0,0,0
Paterna del Madera,Albacete,Paterna del Madera,38.59751,-2.34421,0,0,0,1,2,0,0,0,0,3,0,0,0,0,0,0,0,0,0
Peñas de San Pedro,Albacete,Peñas de San Pedro,38.725749,-2.000757,3,0,0,2,0,0,0,0,0,1,0,0,0,0,0,0,0,0,0
Peñascosa,Albacete,Peñascosa,38.67215,-2.40991,0,0,0,3,2,0,0,0,0,1,0,0,0,0,0,0,0,0,0
Pétrola,Albacete,Pétrola,38.82628,-1.55662,0,0,0,1,3,0,0,0,2,0,0,0,0,0,0,0,0,0,0
Povedilla,Albacete,Povedilla,38.70022,-2.60212,0,0,3,0,1,0,0,0,0,2,0,0,0,0,0,0,0,0,0
Pozo Cañada,Albacete,Pozo Cañada,38.800099,-1.731457,0,0,0,1,0,0,0,0,3,0,0,2,0,0,0,0,0,0,0
Pozohondo,Albacete,Pozohondo,38.719396,-1.910827,0,0,0,2,3,0,0,0,0,1,0,0,0,0,0,0,0,0,0
Pozo-Lorente,Albacete,Pozo-Lorente,39.076172,-1.506999,0,0,0,2,3,0,0,0,0,1,0,0,0,0,0,0,0,0,0
Pozuelo,Albacete,Pozuelo,38.80989,-2.10101,0,0,0,3,0,2,0,0,0,1,0,0,0,0,0,0,0,0,0
Recueja (La),Albacete,La Recueja,39.18333,-1.48333,0,0,0,2,1,0,0,0,0,0,0,0,0,0,0,0,0,0,0
Riópar,Albacete,Riópar,38.498214,-2.417356,0,0,0,3,0,0,0,0,2,1,0,0,0,0,0,0,0,0,0
Robledo,Albacete,Robledo,38.772166,-2.429938,0,0,3,0,1,0,0,0,0,2,0,0,0,0,0,0,0,0,0
Roda (La),Albacete,La Roda,39.205464,-2.159211,2,0,0,0,0,1,0,0,3,0,0,0,0,0,0,0,0,0,0
Salobre,Albacete,Salobre,38.59297,-2.55038,0,0,0,1,3,0,0,0,0,2,0,0,0,0,0,0,0,0,0
San Pedro,Albacete,San Pedro,38.826557,-2.186231,0,0,0,1,3,0,0,0,0,2,0,0,0,0,0,0,0,0,0
Socovos,Albacete,Socovos,38.333014,-1.985622,0,0,0,2,1,0,0,0,0,3,0,0,0,0,0,0,0,0,0
Tarazona de la Mancha,Albacete,Tarazona de la Mancha,39.263047,-1.913329,0,0,0,1,0,0,0,0,2,3,0,0,0,0,0,0,0,0,0
Tobarra,Albacete,Tobarra,38.592141,-1.690738,1,3,0,2,0,0,0,0,0,0,0,0,0,0,0,0,0,0,0
Valdeganga,Albacete,Valdeganga,39.134507,-1.677173,0,0,0,1,0,0,0,0,3,2,0,0,0,0,0,0,0,0,0
Vianos,Albacete,Vianos,38.63316,-2.50045,0,0,0,2,1,0,0,0,0,3,0,0,0,0,0,0,0,0,0
Villa de Ves,Albacete,Villa de Ves,39.2,-1.23333,0,2,0,3,1,0,0,0,0,0,0,0,0,0,0,0,0,0,0
Villalgordo del Júcar,Albacete,Villalgordo del Júcar,39.296005,-2.062247,0,0,0,0,3,0,0,0,0,1,2,0,0,0,0,0,0,0,0
Villamalea,Albacete,Villamalea,39.361525,-1.59769,3,0,0,1,0,0,0,2,0,0,0,0,0,0,0,0,0,0,0
Villapalacios,Albacete,Villapalacios,38.578937,-2.632598,0,0,0,2,1,0,0,0,0,3,0,0,0,0,0,0,0,0,0
Villarrobledo,Albacete,Villarrobledo,39.267868,-2.601427,3,0,0,1,0,0,0,0,0,2,0,0,0,0,0,0,0,0,0
Villatoya,Albacete,Villatoya,39.319141,-1.331182,0,0,0,3,2,0,0,0,0,1,0,0,0,0,0,0,0,0,0
Villavaliente,Albacete,Villavaliente,39.12646,-1.45712,0,0,0,1,3,0,0,0,0,2,0,0,0,0,0,0,0,0,0
Villaverde de Guadalimar,Albacete,Villaverde de Guadalimar,38.45525,-2.51782,0,0,0,1,2,0,0,0,3,0,0,0,0,0,0,0,0,0,0
Viveros,Albacete,Viveros,38.771487,-2.57414,0,0,0,3,2,0,0,0,0,1,0,0,0,0,0,0,0,0,0
Yeste,Albacete,Yeste,38.367359,-2.319032,0,2,3,1,0,0,0,0,0,0,0,0,0,0,0,0,0,0,0
Agost,Alicante,Agost,38.435937,-0.638589,3,0,0,2,0,0,0,0,0,1,0,0,0,0,0,0,0,0,0
Agres,Alicante,Agres,38.78333,-0.51667,0,0,0,2,0,0,0,0,3,1,0,0,0,0,0,0,0,0,0
Aigües,Alicante,Aigües,38.501351,-0.364025,0,0,0,0,1,0,0,0,3,2,0,0,0,0,0,0,0,0,0
Albatera,Alicante,Albatera,38.180289,-0.872395,3,0,0,2,0,0,0,0,0,1,0,0,0,0,0,0,0,0,0
Alcalalí,Alicante,Alcalalí,38.754724,-0.043421,0,0,0,0,2,0,0,0,0,0,0,1,0,0,0,0,0,0,0
Alcocer de Planes,Alicante,Alcocer de Planes,38.79501,-0.40244,0,0,0,0,2,0,3,0,0,1,0,0,0,0,0,0,0,0,0
Alcoleja,Alicante,Alcoleja,38.66992,-0.32382,0,0,0,0,1,0,0,0,0,2,3,0,0,0,0,0,0,0,0
Alcoy/Alcoi,Alicante,Alcoy/Alcoi,38.701616,-0.476523,2,0,0,0,0,1,0,0,0,3,0,0,0,0,0,0,0,0,0
Alfafara,Alicante,Alfafara,38.77339,-0.55551,0,0,0,3,2,0,0,0,0,1,0,0,0,0,0,0,0,0,0
Alfàs del Pi (L'),Alicante,L' Alfàs del Pi,38.566318,-0.104676,3,0,0,0,0,0,0,0,0,1,2,0,0,0,0,0,0,0,0
Algorfa,Alicante,Algorfa,38.084582,-0.796363,3,0,0,0,0,0,0,0,2,1,0,0,0,0,0,0,0,0,0
Algueña,Alicante,Algueña,38.339218,-1.002629,0,0,0,1,0,2,0,0,0,0,3,0,0,0,0,0,0,0,0
Alicante/Alacant,Alicante,Alicante/Alacant,38.360892,-0.486281,1,0,0,0,0,0,0,0,2,3,0,0,0,0,0,0,0,0,0
Almoradí,Alicante,Almoradí,38.110237,-0.792414,2,0,0,0,0,3,0,0,1,0,0,0,0,0,0,0,0,0,0
Almudaina,Alicante,Almudaina,38.75999,-0.35149,0,0,0,0,2,0,0,0,0,1,3,0,0,0,0,0,0,0,0
Alqueria d'Asnar (L'),Alicante,L' Alqueria d'Asnar,38.360892,-0.486281,1,0,0,0,0,0,0,0,2,3,0,0,0,0,0,0,0,0,0
Altea,Alicante,Altea,38.596675,-0.055608,0,0,3,2,0,0,0,0,0,1,0,0,0,0,0,0,0,0,0
Aspe,Alicante,Aspe,38.343766,-0.766951,2,0,0,1,0,0,0,0,3,0,0,0,0,0,0,0,0,0,0
Atzúbia (L'),Alicante,L' Atzúbia,38.338892,-0.509477,0,0,0,1,0,0,0,0,0,2,0,3,0,0,0,0,0,0,0
Balones,Alicante,Balones,38.73726,-0.34324,0,0,0,0,0,0,0,0,0,2,0,1,0,3,0,0,0,0,0
Banyeres de Mariola,Alicante,Banyeres de Mariola,38.715255,-0.660488,0,0,0,2,0,3,1,0,0,0,0,0,0,0,0,0,0,0,0
Benasau,Alicante,Benasau,38.69047,-0.34278,0,0,0,2,1,0,0,0,0,3,0,0,0,0,0,0,0,0,0
Beneixama,Alicante,Beneixama,38.701806,-0.765858,0,0,0,1,2,0,0,0,0,3,0,0,0,0,0,0,0,0,0
Benejúzar,Alicante,Benejúzar,38.076894,-0.838707,1,0,0,0,0,3,0,0,2,0,0,0,0,0,0,0,0,0,0
Benferri,Alicante,Benferri,38.144565,-0.963573,0,0,0,2,1,0,3,0,0,0,0,0,0,0,0,0,0,0,0
Beniarbeig,Alicante,Beniarbeig,38.822288,-0.006177,0,0,0,0,0,0,0,0,0,0,0,1,0,3,2,0,0,0,0
Beniardá,Alicante,Beniardá,38.68433,-0.21629,0,0,0,0,1,0,0,0,3,2,0,0,0,0,0,0,0,0,0
Beniarrés,Alicante,Beniarrés,38.820507,-0.378199,0,0,0,0,3,0,0,0,0,1,0,2,0,0,0,0,0,0,0
Benidoleig,Alicante,Benidoleig,38.7919,-0.03162,0,0,0,0,0,0,0,0,2,1,3,0,0,0,0,0,0,0,0
Benidorm,Alicante,Benidorm,38.542305,-0.127103,0,0,0,0,0,0,0,0,2,1,3,0,0,0,0,0,0,0,0
Benifallim,Alicante,Benifallim,38.66259,-0.39994,0,0,0,0,2,0,0,0,0,1,0,3,0,0,0,0,0,0,0
Benifato,Alicante,Benifato,38.67395,-0.2292,0,0,0,0,1,0,0,0,3,2,0,0,0,0,0,0,0,0,0
Benigembla,Alicante,Benigembla,38.75494,-0.10903,2,0,0,0,0,0,0,0,0,1,3,0,0,0,0,0,0,0,0
Benijófar,Alicante,Benijófar,38.062653,-0.745904,0,0,0,1,2,0,0,0,0,0,0,3,0,0,0,0,0,0,0
Benilloba,Alicante,Benilloba,38.70012,-0.38998,0,0,0,0,0,0,0,0,0,1,0,3,0,2,0,0,0,0,0
Benillup,Alicante,Benillup,38.75398,-0.37991,0,0,0,0,2,0,0,0,0,1,0,3,0,0,0,0,0,0,0
Benimantell,Alicante,Benimantell,38.67709,-0.21057,0,0,0,0,0,0,0,0,3,2,0,1,0,0,0,0,0,0,0
Benimarfull,Alicante,Benimarfull,38.7759,-0.39079,0,0,0,3,2,0,0,0,0,1,0,0,0,0,0,0,0,0,0
Benimassot,Alicante,Benimassot,38.75,-0.28333,0,0,0,1,0,0,0,0,0,2,0,0,0,3,0,0,0,0,0
Benimeli,Alicante,Benimeli,38.82362,-0.04221,0,0,0,3,0,0,0,0,0,2,0,1,0,0,0,0,0,0,0
Benissa,Alicante,Benissa,38.715345,0.051209,2,0,0,3,0,0,0,0,1,0,0,0,0,0,0,0,0,0,0
Benitachell/Poble Nou de Benitatxell (el),Alicante,El Benitachell/Poble Nou de Benitatxell,38.724094,0.150938,0,0,0,0,2,0,0,0,0,1,3,0,0,0,0,0,0,0,0
Biar,Alicante,Biar,38.62662,-0.7623,0,0,0,2,3,0,0,0,0,1,0,0,0,0,0,0,0,0,0
Bigastro,Alicante,Bigastro,38.06162,-0.894344,1,0,0,0,0,2,0,0,3,0,0,0,0,0,0,0,0,0,0
Bolulla,Alicante,Bolulla,38.67529,-0.11184,0,0,0,0,2,0,0,0,0,3,0,1,0,0,0,0,0,0,0
Busot,Alicante,Busot,38.464904,-0.432603,0,0,0,2,0,0,0,0,3,1,0,0,0,0,0,0,0,0,0
Callosa de Segura,Alicante,Callosa de Segura,38.126098,-0.875694,1,0,0,2,0,0,0,0,3,0,0,0,0,0,0,0,0,0,0
Callosa d'en Sarrià,Alicante,Callosa d'en Sarrià,38.64888,-0.123885,2,0,0,1,0,0,0,0,3,0,0,0,0,0,0,0,0,0,0
Calp,Alicante,Calp,38.658408,0.05646,0,0,0,2,0,0,0,0,0,3,0,1,0,0,0,0,0,0,0
Campello (el),Alicante,El Campello,38.428712,-0.400416,0,0,0,1,0,3,0,0,0,0,2,0,0,0,0,0,0,0,0
Campo de Mirra/Camp de Mirra (el),Alicante,El Campo de Mirra/Camp de Mirra,38.70001,-0.79462,0,0,0,1,2,0,0,0,0,3,0,0,0,0,0,0,0,0,0
Cañada,Alicante,Cañada,38.39711,-0.5831,0,0,0,1,0,2,0,0,0,3,0,0,0,0,0,0,0,0,0
Castalla,Alicante,Castalla,38.599887,-0.667946,3,0,0,0,0,2,0,0,0,1,0,0,0,0,0,0,0,0,0
Castell de Castells,Alicante,Castell de Castells,38.735695,-0.187075,0,0,0,0,1,0,0,0,2,0,0,3,0,0,0,0,0,0,0
Castell de Guadalest (el),Alicante,El Castell de Guadalest,38.6768,-0.19908,0,2,0,0,0,0,0,0,3,0,1,0,0,0,0,0,0,0,0
Catral,Alicante,Catral,38.16056,-0.802149,3,0,0,0,0,2,0,0,1,0,0,0,0,0,0,0,0,0,0
Cocentaina,Alicante,Cocentaina,38.754923,-0.441782,0,0,0,0,2,0,0,0,0,1,0,0,0,0,0,0,0,0,0
Confrides,Alicante,Confrides,38.68451,-0.2689,0,0,0,3,1,0,0,0,0,2,0,0,0,0,0,0,0,0,0
Cox,Alicante,Cox,38.141697,-0.887969,0,0,0,1,0,0,0,0,0,3,2,0,0,0,0,0,0,0,0
Crevillent,Alicante,Crevillent,38.247745,-0.814187,3,0,0,1,2,0,0,0,0,0,0,0,0,0,0,0,0,0,0
Daya Nueva,Alicante,Daya Nueva,38.113322,-0.761471,0,0,0,1,0,3,0,0,0,2,0,0,0,0,0,0,0,0,0
Daya Vieja,Alicante,Daya Vieja,38.1048,-0.73804,0,0,0,1,2,0,0,0,3,0,0,0,0,0,0,0,0,0,0
Dénia,Alicante,Dénia,38.840863,0.103315,2,3,0,0,0,0,0,0,1,0,0,0,0,0,0,0,0,0,0
Dolores,Alicante,Dolores,38.139232,-0.769951,2,0,0,3,0,0,0,0,1,0,0,0,0,0,0,0,0,0,0
Elche/Elx,Alicante,Elche/Elx,38.262084,-0.700594,2,0,0,1,0,0,0,0,3,0,0,0,0,0,0,0,0,0,0
Elda,Alicante,Elda,38.47616,-0.795528,0,2,0,1,0,3,0,0,0,0,0,0,0,0,0,0,0,0,0
Facheca,Alicante,Facheca,38.735,-0.26766,0,0,0,2,1,0,0,0,0,3,0,0,0,0,0,0,0,0,0
Famorca,Alicante,Famorca,38.73101,-0.24726,0,0,0,2,1,0,0,0,0,3,0,0,0,0,0,0,0,0,0
Finestrat,Alicante,Finestrat,38.5671,-0.212203,1,0,0,0,0,3,0,0,2,0,0,0,0,0,0,0,0,0,0
Fondó de les Neus (el)/Hondón de las Nieves,Alicante,El Fondó de les Neus/Hondón de las Nieves,38.308625,-0.851245,0,0,0,3,2,0,0,0,0,1,0,0,0,0,0,0,0,0,0
Formentera del Segura,Alicante,Formentera del Segura,38.084955,-0.745611,1,0,0,3,0,0,0,0,2,0,0,0,0,0,0,0,0,0,0
Gaianes,Alicante,Gaianes,38.8164,-0.40881,0,0,0,0,2,0,0,0,0,1,3,0,0,0,0,0,0,0,0
Gata de Gorgos,Alicante,Gata de Gorgos,38.774048,0.083486,1,3,0,0,0,0,0,0,2,0,0,0,0,0,0,0,0,0,0
Gorga,Alicante,Gorga,38.71896,-0.35589,0,0,0,0,0,0,0,0,0,2,0,1,0,3,0,0,0,0,0
Granja de Rocamora,Alicante,Granja de Rocamora,38.15353,-0.892395,2,0,0,1,0,3,0,0,0,0,0,0,0,0,0,0,0,0,0
Guardamar del Segura,Alicante,Guardamar del Segura,38.090032,-0.658152,2,3,0,0,0,0,0,0,0,0,1,0,0,0,0,0,0,0,0
Hondón de los Frailes,Alicante,Hondón de los Frailes,38.273571,-0.926858,2,0,0,0,0,0,0,0,1,0,3,0,0,0,0,0,0,0,0
Ibi,Alicante,Ibi,38.618356,-0.580273,0,0,0,1,0,0,0,0,3,0,2,0,0,0,0,0,0,0,0
Jacarilla,Alicante,Jacarilla,38.060975,-0.867996,0,0,0,1,0,3,0,0,2,0,0,0,0,0,0,0,0,0,0
Jávea/Xàbia,Alicante,Jávea/Xàbia,38.785694,0.150464,0,3,0,0,0,0,0,0,0,1,2,0,0,0,0,0,0,0,0
Jijona/Xixona,Alicante,Jijona/Xixona,38.532651,-0.506731,0,0,0,0,2,0,0,0,0,1,3,0,0,0,0,0,0,0,0
Llíber,Alicante,Llíber,38.74272,-0.006,0,3,0,0,0,0,0,0,0,1,2,0,0,0,0,0,0,0,0
Lorcha/Orxa (L'),Alicante,L' Lorcha/Orxa,38.360892,-0.486281,1,0,0,0,0,0,0,0,2,3,0,0,0,0,0,0,0,0,0
Millena,Alicante,Millena,38.73082,-0.36274,0,0,0,3,0,0,0,0,0,2,0,1,0,0,0,0,0,0,0
Monforte del Cid,Alicante,Monforte del Cid,38.379799,-0.722666,2,0,0,3,0,0,0,0,0,1,0,0,0,0,0,0,0,0,0
Monóvar/Monòver,Alicante,Monóvar/Monòver,38.436388,-0.840944,2,0,0,1,0,0,0,0,0,0,3,0,0,0,0,0,0,0,0
Montesinos (Los),Alicante,Los Montesinos,38.027433,-0.745376,2,0,0,0,0,3,0,0,1,0,0,0,0,0,0,0,0,0,0
Murla,Alicante,Murla,38.76037,-0.08208,0,0,0,0,2,0,0,0,3,1,0,0,0,0,0,0,0,0,0
Muro de Alcoy,Alicante,Muro de Alcoy,38.780312,-0.440017,0,0,0,1,0,3,0,0,0,2,0,0,0,0,0,0,0,0,0
Mutxamel,Alicante,Mutxamel,38.407895,-0.448889,3,0,0,2,0,0,0,0,0,1,0,0,0,0,0,0,0,0,0
Novelda,Alicante,Novelda,38.385706,-0.768862,1,0,0,3,0,0,0,0,2,0,0,0,0,0,0,0,0,0,0
Nucia (la),Alicante,La Nucia,38.599959,-0.132423,2,0,0,0,0,3,0,0,0,1,0,0,0,0,0,0,0,0,0
Ondara,Alicante,Ondara,38.824783,0.020541,1,0,0,0,0,0,0,0,2,3,0,0,0,0,0,0,0,0,0
Onil,Alicante,Onil,38.628054,-0.675278,0,0,0,2,1,0,0,0,3,0,0,0,0,0,0,0,0,0,0
Orba,Alicante,Orba,38.780068,-0.058304,0,0,0,0,0,0,0,0,2,1,0,0,0,0,0,0,0,0,0
Orihuela,Alicante,Orihuela,38.082111,-0.946934,1,0,0,0,0,0,0,0,2,0,3,0,0,0,0,0,0,0,0
Orxeta,Alicante,Orxeta,38.56397,-0.26299,0,0,0,0,2,0,0,0,1,3,0,0,0,0,0,0,0,0,0
Parcent,Alicante,Parcent,38.7457,-0.064354,0,0,0,0,0,0,0,0,3,0,1,2,0,0,0,0,0,0,0
Pedreguer,Alicante,Pedreguer,38.793927,0.035132,1,0,0,0,0,3,0,0,2,0,0,0,0,0,0,0,0,0,0
Pego,Alicante,Pego,38.841697,-0.115876,0,0,0,0,0,1,0,0,3,2,0,0,0,0,0,0,0,0,0
Penàguila,Alicante,Penàguila,38.68,-0.35845,0,0,0,3,2,0,0,0,0,0,0,1,0,0,0,0,0,0,0
Petrer,Alicante,Petrer,38.484322,-0.779674,2,0,0,1,0,0,0,0,3,0,0,0,0,0,0,0,0,0,0
Pilar de la Horadada,Alicante,Pilar de la Horadada,37.862662,-0.788448,3,0,0,1,0,0,0,0,2,0,0,0,0,0,0,0,0,0,0
Pinós (el)/Pinoso,Alicante,El Pinós/Pinoso,38.400231,-1.043137,2,0,0,1,0,0,0,0,0,3,0,0,0,0,0,0,0,0,0
Planes,Alicante,Planes,38.788175,-0.327363,0,0,0,3,1,0,0,0,0,2,0,0,0,0,0,0,0,0,0
Poblets (els),Alicante,Els Poblets,38.85381,0.02103,0,0,0,0,0,0,0,0,0,1,0,2,0,3,0,0,0,0,0
Polop,Alicante,Polop,38.620263,-0.133733,2,0,0,3,0,0,0,0,1,0,0,0,0,0,0,0,0,0,0
Quatretondeta,Alicante,Quatretondeta,38.72415,-0.31669,0,0,0,2,1,0,0,0,0,3,0,0,0,0,0,0,0,0,0
Rafal,Alicante,Rafal,38.103409,-0.848648,3,0,0,1,0,0,0,0,2,0,0,0,0,0,0,0,0,0,0
Ràfol d'Almúnia (el),Alicante,El Ràfol d'Almúnia,38.8212,-0.05171,0,0,0,3,0,0,0,0,0,1,0,0,0,2,0,0,0,0,0
Redován,Alicante,Redován,38.113556,-0.906116,1,0,0,0,0,2,0,0,3,0,0,0,0,0,0,0,0,0,0
Relleu,Alicante,Relleu,38.588602,-0.310327,3,0,0,0,0,0,0,0,2,1,0,0,0,0,0,0,0,0,0
Rojales,Alicante,Rojales,38.084971,-0.711904,0,0,0,0,2,0,0,0,1,3,0,0,0,0,0,0,0,0,0
Romana (la),Alicante,La Romana,38.36667,-0.9,0,0,0,2,0,0,0,0,3,1,0,0,0,0,0,0,0,0,0
Sagra,Alicante,Sagra,38.817249,-0.068787,0,0,0,0,2,0,0,0,0,1,0,3,0,0,0,0,0,0,0
Salinas,Alicante,Salinas,38.520186,-0.911996,0,0,0,2,1,0,0,0,0,3,0,0,0,0,0,0,0,0,0
San Fulgencio,Alicante,San Fulgencio,38.11362,-0.717969,2,0,0,1,0,0,0,0,3,0,0,0,0,0,0,0,0,0,0
San Isidro,Alicante,San Isidro,38.172481,-0.839029,0,0,0,2,0,0,0,0,3,1,0,0,0,0,0,0,0,0,0
San Miguel de Salinas,Alicante,San Miguel de Salinas,37.97764,-0.789116,2,0,0,0,0,3,0,0,1,0,0,0,0,0,0,0,0,0,0
San Vicente del Raspeig/Sant Vicent del Raspeig,Alicante,San Vicente del Raspeig/Sant Vicent del Raspeig,38.360892,-0.486281,1,0,0,0,0,0,0,0,2,3,0,0,0,0,0,0,0,0,0
Sanet y Negrals,Alicante,Sanet y Negrals,38.81967,-0.03406,0,0,0,0,0,0,0,0,0,1,0,2,0,3,0,0,0,0,0
Sant Joan d'Alacant,Alicante,Sant Joan d'Alacant,38.400609,-0.434204,1,0,0,0,0,0,0,0,2,3,0,0,0,0,0,0,0,0,0
Santa Pola,Alicante,Santa Pola,38.194063,-0.554262,2,0,0,1,0,0,0,0,3,0,0,0,0,0,0,0,0,0,0
Sax,Alicante,Sax,38.534929,-0.820677,1,0,0,2,0,0,0,0,3,0,0,0,0,0,0,0,0,0,0
Sella,Alicante,Sella,38.808107,0.053144,2,0,0,0,0,0,0,0,0,1,0,0,0,0,0,0,0,0,0
Senija,Alicante,Senija,38.72804,0.04176,0,0,0,0,0,0,0,0,2,1,0,3,0,0,0,0,0,0,0
Tàrbena,Alicante,Tàrbena,38.69413,-0.10141,0,0,0,0,0,0,0,0,3,1,0,2,0,0,0,0,0,0,0
Teulada,Alicante,Teulada,38.729169,0.10546,0,0,0,0,0,2,0,0,3,1,0,0,0,0,0,0,0,0,0
Tibi,Alicante,Tibi,38.53353,-0.576694,0,0,0,2,0,0,0,0,3,1,0,0,0,0,0,0,0,0,0
Tollos,Alicante,Tollos,38.75629,-0.27466,0,0,0,3,1,0,0,0,0,2,0,0,0,0,0,0,0,0,0
Tormos,Alicante,Tormos,38.80143,-0.0716,0,0,0,3,0,0,0,0,0,1,2,0,0,0,0,0,0,0,0
Torremanzanas/Torre de les Maçanes (la),Alicante,La Torremanzanas/Torre de les Maçanes,38.604168,-0.415178,2,0,0,0,1,0,0,0,0,3,0,0,0,0,0,0,0,0,0
Torrevieja,Alicante,Torrevieja,37.985608,-0.673845,0,0,0,1,0,0,0,0,0,2,0,3,0,0,0,0,0,0,0
Vall d'Alcalà (la),Alicante,La Vall d'Alcalà,38.79477,-0.25138,0,0,0,0,1,0,0,0,0,3,2,0,0,0,0,0,0,0,0
Vall de Gallinera,Alicante,Vall de Gallinera,38.82313,-0.2417,0,2,0,0,1,0,0,0,0,3,0,0,0,0,0,0,0,0,0
Vall de Laguar (la),Alicante,La Vall de Laguar,38.781025,-0.124025,0,0,0,0,2,0,0,0,3,1,0,0,0,0,0,0,0,0,0
Vall d'Ebo (la),Alicante,La Vall d'Ebo,38.80561,-0.1589,0,0,3,0,1,0,0,0,2,0,0,0,0,0,0,0,0,0,0
Verger (el),Alicante,El Verger,38.856576,0.013177,0,0,0,0,3,0,0,0,0,2,0,1,0,0,0,0,0,0,0
Villajoyosa/Vila Joiosa (la),Alicante,La Villajoyosa/Vila Joiosa,38.508793,-0.231359,3,0,0,2,0,0,0,0,1,0,0,0,0,0,0,0,0,0,0
Villena,Alicante,Villena,38.634512,-0.864459,2,0,0,1,0,0,0,0,0,3,0,0,0,0,0,0,0,0,0
Xaló,Alicante,Xaló,38.739807,-0.01167,0,0,0,0,0,3,0,0,0,2,1,0,0,0,0,0,0,0,0
Abla,Almería,Abla,37.141895,-2.778084,1,0,0,0,0,2,0,0,3,0,0,0,0,0,0,0,0,0,0
Abrucena,Almería,Abrucena,37.133457,-2.796909,0,3,0,0,1,0,0,0,0,2,0,0,0,0,0,0,0,0,0
Adra,Almería,Adra,36.748564,-3.017817,1,0,0,0,0,3,0,0,0,2,0,0,0,0,0,0,0,0,0
Albanchez,Almería,Albanchez,37.28361,-2.18229,0,0,0,3,1,0,0,0,0,2,0,0,0,0,0,0,0,0,0
Alboloduy,Almería,Alboloduy,37.03346,-2.62164,0,0,3,0,1,0,0,0,2,0,0,0,0,0,0,0,0,0,0
Albox,Almería,Albox,37.390608,-2.14149,0,3,0,1,0,0,0,0,0,2,0,0,0,0,0,0,0,0,0
Alcolea,Almería,Alcolea,36.97458,-2.9615,0,0,0,0,3,0,0,0,0,1,0,2,0,0,0,0,0,0,0
Alcóntar,Almería,Alcóntar,37.257894,-2.606439,0,2,3,0,1,0,0,0,0,0,0,0,0,0,0,0,0,0,0
Alcudia de Monteagud,Almería,Alcudia de Monteagud,37.23529,-2.2665,0,0,0,1,0,2,0,0,0,3,0,0,0,0,0,0,0,0,0
Alhabia,Almería,Alhabia,36.99003,-2.58655,3,0,0,2,0,0,0,0,0,0,1,0,0,0,0,0,0,0,0
Alhama de Almería,Almería,Alhama de Almería,36.957334,-2.568298,0,0,0,3,1,0,0,0,0,2,0,0,0,0,0,0,0,0,0
Alicún,Almería,Alicún,36.9658,-2.60212,0,0,0,0,1,0,3,0,0,2,0,0,0,0,0,0,0,0,0
Almería,Almería,Almería,36.844845,-2.456009,0,0,0,1,2,0,0,0,0,3,0,0,0,0,0,0,0,0,0
Almócita,Almería,Almócita,37.00262,-2.79051,0,0,0,2,3,0,0,0,0,1,0,0,0,0,0,0,0,0,0
Alsodux,Almería,Alsodux,37.00246,-2.59476,0,0,0,3,1,0,0,0,0,2,0,0,0,0,0,0,0,0,0
Antas,Almería,Antas,37.251074,-1.912721,0,0,0,2,1,0,0,0,0,3,0,0,0,0,0,0,0,0,0
Arboleas,Almería,Arboleas,37.351749,-2.07427,0,0,0,0,1,3,0,0,0,0,2,0,0,0,0,0,0,0,0
Armuña de Almanzora,Almería,Armuña de Almanzora,37.3503,-2.4115,0,0,0,0,2,0,0,0,3,1,0,0,0,0,0,0,0,0,0
Bacares,Almería,Bacares,37.25984,-2.45308,0,3,0,0,1,0,0,0,0,2,0,0,0,0,0,0,0,0,0
Balanegra,Almería,Balanegra,36.748857,-2.913608,0,0,0,1,0,0,0,0,2,0,3,0,0,0,0,0,0,0,0
Bayárcal,Almería,Bayárcal,37.03073,-2.99606,0,0,0,0,1,3,0,0,2,0,0,0,0,0,0,0,0,0,0
Bayarque,Almería,Bayarque,37.33062,-2.4361,0,1,0,0,3,0,0,0,0,2,0,0,0,0,0,0,0,0,0
Bédar,Almería,Bédar,37.19389,-1.98166,0,0,0,0,0,0,0,0,2,3,0,1,0,0,0,0,0,0,0
Beires,Almería,Beires,37.01237,-2.79134,0,0,0,3,2,0,0,0,0,1,0,0,0,0,0,0,0,0,0
Benahadux,Almería,Benahadux,36.927292,-2.460343,0,0,0,2,1,3,0,0,0,0,0,0,0,0,0,0,0,0,0
Benitagla,Almería,Benitagla,37.23138,-2.23935,0,0,0,3,0,2,0,0,0,1,0,0,0,0,0,0,0,0,0
Benizalón,Almería,Benizalón,37.21213,-2.2418,0,0,0,0,1,3,0,0,0,2,0,0,0,0,0,0,0,0,0
Bentarique,Almería,Bentarique,36.98823,-2.61991,0,0,0,0,1,0,0,0,0,2,3,0,0,0,0,0,0,0,0
Berja,Almería,Berja,36.844738,-2.94636,0,0,0,1,0,2,0,0,0,3,0,0,0,0,0,0,0,0,0
Canjáyar,Almería,Canjáyar,37.00985,-2.740139,0,0,0,0,1,3,0,0,0,2,0,0,0,0,0,0,0,0,0
Cantoria,Almería,Cantoria,37.351722,-2.193388,0,0,0,2,0,0,0,0,0,3,1,0,0,0,0,0,0,0,0
Carboneras,Almería,Carboneras,36.999559,-1.893074,3,0,0,0,0,1,0,0,2,0,0,0,0,0,0,0,0,0,0
Castro de Filabres,Almería,Castro de Filabres,37.18484,-2.44024,0,0,1,3,0,0,0,0,0,0,0,2,0,0,0,0,0,0,0
Chercos,Almería,Chercos,37.2545,-2.26657,0,0,0,3,1,2,0,0,0,0,0,0,0,0,0,0,0,0,0
Chirivel,Almería,Chirivel,37.596309,-2.271043,0,0,0,0,1,3,0,0,0,2,0,0,0,0,0,0,0,0,0
Cóbdar,Almería,Cóbdar,37.26166,-2.21098,0,0,0,0,2,3,0,0,0,1,0,0,0,0,0,0,0,0,0
Cuevas del Almanzora,Almería,Cuevas del Almanzora,37.295319,-1.877738,3,0,0,1,0,0,0,0,0,0,2,0,0,0,0,0,0,0,0
Dalías,Almería,Dalías,36.820318,-2.87108,1,0,0,0,0,3,0,0,2,0,0,0,0,0,0,0,0,0,0
Ejido (El),Almería,El Ejido,36.773918,-2.814736,3,0,0,1,0,2,0,0,0,0,0,0,0,0,0,0,0,0,0
Enix,Almería,Enix,36.87732,-2.6018,0,0,0,3,1,0,0,0,0,2,0,0,0,0,0,0,0,0,0
Felix,Almería,Felix,36.86911,-2.65845,0,0,0,3,1,0,0,0,0,2,0,0,0,0,0,0,0,0,0
Fines,Almería,Fines,37.363771,-2.267433,0,0,0,0,0,3,0,0,2,1,0,0,0,0,0,0,0,0,0
Fiñana,Almería,Fiñana,37.169512,-2.839102,0,0,0,0,1,2,0,0,0,3,0,0,0,0,0,0,0,0,0
Fondón,Almería,Fondón,36.9802,-2.85957,0,2,0,0,1,0,0,0,0,3,0,0,0,0,0,0,0,0,0
Gádor,Almería,Gádor,36.952951,-2.491341,0,2,0,0,1,0,0,0,0,3,0,0,0,0,0,0,0,0,0
Gallardos (Los),Almería,Los Gallardos,37.168106,-1.940568,0,0,0,2,0,0,3,0,0,1,0,0,0,0,0,0,0,0,0
Garrucha,Almería,Garrucha,37.182789,-1.820321,1,0,0,0,0,3,0,0,2,0,0,0,0,0,0,0,0,0,0
Gérgal,Almería,Gérgal,37.11886,-2.54012,0,0,0,0,1,0,0,0,0,2,3,0,0,0,0,0,0,0,0
Huécija,Almería,Huécija,36.96804,-2.6094,0,3,0,0,1,0,0,0,0,2,0,0,0,0,0,0,0,0,0
Huércal de Almería,Almería,Huércal de Almería,36.880862,-2.441678,3,0,0,1,0,0,0,0,0,2,0,0,0,0,0,0,0,0,0
Huércal-Overa,Almería,Huércal-Overa,37.395639,-1.945354,0,0,0,2,1,0,0,0,0,3,0,0,0,0,0,0,0,0,0
Íllar,Almería,Íllar,36.98562,-2.63871,0,0,0,0,1,0,0,0,3,2,0,0,0,0,0,0,0,0,0
Instinción,Almería,Instinción,36.99344,-2.66046,0,0,0,0,1,0,0,0,2,3,0,0,0,0,0,0,0,0,0
Laroya,Almería,Laroya,37.29771,-2.33419,0,3,0,0,1,0,0,0,0,2,0,0,0,0,0,0,0,0,0
Láujar de Andarax,Almería,Láujar de Andarax,36.99416,-2.893955,1,0,0,0,0,0,0,0,2,3,0,0,0,0,0,0,0,0,0
Líjar,Almería,Líjar,37.29492,-2.21937,0,0,0,0,1,0,0,0,3,2,0,0,0,0,0,0,0,0,0
Lubrín,Almería,Lubrín,37.21538,-2.06678,1,0,0,0,0,3,0,0,2,0,0,0,0,0,0,0,0,0,0
Lucainena de las Torres,Almería,Lucainena de las Torres,37.04038,-2.20095,0,3,0,0,1,0,0,0,2,0,0,0,0,0,0,0,0,0,0
Lúcar,Almería,Lúcar,37.40035,-2.42496,0,2,0,0,1,0,0,0,0,3,0,0,0,0,0,0,0,0,0
Macael,Almería,Macael,37.335906,-2.290791,0,0,0,3,0,0,0,0,2,1,0,0,0,0,0,0,0,0,0
María,Almería,María,37.710788,-2.164725,0,0,0,3,1,0,0,0,0,2,0,0,0,0,0,0,0,0,0
Mojácar,Almería,Mojácar,37.120291,-1.837481,0,0,3,0,0,0,0,0,1,2,0,0,0,0,0,0,0,0,0
Mojonera (La),Almería,La Mojonera,36.752832,-2.681988,0,0,0,1,0,0,0,0,0,3,2,0,0,0,0,0,0,0,0
Nacimiento,Almería,Nacimiento,37.10615,-2.64846,0,2,0,0,1,0,0,0,0,0,0,0,0,0,0,3,0,0,0
Níjar,Almería,Níjar,36.964012,-2.207395,2,0,0,0,0,3,0,0,1,0,0,0,0,0,0,0,0,0,0
Ohanes,Almería,Ohanes,37.03861,-2.74524,0,3,0,0,1,0,0,0,0,2,0,0,0,0,0,0,0,0,0
Olula de Castro,Almería,Olula de Castro,37.17475,-2.4743,0,0,0,1,2,0,0,0,0,3,0,0,0,0,0,0,0,0,0
Olula del Río,Almería,Olula del Río,37.353887,-2.29565,3,0,0,0,0,2,0,0,1,0,0,0,0,0,0,0,0,0,0
Oria,Almería,Oria,37.48397,-2.295461,1,0,0,0,0,3,0,0,2,0,0,0,0,0,0,0,0,0,0
Padules,Almería,Padules,36.977131,-2.764865,0,0,0,2,1,0,0,0,0,3,0,0,0,0,0,0,0,0,0
Partaloa,Almería,Partaloa,37.40764,-2.22526,0,0,0,0,1,0,0,0,0,0,2,3,0,0,0,0,0,0,0
Paterna del Río,Almería,Paterna del Río,37.02222,-2.95343,0,0,0,0,1,0,0,0,3,2,0,0,0,0,0,0,0,0,0
Pechina,Almería,Pechina,37.34612,-2.57895,0,0,0,0,1,0,0,0,0,2,3,0,0,0,0,0,0,0,0
Pulpí,Almería,Pulpí,37.41134,-1.746038,0,0,0,2,1,0,0,0,0,0,3,0,0,0,0,0,0,0,0
Purchena,Almería,Purchena,37.34761,-2.361655,0,0,0,0,1,3,0,0,0,2,0,0,0,0,0,0,0,0,0
Rágol,Almería,Rágol,36.99523,-2.68178,0,0,0,2,1,0,0,0,3,0,0,0,0,0,0,0,0,0,0
Rioja,Almería,Rioja,36.943298,-2.462973,0,0,0,1,0,3,0,0,0,2,0,0,0,0,0,0,0,0,0
Roquetas de Mar,Almería,Roquetas de Mar,36.766784,-2.610328,3,0,0,1,0,0,0,0,0,2,0,0,0,0,0,0,0,0,0
Santa Cruz de Marchena,Almería,Santa Cruz de Marchena,37.01736,-2.60337,0,0,0,3,1,0,0,0,0,2,0,0,0,0,0,0,0,0,0
Santa Fe de Mondújar,Almería,Santa Fe de Mondújar,36.97479,-2.53126,0,1,0,0,2,0,0,0,0,0,3,0,0,0,0,0,0,0,0
Senés,Almería,Senés,37.20367,-2.34631,0,3,0,2,1,0,0,0,0,0,0,0,0,0,0,0,0,0,0
Serón,Almería,Serón,37.343094,-2.510717,3,0,0,0,2,0,0,0,0,0,1,0,0,0,0,0,0,0,0
Sierro,Almería,Sierro,37.32237,-2.39844,0,0,0,0,1,0,0,0,0,2,3,0,0,0,0,0,0,0,0
Somontín,Almería,Somontín,37.39176,-2.38828,0,0,0,3,1,0,0,0,0,2,0,0,0,0,0,0,0,0,0
Sorbas,Almería,Sorbas,37.098392,-2.123837,2,3,0,0,0,1,0,0,0,0,0,0,0,0,0,0,0,0,0
Suflí,Almería,Suflí,37.33866,-2.38817,0,0,0,3,2,0,0,0,0,1,0,0,0,0,0,0,0,0,0
Tabernas,Almería,Tabernas,37.052305,-2.392007,1,0,3,0,0,0,0,0,0,2,0,0,0,0,0,0,0,0,0
Taberno,Almería,Taberno,37.4688,-2.07736,0,0,0,0,1,3,0,0,0,2,0,0,0,0,0,0,0,0,0
Tahal,Almería,Tahal,37.22797,-2.2847,0,0,0,2,0,1,0,0,3,0,0,0,0,0,0,0,0,0,0
Terque,Almería,Terque,36.98393,-2.59679,0,0,0,2,0,0,0,0,0,3,1,0,0,0,0,0,0,0,0
Tíjola,Almería,Tíjola,37.34643,-2.433715,3,0,0,0,0,0,0,0,1,2,0,0,0,0,0,0,0,0,0
Tres Villas (Las),Almería,Las Tres Villas,37.158261,-2.715906,0,0,0,3,2,0,0,0,0,1,0,0,0,0,0,0,0,0,0
Turre,Almería,Turre,37.152363,-1.894506,1,0,0,0,2,0,0,0,0,0,3,0,0,0,0,0,0,0,0
Turrillas,Almería,Turrillas,37.02948,-2.26607,0,0,0,2,1,0,0,0,0,3,0,0,0,0,0,0,0,0,0
Uleila del Campo,Almería,Uleila del Campo,37.1846,-2.20491,2,0,0,0,3,0,0,0,1,0,0,0,0,0,0,0,0,0,0
Urrácal,Almería,Urrácal,37.3974,-2.36485,0,0,0,2,1,0,0,0,0,0,0,0,0,0,0,0,0,0,0
Velefique,Almería,Velefique,37.19407,-2.40155,0,0,0,0,1,0,0,0,0,3,2,0,0,0,0,0,0,0,0
Vélez-Blanco,Almería,Vélez-Blanco,37.692512,-2.095392,0,3,0,0,1,0,0,0,0,0,2,0,0,0,0,0,0,0,0
Vélez-Rubio,Almería,Vélez-Rubio,37.647982,-2.075089,0,0,0,1,0,2,0,0,3,0,0,0,0,0,0,0,0,0,0
Vera,Almería,Vera,37.246352,-1.868843,0,0,0,2,0,0,0,0,0,1,3,0,0,0,0,0,0,0,0
Viator,Almería,Viator,36.882156,-2.417627,0,0,0,0,0,2,0,0,0,1,3,0,0,0,0,0,0,0,0
Vícar,Almería,Vícar,36.80006,-2.647875,0,0,0,1,2,0,0,0,0,0,3,0,0,0,0,0,0,0,0
Zurgena,Almería,Zurgena,37.34218,-2.03985,0,0,0,0,1,3,0,0,0,0,2,0,0,0,0,0,0,0,0
Adanero,Ávila,Adanero,40.94487,-4.60561,0,0,0,0,1,3,0,0,0,0,0,2,0,0,0,0,0,0,0
Adrada (La),Ávila,La Adrada,40.30084,-4.635961,0,0,0,1,2,0,0,0,0,3,0,0,0,0,0,0,0,0,0
Albornos,Ávila,Albornos,40.83795,-4.88129,0,0,0,2,1,0,0,0,0,3,0,0,0,0,0,0,0,0,0
Aldeanueva de Santa Cruz,Ávila,Aldeanueva de Santa Cruz,40.38189,-5.42142,0,2,0,0,1,0,0,0,3,0,0,0,0,0,0,0,0,0,0
Aldeaseca,Ávila,Aldeaseca,41.04912,-4.81707,0,0,0,0,1,3,0,0,0,0,0,2,0,0,0,0,0,0,0
Aldehuela (La),Ávila,La Aldehuela,40.41092,-5.40983,0,2,0,0,1,0,0,0,0,3,0,0,0,0,0,0,0,0,0
Amavida,Ávila,Amavida,40.57371,-5.06541,0,2,3,0,1,0,0,0,0,0,0,0,0,0,0,0,0,0,0
Arenal (El),Ávila,El Arenal,40.265205,-5.086847,0,0,0,0,1,0,0,0,0,2,0,0,0,3,0,0,0,0,0
Arenas de San Pedro,Ávila,Arenas de San Pedro,40.211957,-5.085076,1,0,0,0,0,0,0,0,3,2,0,0,0,0,0,0,0,0,0
Arevalillo,Ávila,Arevalillo,40.588392,-5.371343,0,0,0,0,1,0,0,0,0,0,0,0,0,0,0,0,0,0,0
Arévalo,Ávila,Arévalo,41.062326,-4.720047,3,0,0,0,0,1,0,0,2,0,0,0,0,0,0,0,0,0,0
Aveinte,Ávila,Aveinte,40.78227,-4.83649,0,0,0,3,1,2,0,0,0,0,0,0,0,0,0,0,0,0,0
Avellaneda,Ávila,Avellaneda,40.38909,-5.38811,0,2,0,0,1,0,0,0,0,3,0,0,0,0,0,0,0,0,0
Ávila,Ávila,Ávila,40.646709,-4.701896,0,0,0,1,0,0,0,0,0,2,3,0,0,0,0,0,0,0,0
Barco de Ávila (El),Ávila,El Barco de Ávila,40.357166,-5.521441,1,0,0,0,0,3,0,0,2,0,0,0,0,0,0,0,0,0,0
Barraco (El),Ávila,El Barraco,40.477362,-4.645228,0,0,0,3,2,0,0,0,0,1,0,0,0,0,0,0,0,0,0
Barromán,Ávila,Barromán,41.06536,-4.93066,0,2,0,0,0,3,0,0,0,1,0,0,0,0,0,0,0,0,0
Becedas,Ávila,Becedas,40.40369,-5.63577,0,0,0,3,1,0,0,0,0,2,0,0,0,0,0,0,0,0,0
Becedillas,Ávila,Becedillas,40.53821,-5.32561,0,0,0,0,1,0,0,0,0,3,0,2,0,0,0,0,0,0,0
Bercial de Zapardiel,Ávila,Bercial de Zapardiel,41.04675,-4.9691,0,1,0,3,0,0,0,0,0,0,2,0,0,0,0,0,0,0,0
Berlanas (Las),Ávila,Las Berlanas,40.800813,-4.76019,0,0,0,2,0,0,0,0,0,1,0,3,0,0,0,0,0,0,0
Bernuy-Zapardiel,Ávila,Bernuy-Zapardiel,40.9757,-4.94468,0,0,0,2,0,0,0,0,0,1,0,0,0,0,0,0,0,0,0
Berrocalejo de Aragona,Ávila,Berrocalejo de Aragona,40.69436,-4.59474,0,3,0,0,1,0,0,0,0,2,0,0,0,0,0,0,0,0,0
Blascomillán,Ávila,Blascomillán,40.80146,-5.08703,0,0,0,0,1,0,0,0,0,2,3,0,0,0,0,0,0,0,0
Blasconuño de Matacabras,Ávila,Blasconuño de Matacabras,41.12368,-4.98983,0,2,0,3,1,0,0,0,0,0,0,0,0,0,0,0,0,0,0
Blascosancho,Ávila,Blascosancho,40.87744,-4.63743,0,0,0,2,1,3,0,0,0,0,0,0,0,0,0,0,0,0,0
Bohodón (El),Ávila,El Bohodón,40.91612,-4.73,0,0,0,0,1,0,0,0,3,2,0,0,0,0,0,0,0,0,0
Bohoyo,Ávila,Bohoyo,40.31584,-5.44294,0,0,2,0,1,0,0,0,0,3,0,0,0,0,0,0,0,0,0
Bonilla de la Sierra,Ávila,Bonilla de la Sierra,40.53063,-5.26452,0,2,0,0,1,0,0,0,3,0,0,0,0,0,0,0,0,0,0
Brabos,Ávila,Brabos,40.77846,-4.93934,3,0,0,2,1,0,0,0,0,0,0,0,0,0,0,0,0,0,0
Bularros,Ávila,Bularros,40.72808,-4.82914,0,0,0,2,1,0,0,0,0,3,0,0,0,0,0,0,0,0,0
Burgohondo,Ávila,Burgohondo,40.414016,-4.785867,0,0,0,0,0,3,0,0,2,1,0,0,0,0,0,0,0,0,0
Cabezas de Alambre,Ávila,Cabezas de Alambre,40.94218,-4.84184,0,0,0,2,1,0,0,0,0,3,0,0,0,0,0,0,0,0,0
Cabezas del Pozo,Ávila,Cabezas del Pozo,41.00139,-4.95454,0,0,0,1,0,0,0,0,0,2,0,0,0,0,0,0,0,0,0
Cabezas del Villar,Ávila,Cabezas del Villar,40.715103,-5.210077,0,0,0,0,1,2,0,0,0,0,3,0,0,0,0,0,0,0,0
Cabizuela,Ávila,Cabizuela,40.9009,-4.80212,0,0,0,2,1,0,0,0,0,0,0,0,0,0,0,0,0,0,0
Canales,Ávila,Canales,40.667503,-4.663682,0,0,0,1,0,0,0,0,0,3,2,0,0,0,0,0,0,0,0
Candeleda,Ávila,Candeleda,40.154493,-5.241504,2,0,0,0,0,3,0,0,1,0,0,0,0,0,0,0,0,0,0
Cantiveros,Ávila,Cantiveros,40.95216,-4.95455,0,3,0,0,2,0,0,0,0,1,0,0,0,0,0,0,0,0,0
Cardeñosa,Ávila,Cardeñosa,40.7424,-4.74579,0,0,0,3,1,0,0,0,2,0,0,0,0,0,0,0,0,0,0
Carrera (La),Ávila,La Carrera,40.45594,-5.42654,3,2,0,0,1,0,0,0,0,0,0,0,0,0,0,0,0,0,0
Casas del Puerto,Ávila,Casas del Puerto,40.531848,-5.180026,0,0,0,3,1,0,0,0,0,2,0,0,0,0,0,0,0,0,0
Casasola,Ávila,Casasola,40.665588,-4.820289,0,0,0,2,1,0,0,0,0,3,0,0,0,0,0,0,0,0,0
Casavieja,Ávila,Casavieja,40.280552,-4.765836,0,0,0,0,1,0,0,0,0,2,3,0,0,0,0,0,0,0,0
Casillas,Ávila,Casillas,40.3261,-4.57182,0,0,0,3,1,0,0,0,0,2,0,0,0,0,0,0,0,0,0
Castellanos de Zapardiel,Ávila,Castellanos de Zapardiel,41.0845,-4.90984,0,0,0,0,0,0,0,0,3,1,2,0,0,0,0,0,0,0,0
Cebreros,Ávila,Cebreros,40.45523,-4.463885,0,0,0,0,0,0,2,3,1,0,0,0,0,0,0,0,0,0,0
Cepeda la Mora,Ávila,Cepeda la Mora,40.4578,-5.04833,0,3,0,2,1,0,0,0,0,0,0,0,0,0,0,0,0,0,0
Chamartín,Ávila,Chamartín,40.70267,-4.95769,0,2,0,0,1,0,0,0,0,3,0,0,0,0,0,0,0,0,0
Cillán,Ávila,Cillán,40.70675,-4.98135,0,2,0,0,1,0,0,0,0,3,0,0,0,0,0,0,0,0,0
Cisla,Ávila,Cisla,40.96662,-5.01406,0,0,0,0,0,0,0,0,0,0,0,0,0,0,0,0,0,0,0
Colilla (La),Ávila,La Colilla,40.644661,-4.760599,0,0,0,2,3,0,0,0,0,1,0,0,0,0,0,0,0,0,0
Collado de Contreras,Ávila,Collado de Contreras,40.88743,-4.9314,0,0,0,2,1,0,0,0,0,3,0,0,0,0,0,0,0,0,0
Collado del Mirón,Ávila,Collado del Mirón,40.55307,-5.35398,0,0,0,0,1,0,0,0,0,0,0,2,0,0,0,0,0,0,0
Constanzana,Ávila,Constanzana,40.93821,-4.87515,0,0,0,0,1,3,0,0,0,2,0,0,0,0,0,0,0,0,0
Crespos,Ávila,Crespos,40.870953,-4.970757,3,0,0,2,0,0,0,0,0,0,1,0,0,0,0,0,0,0,0
Cuevas del Valle,Ávila,Cuevas del Valle,40.29418,-5.00938,3,0,0,0,1,0,0,0,0,2,0,0,0,0,0,0,0,0,0
Diego del Carpio,Ávila,Diego del Carpio,40.666303,-5.33158,0,0,0,0,1,0,0,0,0,2,0,3,0,0,0,0,0,0,0
Donjimeno,Ávila,Donjimeno,40.95978,-4.84627,0,0,0,2,1,0,0,0,0,3,0,0,0,0,0,0,0,0,0
Donvidas,Ávila,Donvidas,41.08954,-4.80634,0,0,0,2,1,0,0,0,3,0,0,0,0,0,0,0,0,0,0
Espinosa de los Caballeros,Ávila,Espinosa de los Caballeros,41.0087,-4.6537,0,0,0,0,1,2,0,0,0,0,3,0,0,0,0,0,0,0,0
Flores de Ávila,Ávila,Flores de Ávila,40.93358,-5.07914,0,3,0,2,0,0,0,0,0,1,0,0,0,0,0,0,0,0,0
Fontiveros,Ávila,Fontiveros,40.930535,-4.965307,0,0,0,0,1,0,0,0,0,2,3,0,0,0,0,0,0,0,0
Fresnedilla,Ávila,Fresnedilla,40.23233,-4.62201,0,0,0,0,1,0,0,0,0,2,0,0,0,0,0,0,0,0,0
Fresno (El),Ávila,El Fresno,40.61572,-4.75746,0,0,0,2,3,0,0,0,0,1,0,0,0,0,0,0,0,0,0
Fuente el Saúz,Ávila,Fuente el Saúz,40.97771,-4.90825,0,0,0,2,1,0,0,0,0,3,0,0,0,0,0,0,0,0,0
Fuentes de Año,Ávila,Fuentes de Año,41.01769,-4.89908,0,0,0,2,3,0,0,0,0,1,0,0,0,0,0,0,0,0,0
Gallegos de Altamiros,Ávila,Gallegos de Altamiros,40.70634,-4.90643,0,0,0,0,1,0,0,0,0,2,0,0,0,0,0,3,0,0,0
Gallegos de Sobrinos,Ávila,Gallegos de Sobrinos,40.71693,-5.11224,0,0,0,0,1,0,0,0,0,2,0,0,0,0,0,0,0,0,0
Garganta del Villar,Ávila,Garganta del Villar,40.44965,-5.1042,0,0,0,2,3,0,0,0,1,0,0,0,0,0,0,0,0,0,0
Gavilanes,Ávila,Gavilanes,40.27791,-4.85321,0,0,0,0,1,0,0,0,2,3,0,0,0,0,0,0,0,0,0
Gemuño,Ávila,Gemuño,40.59159,-4.78178,0,0,0,0,2,0,0,0,0,1,3,0,0,0,0,0,0,0,0
Gil García,Ávila,Gil García,40.28104,-5.592565,0,0,2,0,1,0,0,0,0,0,0,0,0,0,0,0,0,0,0
Gilbuena,Ávila,Gilbuena,40.42206,-5.59201,0,2,0,0,1,0,0,0,3,0,0,0,0,0,0,0,0,0,0
Gimialcón,Ávila,Gimialcón,40.87705,-5.12308,0,0,0,0,1,3,0,0,0,2,0,0,0,0,0,0,0,0,0
Gotarrendura,Ávila,Gotarrendura,40.82652,-4.7409,0,0,0,3,0,0,0,0,0,1,0,2,0,0,0,0,0,0,0
Grandes y San Martín,Ávila,Grandes y San Martín,40.763114,-4.970927,0,0,0,0,1,0,0,0,0,0,0,0,0,0,0,2,0,0,0
Guisando,Ávila,Guisando,40.22225,-5.1395,2,0,0,0,3,0,0,0,1,0,0,0,0,0,0,0,0,0,0
Gutierre-Muñoz,Ávila,Gutierre-Muñoz,40.98295,-4.63839,0,0,0,3,1,2,0,0,0,0,0,0,0,0,0,0,0,0,0
Hernansancho,Ávila,Hernansancho,40.85753,-4.73045,2,0,0,0,1,3,0,0,0,0,0,0,0,0,0,0,0,0,0
Herradón de Pinares,Ávila,Herradón de Pinares,40.597608,-4.495836,0,0,0,0,0,0,0,0,0,2,3,1,0,0,0,0,0,0,0
Herreros de Suso,Ávila,Herreros de Suso,40.803861,-5.038958,0,0,0,0,1,0,0,0,0,3,2,0,0,0,0,0,0,0,0
Higuera de las Dueñas,Ávila,Higuera de las Dueñas,40.23903,-4.60361,0,0,0,0,1,0,0,0,0,2,0,0,0,0,0,0,0,0,0
Hija de Dios (La),Ávila,La Hija de Dios,40.53013,-4.96734,0,0,0,2,1,0,0,0,0,0,0,0,0,0,0,0,0,0,0
Horcajada (La),Ávila,La Horcajada,40.43674,-5.46615,0,0,0,3,1,0,0,0,2,0,0,0,0,0,0,0,0,0,0
Horcajo de las Torres,Ávila,Horcajo de las Torres,41.06497,-5.09092,2,0,0,1,0,0,0,0,3,0,0,0,0,0,0,0,0,0,0
Hornillo (El),Ávila,El Hornillo,40.24994,-5.10356,0,0,3,2,1,0,0,0,0,0,0,0,0,0,0,0,0,0,0
Hoyo de Pinares (El),Ávila,El Hoyo de Pinares,40.5005,-4.422379,1,0,0,0,0,0,0,0,2,0,3,0,0,0,0,0,0,0,0
Hoyocasero,Ávila,Hoyocasero,40.3989,-4.97455,0,0,3,0,0,0,0,0,0,1,2,0,0,0,0,0,0,0,0
Hoyorredondo,Ávila,Hoyorredondo,40.4627,-5.41097,0,2,0,0,1,3,0,0,0,0,0,0,0,0,0,0,0,0,0
Hoyos de Miguel Muñoz,Ávila,Hoyos de Miguel Muñoz,40.39237,-5.06713,0,0,0,0,1,0,0,0,2,0,3,0,0,0,0,0,0,0,0
Hoyos del Collado,Ávila,Hoyos del Collado,40.35945,-5.20027,0,2,3,0,1,0,0,0,0,0,0,0,0,0,0,0,0,0,0
Hoyos del Espino,Ávila,Hoyos del Espino,40.35623,-5.17505,1,0,3,0,0,0,0,0,2,0,0,0,0,0,0,0,0,0,0
Hurtumpascual,Ávila,Hurtumpascual,40.692,-5.11379,0,0,0,0,1,0,0,0,0,0,0,0,0,0,0,0,0,0,0
Junciana,Ávila,Junciana,40.41076,-5.55698,0,3,0,0,1,0,0,0,2,0,0,0,0,0,0,0,0,0,0
Langa,Ávila,Langa,41.0055,-4.85946,0,0,0,3,1,0,0,0,0,2,0,0,0,0,0,0,0,0,0
Lanzahíta,Ávila,Lanzahíta,40.205188,-4.932959,0,0,0,0,1,0,0,0,3,2,0,0,0,0,0,0,0,0,0
Llanos de Tormes (Los),Ávila,Los Llanos de Tormes,40.32773,-5.50016,0,0,2,0,1,0,0,0,0,3,0,0,0,0,0,0,0,0,0
Losar del Barco (El),Ávila,El Losar del Barco,40.397153,-5.537609,2,3,0,0,1,0,0,0,0,0,0,0,0,0,0,0,0,0,0
Madrigal de las Altas Torres,Ávila,Madrigal de las Altas Torres,41.08999,-4.997505,0,2,0,1,0,0,0,0,0,0,3,0,0,0,0,0,0,0,0
Maello,Ávila,Maello,40.80929,-4.51186,0,0,0,2,1,0,0,0,0,3,0,0,0,0,0,0,0,0,0
Malpartida de Corneja,Ávila,Malpartida de Corneja,40.52208,-5.35026,0,3,0,0,1,0,0,0,0,0,0,2,0,0,0,0,0,0,0
Mamblas,Ávila,Mamblas,41.01925,-5.00874,0,0,0,0,1,0,0,0,0,0,0,0,0,0,0,0,0,0,0
Mancera de Arriba,Ávila,Mancera de Arriba,40.79139,-5.14772,0,0,0,0,1,0,0,0,0,2,0,0,0,0,0,0,0,0,0
Manjabálago y Ortigosa de Rioalmar,Ávila,Manjabálago y Ortigosa de Rioalmar,40.66441,-5.07719,0,3,0,0,1,0,0,0,0,2,0,0,0,0,0,0,0,0,0
Marlín,Ávila,Marlín,40.712201,-4.827554,0,0,0,2,1,0,0,0,0,3,0,0,0,0,0,0,0,0,0
Martiherrero,Ávila,Martiherrero,40.67392,-4.78156,0,0,0,3,2,0,0,0,0,1,0,0,0,0,0,0,0,0,0
Martínez,Ávila,Martínez,40.63046,-5.34801,0,0,0,0,1,0,0,0,0,0,0,0,0,0,0,0,0,0,0
Mediana de Voltoya,Ávila,Mediana de Voltoya,40.70104,-4.56341,0,3,0,0,1,0,0,0,0,2,0,0,0,0,0,0,0,0,0
Medinilla,Ávila,Medinilla,40.43967,-5.61772,0,2,0,0,1,3,0,0,0,0,0,0,0,0,0,0,0,0,0
Mengamuñoz,Ávila,Mengamuñoz,40.50006,-4.99983,0,0,0,2,1,0,0,0,0,0,3,0,0,0,0,0,0,0,0
Mesegar de Corneja,Ávila,Mesegar de Corneja,40.50209,-5.30131,0,0,0,0,1,0,0,0,0,2,3,0,0,0,0,0,0,0,0
Mijares,Ávila,Mijares,40.29654,-4.83651,1,0,0,0,0,3,0,0,2,0,0,0,0,0,0,0,0,0,0
Mingorría,Ávila,Mingorría,40.75192,-4.66583,0,2,0,0,1,0,0,0,0,3,0,0,0,0,0,0,0,0,0
Mirón (El),Ávila,El Mirón,40.53322,-5.40552,0,2,0,3,1,0,0,0,0,0,0,0,0,0,0,0,0,0,0
Mironcillo,Ávila,Mironcillo,40.55435,-4.82449,0,3,0,0,1,0,0,0,0,2,0,0,0,0,0,0,0,0,0
Mirueña de los Infanzones,Ávila,Mirueña de los Infanzones,40.738133,-5.08621,0,0,0,0,1,0,0,0,0,2,0,0,0,0,0,0,0,0,0
Mombeltrán,Ávila,Mombeltrán,40.260124,-5.017915,2,0,0,1,0,0,0,0,3,0,0,0,0,0,0,0,0,0,0
Monsalupe,Ávila,Monsalupe,40.76953,-4.78131,0,0,0,3,1,0,0,0,2,0,0,0,0,0,0,0,0,0,0
Moraleja de Matacabras,Ávila,Moraleja de Matacabras,41.10732,-4.95717,0,1,0,2,3,0,0,0,0,0,0,0,0,0,0,0,0,0,0
Muñana,Ávila,Muñana,40.59042,-5.01447,3,0,0,0,1,2,0,0,0,0,0,0,0,0,0,0,0,0,0
Muñico,Ávila,Muñico,40.70678,-5.02717,0,0,0,0,1,3,0,0,0,2,0,0,0,0,0,0,0,0,0
Muñogalindo,Ávila,Muñogalindo,40.60324,-4.89895,0,0,0,0,1,0,0,3,0,2,0,0,0,0,0,0,0,0,0
Muñogrande,Ávila,Muñogrande,40.82181,-4.92224,0,0,0,2,1,0,0,0,0,3,0,0,0,0,0,0,0,0,0
Muñomer del Peco,Ávila,Muñomer del Peco,40.85878,-4.87992,0,2,0,0,1,0,0,0,0,3,0,0,0,0,0,0,0,0,0
Muñopepe,Ávila,Muñopepe,40.63408,-4.81876,0,0,0,1,2,0,0,0,0,3,0,0,0,0,0,0,0,0,0
Muñosancho,Ávila,Muñosancho,40.92097,-5.03558,0,0,0,3,1,0,0,0,0,2,0,0,0,0,0,0,0,0,0
Muñotello,Ávila,Muñotello,40.54236,-5.04187,0,3,0,0,1,2,0,0,0,0,0,0,0,0,0,0,0,0,0
Narrillos del Álamo,Ávila,Narrillos del Álamo,40.56673,-5.46584,0,0,0,0,2,0,0,0,0,1,0,0,0,0,0,0,0,0,0
Narrillos del Rebollar,Ávila,Narrillos del Rebollar,40.66488,-4.96577,0,0,0,0,1,0,0,0,0,2,0,0,3,0,0,0,0,0,0
Narros de Saldueña,Ávila,Narros de Saldueña,40.87268,-4.86908,0,2,0,0,1,0,0,0,0,0,0,0,0,0,0,0,0,0,0
Narros del Castillo,Ávila,Narros del Castillo,40.85869,-5.0601,0,0,0,0,1,0,0,0,0,2,0,0,0,0,0,0,0,0,0
Narros del Puerto,Ávila,Narros del Puerto,40.54131,-4.99292,0,3,0,2,1,0,0,0,0,0,0,0,0,0,0,0,0,0,0
Nava de Arévalo,Ávila,Nava de Arévalo,40.97802,-4.77573,0,0,0,0,1,0,0,0,0,2,0,0,0,0,0,0,0,0,0
Nava del Barco,Ávila,Nava del Barco,40.29321,-5.54022,0,0,0,2,1,0,0,0,0,3,0,0,0,0,0,0,0,0,0
Navacepedilla de Corneja,Ávila,Navacepedilla de Corneja,40.48602,-5.1838,0,0,2,3,1,0,0,0,0,0,0,0,0,0,0,0,0,0,0
Navadijos,Ávila,Navadijos,40.42524,-5.08285,0,3,0,2,1,0,0,0,0,0,0,0,0,0,0,0,0,0,0
Navaescurial,Ávila,Navaescurial,40.47163,-5.27756,0,0,0,0,1,0,0,0,0,2,3,0,0,0,0,0,0,0,0
Navahondilla,Ávila,Navahondilla,40.3251,-4.49661,0,0,0,0,1,0,0,0,3,2,0,0,0,0,0,0,0,0,0
Navalacruz,Ávila,Navalacruz,40.43992,-4.93122,0,0,0,3,1,0,0,0,0,2,0,0,0,0,0,0,0,0,0
Navalmoral,Ávila,Navalmoral,40.463493,-4.747432,0,0,0,0,1,0,0,0,0,2,3,0,0,0,0,0,0,0,0
Navalonguilla,Ávila,Navalonguilla,40.27835,-5.50042,0,0,3,0,1,0,0,0,0,0,2,0,0,0,0,0,0,0,0
Navalosa,Ávila,Navalosa,40.40212,-4.93,0,0,0,0,1,0,0,0,3,0,2,0,0,0,0,0,0,0,0
Navalperal de Pinares,Ávila,Navalperal de Pinares,40.593808,-4.408051,1,0,0,0,0,0,0,0,2,0,3,0,0,0,0,0,0,0,0
Navalperal de Tormes,Ávila,Navalperal de Tormes,40.3528,-5.30084,0,2,0,0,1,0,0,0,0,0,3,0,0,0,0,0,0,0,0
Navaluenga,Ávila,Navaluenga,40.40875,-4.70533,0,0,0,0,0,3,0,0,1,0,2,0,0,0,0,0,0,0,0
Navaquesera,Ávila,Navaquesera,40.42558,-4.91108,0,0,0,3,1,0,0,0,0,2,0,0,0,0,0,0,0,0,0
Navarredonda de Gredos,Ávila,Navarredonda de Gredos,40.361959,-5.132643,3,0,0,0,0,0,0,0,2,0,1,0,0,0,0,0,0,0,0
Navarredondilla,Ávila,Navarredondilla,40.45416,-4.82199,0,0,0,0,1,3,0,0,0,2,0,0,0,0,0,0,0,0,0
Navarrevisca,Ávila,Navarrevisca,40.36417,-4.89352,3,0,0,0,0,0,0,0,0,1,2,0,0,0,0,0,0,0,0
Navas del Marqués (Las),Ávila,Las Navas del Marqués,40.602557,-4.333014,2,0,0,3,0,0,0,0,0,1,0,0,0,0,0,0,0,0,0
Navatalgordo,Ávila,Navatalgordo,40.4152,-4.87155,0,0,0,3,2,0,0,0,0,0,1,0,0,0,0,0,0,0,0
Navatejares,Ávila,Navatejares,40.33602,-5.5322,0,0,3,0,1,0,0,0,2,0,0,0,0,0,0,0,0,0,0
Neila de San Miguel,Ávila,Neila de San Miguel,40.42372,-5.6509,0,0,0,2,1,0,0,0,3,0,0,0,0,0,0,0,0,0,0
Niharra,Ávila,Niharra,40.58945,-4.83895,0,3,0,0,2,0,0,0,0,1,0,0,0,0,0,0,0,0,0
Ojos-Albos,Ávila,Ojos-Albos,40.70596,-4.51633,0,3,0,0,1,0,0,0,0,2,0,0,0,0,0,0,0,0,0
Orbita,Ávila,Orbita,40.99846,-4.64833,0,0,0,0,1,2,0,0,0,0,3,0,0,0,0,0,0,0,0
Oso (El),Ávila,El Oso,40.83984,-4.76964,0,0,0,3,2,0,0,0,0,1,0,0,0,0,0,0,0,0,0
Padiernos,Ávila,Padiernos,40.62168,-4.84523,0,0,0,3,2,0,0,0,0,1,0,0,0,0,0,0,0,0,0
Pajares de Adaja,Ávila,Pajares de Adaja,40.92398,-4.64048,0,3,0,0,1,0,0,0,0,2,0,0,0,0,0,0,0,0,0
Palacios de Goda,Ávila,Palacios de Goda,41.11798,-4.78496,0,2,0,3,1,0,0,0,0,0,0,0,0,0,0,0,0,0,0
Papatrigo,Ávila,Papatrigo,40.86752,-4.832724,0,2,0,3,1,0,0,0,0,0,0,0,0,0,0,0,0,0,0
Parral (El),Ávila,El Parral,40.79858,-4.98994,0,0,0,0,1,0,0,0,0,0,0,0,0,0,0,0,0,0,0
Pascualcobo,Ávila,Pascualcobo,40.65637,-5.27733,0,0,0,0,1,0,0,0,0,2,0,0,0,0,0,0,0,0,0
Pedro Bernardo,Ávila,Pedro Bernardo,40.243187,-4.911729,2,0,3,0,0,0,0,0,1,0,0,0,0,0,0,0,0,0,0
Pedro-Rodríguez,Ávila,Pedro-Rodríguez,40.93727,-4.78571,0,0,0,0,1,0,0,0,0,2,0,0,0,0,0,0,0,0,0
Peguerinos,Ávila,Peguerinos,40.637548,-4.232541,0,0,2,0,1,0,0,0,0,3,0,0,0,0,0,0,0,0,0
Peñalba de Ávila,Ávila,Peñalba de Ávila,40.821441,-4.679826,0,3,0,0,1,0,0,0,0,0,0,2,0,0,0,0,0,0,0
Piedrahíta,Ávila,Piedrahíta,40.465141,-5.326679,3,0,0,2,0,0,0,0,1,0,0,0,0,0,0,0,0,0,0
Piedralaves,Ávila,Piedralaves,40.317135,-4.699035,0,0,0,0,1,0,0,0,2,3,0,0,0,0,0,0,0,0,0
Poveda,Ávila,Poveda,40.56799,-5.07909,0,2,3,0,1,0,0,0,0,0,0,0,0,0,0,0,0,0,0
Poyales del Hoyo,Ávila,Poyales del Hoyo,40.17254,-5.16597,0,0,3,0,1,0,0,0,0,2,0,0,0,0,0,0,0,0,0
Pozanco,Ávila,Pozanco,40.80095,-4.66772,0,0,0,0,1,0,0,0,0,2,0,3,0,0,0,0,0,0,0
Pradosegar,Ávila,Pradosegar,40.5502,-5.07015,0,3,2,0,1,0,0,0,0,0,0,0,0,0,0,0,0,0,0
Puerto Castilla,Ávila,Puerto Castilla,40.288,-5.62366,0,3,0,0,1,0,0,0,2,0,0,0,0,0,0,0,0,0,0
Rasueros,Ávila,Rasueros,41.02344,-5.07377,0,2,0,0,1,0,0,0,0,0,0,0,3,0,0,0,0,0,0
Riocabado,Ávila,Riocabado,40.8314,-4.8043,0,3,0,0,1,0,0,0,0,2,0,0,0,0,0,0,0,0,0
Riofrío,Ávila,Riofrío,40.54866,-4.77796,0,0,2,3,1,0,0,0,0,0,0,0,0,0,0,0,0,0,0
Rivilla de Barajas,Ávila,Rivilla de Barajas,40.79986,-4.76256,0,0,0,2,0,0,0,0,0,1,0,3,0,0,0,0,0,0,0
Salobral,Ávila,Salobral,40.61179,-4.81013,0,0,0,2,0,0,0,0,0,1,3,0,0,0,0,0,0,0,0
Salvadiós,Ávila,Salvadiós,40.87836,-5.09629,0,0,0,0,1,3,0,0,0,2,0,0,0,0,0,0,0,0,0
San Bartolomé de Béjar,Ávila,San Bartolomé de Béjar,40.399535,-5.669318,0,0,1,3,2,0,0,0,0,0,0,0,0,0,0,0,0,0,0
San Bartolomé de Corneja,Ávila,San Bartolomé de Corneja,40.49257,-5.38519,0,1,0,3,2,0,0,0,0,0,0,0,0,0,0,0,0,0,0
San Bartolomé de Pinares,Ávila,San Bartolomé de Pinares,40.542697,-4.539515,2,0,0,0,0,0,0,0,3,0,0,1,0,0,0,0,0,0,0
San Esteban de los Patos,Ávila,San Esteban de los Patos,40.74705,-4.62413,0,0,0,0,1,3,0,0,0,2,0,0,0,0,0,0,0,0,0
San Esteban de Zapardiel,Ávila,San Esteban de Zapardiel,41.0927,-4.90049,0,0,0,0,0,0,0,0,3,1,2,0,0,0,0,0,0,0,0
San Esteban del Valle,Ávila,San Esteban del Valle,40.2751,-4.98215,0,2,0,3,1,0,0,0,0,0,0,0,0,0,0,0,0,0,0
San García de Ingelmos,Ávila,San García de Ingelmos,40.773395,-5.11379,0,0,0,0,1,0,0,0,0,2,3,0,0,0,0,0,0,0,0
San Juan de Gredos,Ávila,San Juan de Gredos,40.33732,-5.24838,0,0,0,2,1,0,0,0,0,0,0,0,0,0,0,0,3,0,0
San Juan de la Encinilla,Ávila,San Juan de la Encinilla,40.8302,-4.83957,0,0,0,0,1,2,0,0,0,3,0,0,0,0,0,0,0,0,0
San Juan de la Nava,Ávila,San Juan de la Nava,40.47826,-4.681924,0,0,0,3,2,0,0,0,0,1,0,0,0,0,0,0,0,0,0
San Juan del Molinillo,Ávila,San Juan del Molinillo,40.45909,-4.81711,0,0,0,0,1,3,0,0,0,2,0,0,0,0,0,0,0,0,0
San Juan del Olmo,Ávila,San Juan del Olmo,40.636773,-5.058838,0,2,0,0,1,0,0,0,0,3,0,0,0,0,0,0,0,0,0
San Lorenzo de Tormes,Ávila,San Lorenzo de Tormes,40.36984,-5.48848,1,0,0,0,2,0,0,0,3,0,0,0,0,0,0,0,0,0,0
San Martín de la Vega del Alberche,Ávila,San Martín de la Vega del Alberche,40.667503,-4.663682,0,0,0,1,0,0,0,0,0,3,2,0,0,0,0,0,0,0,0
San Martín del Pimpollar,Ávila,San Martín del Pimpollar,40.3683,-5.05443,0,0,0,0,1,0,0,0,2,0,3,0,0,0,0,0,0,0,0
San Miguel de Corneja,Ávila,San Miguel de Corneja,40.48722,-5.28654,0,0,0,0,1,0,0,0,0,2,3,0,0,0,0,0,0,0,0
San Miguel de Serrezuela,Ávila,San Miguel de Serrezuela,40.67064,-5.28858,0,0,0,0,1,0,0,0,0,2,0,0,0,0,0,0,0,0,0
San Pascual,Ávila,San Pascual,40.88141,-4.75612,0,0,0,0,1,0,0,0,0,0,0,0,0,0,0,0,0,0,0
San Pedro del Arroyo,Ávila,San Pedro del Arroyo,40.80213,-4.87074,0,0,0,2,1,3,0,0,0,0,0,0,0,0,0,0,0,0,0
San Vicente de Arévalo,Ávila,San Vicente de Arévalo,40.96773,-4.80194,3,0,0,1,0,0,0,0,0,0,2,0,0,0,0,0,0,0,0
Sanchidrián,Ávila,Sanchidrián,40.893744,-4.582107,0,0,0,0,1,3,0,0,0,2,0,0,0,0,0,0,0,0,0
Sanchorreja,Ávila,Sanchorreja,40.66475,-4.91494,0,0,0,0,1,0,0,0,0,2,0,0,0,0,0,0,0,0,0
Santa Cruz de Pinares,Ávila,Santa Cruz de Pinares,40.54265,-4.58036,0,0,0,0,3,0,0,0,0,2,0,1,0,0,0,0,0,0,0
Santa Cruz del Valle,Ávila,Santa Cruz del Valle,40.2516,-5.00133,0,0,0,0,0,0,0,0,3,1,2,0,0,0,0,0,0,0,0
Santa María de los Caballeros,Ávila,Santa María de los Caballeros,40.38925,-5.45112,0,2,0,0,1,0,0,0,0,3,0,0,0,0,0,0,0,0,0
Santa María del Arroyo,Ávila,Santa María del Arroyo,40.601155,-4.936439,0,0,0,0,1,0,0,3,0,0,2,0,0,0,0,0,0,0,0
Santa María del Berrocal,Ávila,Santa María del Berrocal,40.50845,-5.40483,0,1,0,3,2,0,0,0,0,0,0,0,0,0,0,0,0,0,0
Santa María del Cubillo,Ávila,Santa María del Cubillo,40.71908,-4.46655,0,3,0,0,1,0,0,0,0,2,0,0,0,0,0,0,0,0,0
Santa María del Tiétar,Ávila,Santa María del Tiétar,40.302925,-4.542604,0,0,0,0,1,0,0,0,3,2,0,0,0,0,0,0,0,0,0
Santiago del Collado,Ávila,Santiago del Collado,40.43326,-5.35631,0,0,0,2,1,0,0,0,0,3,0,0,0,0,0,0,0,0,0
Santiago del Tormes,Ávila,Santiago del Tormes,40.347488,-5.395378,0,3,0,0,1,0,0,0,2,0,0,0,0,0,0,0,0,0,0
Santo Domingo de las Posadas,Ávila,Santo Domingo de las Posadas,40.812,-4.63383,0,0,0,0,1,0,0,0,0,2,3,0,0,0,0,0,0,0,0
Santo Tomé de Zabarcos,Ávila,Santo Tomé de Zabarcos,40.78726,-4.91048,0,0,0,2,1,3,0,0,0,0,0,0,0,0,0,0,0,0,0
Serrada (La),Ávila,La Serrada,40.63169,-4.79284,0,0,0,2,0,0,0,0,0,1,3,0,0,0,0,0,0,0,0
Serranillos,Ávila,Serranillos,40.325202,-4.905628,0,0,0,0,1,0,0,0,2,3,0,0,0,0,0,0,0,0,0
Sigeres,Ávila,Sigeres,40.79939,-4.93361,0,0,0,1,2,0,0,0,0,3,0,0,0,0,0,0,0,0,0
Sinlabajos,Ávila,Sinlabajos,41.0765,-4.83242,0,0,0,2,1,0,0,0,0,0,0,3,0,0,0,0,0,0,0
Solana de Ávila,Ávila,Solana de Ávila,40.33135,-5.63759,0,3,0,0,1,0,0,0,2,0,0,0,0,0,0,0,0,0,0
Solana de Rioalmar,Ávila,Solana de Rioalmar,40.73892,-5.01159,0,3,0,0,1,2,0,0,0,0,0,0,0,0,0,0,0,0,0
Solosancho,Ávila,Solosancho,40.55294,-4.90479,0,1,0,0,3,0,0,0,0,0,2,0,0,0,0,0,0,0,0
Sotalbo,Ávila,Sotalbo,40.5417,-4.84548,0,2,0,0,1,0,0,0,0,3,0,0,0,0,0,0,0,0,0
Sotillo de la Adrada,Ávila,Sotillo de la Adrada,40.293123,-4.586541,2,0,0,1,0,0,0,0,0,3,0,0,0,0,0,0,0,0,0
Tiemblo (El),Ávila,El Tiemblo,40.413929,-4.502271,2,0,0,0,0,0,0,0,1,3,0,0,0,0,0,0,0,0,0
Tiñosillos,Ávila,Tiñosillos,40.93543,-4.727323,0,0,0,0,1,0,0,0,3,2,0,0,0,0,0,0,0,0,0
Tolbaños,Ávila,Tolbaños,40.75168,-4.58191,0,0,3,0,1,0,0,0,0,2,0,0,0,0,0,0,0,0,0
Tormellas,Ávila,Tormellas,40.30404,-5.51185,0,0,0,0,1,0,0,0,0,3,0,0,0,0,0,0,2,0,0
Tornadizos de Ávila,Ávila,Tornadizos de Ávila,40.62757,-4.61426,0,0,0,0,3,0,0,0,0,2,0,1,0,0,0,0,0,0,0
Torre (La),Ávila,La Torre,40.5916,-4.96491,0,3,0,0,1,0,0,0,0,0,2,0,0,0,0,0,0,0,0
Tórtoles,Ávila,Tórtoles,40.5612,-5.2612,0,2,0,3,1,0,0,0,0,0,0,0,0,0,0,0,0,0,0
Umbrías,Ávila,Umbrías,40.3153,-5.58037,0,3,2,0,1,0,0,0,0,0,0,0,0,0,0,0,0,0,0
Vadillo de la Sierra,Ávila,Vadillo de la Sierra,40.60634,-5.12506,0,2,0,0,1,0,0,0,0,0,0,0,0,0,0,0,0,0,0
Valdecasa,Ávila,Valdecasa,40.65931,-5.01183,0,0,0,0,1,0,0,0,0,3,0,0,2,0,0,0,0,0,0
Vega de Santa María,Ávila,Vega de Santa María,40.83618,-4.64287,0,0,0,0,1,0,0,0,0,3,2,0,0,0,0,0,0,0,0
Velayos,Ávila,Velayos,40.84157,-4.62324,0,0,0,0,1,0,0,0,0,3,2,0,0,0,0,0,0,0,0
Villaflor,Ávila,Villaflor,40.74978,-4.884138,2,0,0,0,1,0,0,0,0,0,0,0,0,0,0,0,0,0,0
Villafranca de la Sierra,Ávila,Villafranca de la Sierra,40.49806,-5.23005,0,0,0,0,1,0,0,0,2,0,3,0,0,0,0,0,0,0,0
Villanueva de Ávila,Ávila,Villanueva de Ávila,40.37284,-4.82395,0,0,0,2,1,0,0,0,0,3,0,0,0,0,0,0,0,0,0
Villanueva de Gómez,Ávila,Villanueva de Gómez,40.88269,-4.7165,2,0,0,0,1,3,0,0,0,0,0,0,0,0,0,0,0,0,0
Villanueva del Aceral,Ávila,Villanueva del Aceral,41.04095,-4.85419,0,0,0,0,1,3,0,0,0,2,0,0,0,0,0,0,0,0,0
Villanueva del Campillo,Ávila,Villanueva del Campillo,40.57646,-5.18002,0,0,0,0,1,0,0,0,0,0,0,0,0,0,0,0,0,0,0
Villar de Corneja,Ávila,Villar de Corneja,40.47462,-5.43307,0,1,0,3,2,0,0,0,0,0,0,0,0,0,0,0,0,0,0
Villarejo del Valle,Ávila,Villarejo del Valle,40.28638,-4.99674,0,2,0,0,1,0,0,0,0,3,0,0,0,0,0,0,0,0,0
Villatoro,Ávila,Villatoro,40.549838,-5.118633,0,0,3,0,1,0,0,0,2,0,0,0,0,0,0,0,0,0,0
Viñegra de Moraña,Ávila,Viñegra de Moraña,40.85074,-4.92114,0,0,0,2,1,0,0,0,0,3,0,0,0,0,0,0,0,0,0
Vita,Ávila,Vita,40.81178,-5.00583,0,0,0,0,1,0,0,0,0,0,0,0,0,0,0,0,0,0,0
Zapardiel de la Cañada,Ávila,Zapardiel de la Cañada,40.60648,-5.33791,0,0,0,0,1,0,0,0,0,0,2,0,0,0,0,0,0,0,0
Zapardiel de la Ribera,Ávila,Zapardiel de la Ribera,40.35554,-5.32826,0,2,0,0,1,0,0,0,0,0,3,0,0,0,0,0,0,0,0
Acedera,Badajoz,Acedera,39.08414,-5.625607,0,0,0,1,2,0,0,0,0,3,0,0,0,0,0,0,0,0,0
Aceuchal,Badajoz,Aceuchal,38.645953,-6.48728,0,0,0,2,0,0,0,0,0,3,1,0,0,0,0,0,0,0,0
Ahillones,Badajoz,Ahillones,38.259328,-5.864075,0,0,0,1,0,2,0,0,0,3,0,0,0,0,0,0,0,0,0
Alange,Badajoz,Alange,38.784989,-6.246106,0,3,0,0,0,0,0,0,2,0,1,0,0,0,0,0,0,0,0
Albuera (La),Badajoz,La Albuera,38.717333,-6.823226,0,2,0,1,0,0,0,0,0,0,3,0,0,0,0,0,0,0,0
Alburquerque,Badajoz,Alburquerque,39.220369,-7.000693,0,0,0,3,0,2,0,0,1,0,0,0,0,0,0,0,0,0,0
Alconchel,Badajoz,Alconchel,38.514743,-7.071697,0,0,0,2,0,0,0,0,1,0,3,0,0,0,0,0,0,0,0
Alconera,Badajoz,Alconera,38.378914,-6.486219,0,0,0,1,3,0,0,0,0,2,0,0,0,0,0,0,0,0,0
Aljucén,Badajoz,Aljucén,39.04426,-6.33109,0,0,2,1,0,0,0,0,3,0,0,0,0,0,0,0,0,0,0
Almendral,Badajoz,Almendral,38.613181,-6.822009,0,0,0,1,0,0,0,0,0,3,2,0,0,0,0,0,0,0,0
Almendralejo,Badajoz,Almendralejo,38.683923,-6.408345,1,0,0,0,0,2,0,0,3,0,0,0,0,0,0,0,0,0,0
Arroyo de San Serván,Badajoz,Arroyo de San Serván,38.854303,-6.454154,0,3,0,1,0,0,0,0,0,2,0,0,0,0,0,0,0,0,0
Atalaya,Badajoz,Atalaya,38.338714,-6.487765,0,0,0,1,2,0,0,0,0,0,3,0,0,0,0,0,0,0,0
Azuaga,Badajoz,Azuaga,38.260213,-5.679025,1,0,0,0,0,3,0,0,0,0,0,2,0,0,0,0,0,0,0
Badajoz,Badajoz,Badajoz,38.876618,-6.980327,0,0,0,1,0,0,0,0,2,0,0,0,0,0,0,0,0,0,0
Barcarrota,Badajoz,Barcarrota,38.514744,-6.849092,2,3,0,0,1,0,0,0,0,0,0,0,0,0,0,0,0,0,0
Baterno,Badajoz,Baterno,38.95578,-4.91039,0,0,0,3,1,0,0,0,0,2,0,0,0,0,0,0,0,0,0
Benquerencia de la Serena,Badajoz,Benquerencia de la Serena,38.67358,-5.36435,0,3,0,0,1,0,0,0,0,2,0,0,0,0,0,0,0,0,0
Berlanga,Badajoz,Berlanga,38.282266,-5.829392,0,0,0,0,2,3,0,0,0,1,0,0,0,0,0,0,0,0,0
Bienvenida,Badajoz,Bienvenida,38.298282,-6.208785,0,0,0,3,0,0,0,0,0,1,2,0,0,0,0,0,0,0,0
Bodonal de la Sierra,Badajoz,Bodonal de la Sierra,38.14701,-6.558262,0,0,0,2,3,0,0,0,0,1,0,0,0,0,0,0,0,0,0
Burguillos del Cerro,Badajoz,Burguillos del Cerro,38.378731,-6.589193,1,0,0,3,0,0,2,0,0,0,0,0,0,0,0,0,0,0,0
Cabeza del Buey,Badajoz,Cabeza del Buey,38.720666,-5.22195,0,0,0,2,0,0,0,0,0,1,3,0,0,0,0,0,0,0,0
Cabeza la Vaca,Badajoz,Cabeza la Vaca,38.086152,-6.420675,2,0,0,0,0,0,3,0,1,0,0,0,0,0,0,0,0,0,0
Calamonte,Badajoz,Calamonte,38.887746,-6.387619,0,0,0,1,0,0,0,0,0,2,3,0,0,0,0,0,0,0,0
Calera de León,Badajoz,Calera de León,38.106385,-6.336207,1,0,0,0,0,3,0,0,2,0,0,0,0,0,0,0,0,0,0
Calzadilla de los Barros,Badajoz,Calzadilla de los Barros,38.300375,-6.314896,0,0,0,1,0,0,0,0,3,0,2,0,0,0,0,0,0,0,0
Campanario,Badajoz,Campanario,38.863511,-5.617804,0,0,0,1,0,2,3,0,0,0,0,0,0,0,0,0,0,0,0
Campillo de Llerena,Badajoz,Campillo de Llerena,38.502136,-5.830793,0,0,0,3,2,0,0,0,0,1,0,0,0,0,0,0,0,0,0
Capilla,Badajoz,Capilla,38.82036,-5.08417,0,0,0,0,1,0,0,0,0,2,3,0,0,0,0,0,0,0,0
Carmonita,Badajoz,Carmonita,39.15455,-6.33864,0,0,0,3,0,0,0,0,0,2,1,0,0,0,0,0,0,0,0
Carrascalejo (El),Badajoz,El Carrascalejo,39.02021,-6.33427,0,0,2,1,0,0,0,0,0,3,0,0,0,0,0,0,0,0,0
Casas de Don Pedro,Badajoz,Casas de Don Pedro,39.104247,-5.329294,0,0,0,1,0,0,0,0,0,2,3,0,0,0,0,0,0,0,0
Casas de Reina,Badajoz,Casas de Reina,38.2,-5.96667,0,0,0,1,2,0,0,0,0,3,0,0,0,0,0,0,0,0,0
Castilblanco,Badajoz,Castilblanco,39.285581,-5.090236,1,0,0,0,0,3,0,0,2,0,0,0,0,0,0,0,0,0,0
Castuera,Badajoz,Castuera,38.726483,-5.545868,0,0,0,1,0,0,2,0,0,3,0,0,0,0,0,0,0,0,0
Cheles,Badajoz,Cheles,38.513443,-7.282274,0,0,0,2,0,0,0,0,0,1,3,0,0,0,0,0,0,0,0
Codosera (La),Badajoz,La Codosera,39.208401,-7.173379,0,0,0,1,0,2,0,0,0,3,0,0,0,0,0,0,0,0,0
Cordobilla de Lácara,Badajoz,Cordobilla de Lácara,39.146614,-6.435991,0,0,0,0,2,0,0,0,0,1,3,0,0,0,0,0,0,0,0
Coronada (La),Badajoz,La Coronada,38.919642,-5.6701,0,0,0,1,0,0,3,0,0,2,0,0,0,0,0,0,0,0,0
Corte de Peleas,Badajoz,Corte de Peleas,38.72529,-6.671912,0,0,0,1,0,0,0,0,0,2,3,0,0,0,0,0,0,0,0
Cristina,Badajoz,Cristina,38.825438,-6.09967,0,0,0,1,3,0,0,0,0,2,0,0,0,0,0,0,0,0,0
Don Álvaro,Badajoz,Don Álvaro,38.880935,-6.305323,0,0,0,2,3,0,0,0,0,1,0,0,0,0,0,0,0,0,0
Don Benito,Badajoz,Don Benito,38.963236,-5.86046,0,0,0,2,0,0,0,0,0,1,3,0,0,0,0,0,0,0,0
Entrín Bajo,Badajoz,Entrín Bajo,38.718534,-6.712663,0,0,0,1,0,0,0,0,0,2,3,0,0,0,0,0,0,0,0
Esparragalejo,Badajoz,Esparragalejo,38.943824,-6.435232,0,0,0,2,0,0,0,0,0,1,3,0,0,0,0,0,0,0,0
Esparragosa de la Serena,Badajoz,Esparragosa de la Serena,38.649558,-5.606726,3,0,0,1,0,0,0,0,2,0,0,0,0,0,0,0,0,0,0
Esparragosa de Lares,Badajoz,Esparragosa de Lares,38.975376,-5.270202,1,0,0,0,0,2,0,0,3,0,0,0,0,0,0,0,0,0,0
Feria,Badajoz,Feria,38.512778,-6.564242,0,3,0,0,0,0,0,2,0,1,0,0,0,0,0,0,0,0,0
Fregenal de la Sierra,Badajoz,Fregenal de la Sierra,38.166981,-6.652975,0,0,0,2,3,0,0,0,0,1,0,0,0,0,0,0,0,0,0
Fuenlabrada de los Montes,Badajoz,Fuenlabrada de los Montes,39.133018,-4.935113,1,0,0,2,0,0,0,0,3,0,0,0,0,0,0,0,0,0,0
Fuente de Cantos,Badajoz,Fuente de Cantos,38.246621,-6.30559,0,0,0,0,0,1,0,0,0,3,0,2,0,0,0,0,0,0,0
Fuente del Arco,Badajoz,Fuente del Arco,38.15,-5.9,2,0,0,0,0,0,0,0,0,0,1,3,0,0,0,0,0,0,0
Fuente del Maestre,Badajoz,Fuente del Maestre,38.527681,-6.446825,0,0,0,1,0,0,3,0,0,0,2,0,0,0,0,0,0,0,0
Fuentes de León,Badajoz,Fuentes de León,38.067365,-6.539752,2,0,0,0,0,0,0,0,3,0,1,0,0,0,0,0,0,0,0
Garbayuela,Badajoz,Garbayuela,39.048933,-4.999989,0,0,0,1,3,0,0,0,0,2,0,0,0,0,0,0,0,0,0
Garlitos,Badajoz,Garlitos,38.88022,-5.04759,0,0,0,2,0,0,0,0,3,1,0,0,0,0,0,0,0,0,0
Garrovilla (La),Badajoz,La Garrovilla,38.91966,-6.479167,0,0,0,2,0,0,0,0,0,1,3,0,0,0,0,0,0,0,0
Granja de Torrehermosa,Badajoz,Granja de Torrehermosa,38.309073,-5.596359,0,0,0,3,2,0,0,0,0,1,0,0,0,0,0,0,0,0,0
Guadiana,Badajoz,Guadiana,38.921999,-6.689311,0,0,0,1,0,0,0,0,0,2,3,0,0,0,0,0,0,0,0
Guareña,Badajoz,Guareña,38.860671,-6.101441,1,0,0,0,0,2,0,0,3,0,0,0,0,0,0,0,0,0,0
Haba (La),Badajoz,La Haba,38.918877,-5.801104,2,0,0,1,0,0,0,0,0,0,3,0,0,0,0,0,0,0,0
Helechosa de los Montes,Badajoz,Helechosa de los Montes,39.310257,-4.907123,1,0,2,0,0,0,0,0,3,0,0,0,0,0,0,0,0,0,0
Herrera del Duque,Badajoz,Herrera del Duque,39.168449,-5.052043,0,0,0,2,0,3,0,0,1,0,0,0,0,0,0,0,0,0,0
Higuera de la Serena,Badajoz,Higuera de la Serena,38.6458,-5.742847,3,0,0,1,0,0,0,0,0,2,0,0,0,0,0,0,0,0,0
Higuera de Llerena,Badajoz,Higuera de Llerena,38.376049,-5.999326,0,0,0,0,1,0,0,0,3,2,0,0,0,0,0,0,0,0,0
Higuera de Vargas,Badajoz,Higuera de Vargas,38.445993,-6.974924,0,0,0,2,0,1,0,0,0,3,0,0,0,0,0,0,0,0,0
Higuera la Real,Badajoz,Higuera la Real,38.140849,-6.689688,0,0,0,2,0,0,0,0,1,0,0,0,0,0,0,0,3,0,0
Hinojosa del Valle,Badajoz,Hinojosa del Valle,38.483356,-6.184975,0,3,0,0,0,0,0,0,0,1,2,0,0,0,0,0,0,0,0
Hornachos,Badajoz,Hornachos,38.552797,-6.067863,0,0,0,3,0,0,0,0,0,1,2,0,0,0,0,0,0,0,0
Jerez de los Caballeros,Badajoz,Jerez de los Caballeros,38.323191,-6.768334,3,0,0,0,0,0,0,0,0,2,1,0,0,0,0,0,0,0,0
Lapa (La),Badajoz,La Lapa,38.45,-6.51667,0,0,0,3,1,0,0,0,0,2,0,0,0,0,0,0,0,0,0
Llera,Badajoz,Llera,38.446292,-6.057016,3,0,0,1,0,0,0,0,2,0,0,0,0,0,0,0,0,0,0
Llerena,Badajoz,Llerena,38.236797,-6.014742,1,0,0,0,0,3,0,0,2,0,0,0,0,0,0,0,0,0,0
Lobón,Badajoz,Lobón,38.849937,-6.624885,0,2,0,1,0,0,0,0,0,3,0,0,0,0,0,0,0,0,0
Magacela,Badajoz,Magacela,38.895194,-5.725719,1,0,2,3,0,0,0,0,0,0,0,0,0,0,0,0,0,0,0
Maguilla,Badajoz,Maguilla,38.366699,-5.838887,0,0,0,1,3,0,2,0,0,0,0,0,0,0,0,0,0,0,0
Malcocinado,Badajoz,Malcocinado,38.122861,-5.691956,0,0,0,0,1,0,0,0,0,2,0,0,0,0,0,0,0,0,0
Malpartida de la Serena,Badajoz,Malpartida de la Serena,38.6747,-5.64054,0,0,0,2,0,3,0,0,0,1,0,0,0,0,0,0,0,0,0
Manchita,Badajoz,Manchita,38.81404,-6.02041,0,0,0,1,2,0,0,0,3,0,0,0,0,0,0,0,0,0,0
Medellín,Badajoz,Medellín,38.962575,-5.958762,1,3,0,0,0,0,0,0,0,2,0,0,0,0,0,0,0,0,0
Medina de las Torres,Badajoz,Medina de las Torres,38.342121,-6.412546,0,3,0,2,0,0,0,0,0,1,0,0,0,0,0,0,0,0,0
Mengabril,Badajoz,Mengabril,38.93554,-5.93335,2,3,0,0,0,0,0,0,0,1,0,0,0,0,0,0,0,0,0
Mérida,Badajoz,Mérida,38.920403,-6.33538,2,1,0,3,0,0,0,0,0,0,0,0,0,0,0,0,0,0,0
Mirandilla,Badajoz,Mirandilla,39.000519,-6.289964,0,0,0,1,0,0,0,0,0,2,3,0,0,0,0,0,0,0,0
Monesterio,Badajoz,Monesterio,38.088659,-6.272569,0,0,0,3,0,1,0,0,2,0,0,0,0,0,0,0,0,0,0
Montemolín,Badajoz,Montemolín,38.15,-6.2,0,2,0,0,0,0,3,0,0,1,0,0,0,0,0,0,0,0,0
Monterrubio de la Serena,Badajoz,Monterrubio de la Serena,38.588876,-5.446405,0,0,0,0,0,0,0,0,3,2,1,0,0,0,0,0,0,0,0
Montijo,Badajoz,Montijo,38.910012,-6.614332,1,0,0,0,0,2,0,0,3,0,0,0,0,0,0,0,0,0,0
Morera (La),Badajoz,La Morera,38.566233,-6.67151,0,0,0,1,3,0,0,0,0,2,0,0,0,0,0,0,0,0,0
Nava de Santiago (La),Badajoz,La Nava de Santiago,39.062982,-6.505422,2,0,0,0,0,3,0,0,0,1,0,0,0,0,0,0,0,0,0
Navalvillar de Pela,Badajoz,Navalvillar de Pela,39.090167,-5.468177,0,0,0,1,0,0,0,0,0,0,2,0,0,3,0,0,0,0,0
Nogales,Badajoz,Nogales,38.587031,-6.748208,0,0,0,2,0,0,0,0,0,1,3,0,0,0,0,0,0,0,0
Oliva de la Frontera,Badajoz,Oliva de la Frontera,38.276966,-6.917721,1,0,0,2,0,0,0,0,3,0,0,0,0,0,0,0,0,0,0
Oliva de Mérida,Badajoz,Oliva de Mérida,38.790375,-6.125274,0,0,0,2,1,0,0,0,0,3,0,0,0,0,0,0,0,0,0
Olivenza,Badajoz,Olivenza,38.683248,-7.099145,0,2,0,1,0,0,3,0,0,0,0,0,0,0,0,0,0,0,0
Orellana de la Sierra,Badajoz,Orellana de la Sierra,39.019482,-5.507367,0,0,0,1,2,0,0,0,3,0,0,0,0,0,0,0,0,0,0
Orellana la Vieja,Badajoz,Orellana la Vieja,39.004239,-5.535969,0,0,0,1,0,3,0,0,2,0,0,0,0,0,0,0,0,0,0
Palomas,Badajoz,Palomas,38.693202,-6.134943,0,0,0,1,2,0,0,0,0,0,3,0,0,0,0,0,0,0,0
Parra (La),Badajoz,La Parra,38.521641,-6.622352,0,3,0,2,0,0,0,0,1,0,0,0,0,0,0,0,0,0,0
Peñalsordo,Badajoz,Peñalsordo,38.819576,-5.114346,0,0,0,0,1,0,0,0,0,2,3,0,0,0,0,0,0,0,0
Peraleda del Zaucejo,Badajoz,Peraleda del Zaucejo,38.473821,-5.565506,0,2,0,1,0,0,0,0,0,3,0,0,0,0,0,0,0,0,0
Puebla de Alcocer,Badajoz,Puebla de Alcocer,38.985527,-5.256793,0,3,0,0,0,0,0,0,2,0,1,0,0,0,0,0,0,0,0
Puebla de la Calzada,Badajoz,Puebla de la Calzada,38.892895,-6.62529,0,0,0,1,2,0,0,0,0,3,0,0,0,0,0,0,0,0,0
Puebla de la Reina,Badajoz,Puebla de la Reina,38.66511,-6.101906,0,0,0,1,0,0,2,0,0,3,0,0,0,0,0,0,0,0,0
Puebla de Obando,Badajoz,Puebla de Obando,39.175682,-6.626117,0,0,0,1,0,0,0,0,3,2,0,0,0,0,0,0,0,0,0
Puebla de Sancho Pérez,Badajoz,Puebla de Sancho Pérez,38.396352,-6.39873,0,0,0,1,0,3,0,0,0,2,0,0,0,0,0,0,0,0,0
Puebla del Maestre,Badajoz,Puebla del Maestre,38.085132,-6.078725,0,0,0,0,1,0,0,0,2,0,3,0,0,0,0,0,0,0,0
Puebla del Prior,Badajoz,Puebla del Prior,38.570397,-6.195755,0,0,0,1,0,0,0,0,0,2,3,0,0,0,0,0,0,0,0
Pueblonuevo del Guadiana,Badajoz,Pueblonuevo del Guadiana,38.923141,-6.75574,0,0,0,0,1,2,0,0,0,0,0,3,0,0,0,0,0,0,0
Quintana de la Serena,Badajoz,Quintana de la Serena,38.742574,-5.673837,0,0,0,1,0,3,0,0,0,0,2,0,0,0,0,0,0,0,0
Reina,Badajoz,Reina,38.18333,-5.95,0,0,0,2,1,0,0,0,0,3,0,0,0,0,0,0,0,0,0
Rena,Badajoz,Rena,39.05252,-5.80868,0,0,0,1,0,0,0,0,0,2,3,0,0,0,0,0,0,0,0
Retamal de Llerena,Badajoz,Retamal de Llerena,38.577342,-5.839096,0,0,0,1,0,0,3,0,0,2,0,0,0,0,0,0,0,0,0
Ribera del Fresno,Badajoz,Ribera del Fresno,38.550737,-6.238055,3,0,0,1,0,0,2,0,0,0,0,0,0,0,0,0,0,0,0
Risco,Badajoz,Risco,38.891789,-5.114785,0,0,0,0,2,0,3,0,0,1,0,0,0,0,0,0,0,0,0
Roca de la Sierra (La),Badajoz,La Roca de la Sierra,39.107242,-6.688593,1,0,0,2,0,0,0,0,0,0,3,0,0,0,0,0,0,0,0
Salvaleón,Badajoz,Salvaleón,38.510694,-6.785731,0,0,0,0,0,0,3,0,0,1,2,0,0,0,0,0,0,0,0
Salvatierra de los Barros,Badajoz,Salvatierra de los Barros,38.491343,-6.684296,0,0,0,2,0,0,0,0,0,1,3,0,0,0,0,0,0,0,0
San Pedro de Mérida,Badajoz,San Pedro de Mérida,38.949408,-6.187106,0,0,0,0,1,2,0,0,0,0,3,0,0,0,0,0,0,0,0
San Vicente de Alcántara,Badajoz,San Vicente de Alcántara,39.360878,-7.138322,0,0,0,2,0,1,0,0,0,3,0,0,0,0,0,0,0,0,0
Sancti-Spíritus,Badajoz,Sancti-Spíritus,38.916798,-5.175599,0,0,0,0,2,0,3,0,0,1,0,0,0,0,0,0,0,0,0
Santa Amalia,Badajoz,Santa Amalia,39.011502,-6.009702,0,2,0,1,0,0,0,0,0,3,0,0,0,0,0,0,0,0,0
Santa Marta,Badajoz,Santa Marta,38.613684,-6.627812,0,0,0,1,0,0,0,0,0,3,2,0,0,0,0,0,0,0,0
Santos de Maimona (Los),Badajoz,Los Santos de Maimona,38.44777,-6.376137,0,0,0,1,0,0,0,0,2,0,3,0,0,0,0,0,0,0,0
Segura de León,Badajoz,Segura de León,38.120154,-6.529577,0,0,0,0,0,2,0,0,1,0,3,0,0,0,0,0,0,0,0
Siruela,Badajoz,Siruela,38.977951,-5.048693,0,0,0,3,0,0,0,0,1,0,2,0,0,0,0,0,0,0,0
Solana de los Barros,Badajoz,Solana de los Barros,38.725263,-6.538392,1,0,0,2,0,0,3,0,0,0,0,0,0,0,0,0,0,0,0
Talarrubias,Badajoz,Talarrubias,39.03551,-5.234665,0,0,0,0,0,3,2,0,1,0,0,0,0,0,0,0,0,0,0
Talavera la Real,Badajoz,Talavera la Real,38.875892,-6.768634,0,0,0,3,1,2,0,0,0,0,0,0,0,0,0,0,0,0,0
Táliga,Badajoz,Táliga,38.52861,-7.01713,0,0,0,3,2,0,0,0,0,1,0,0,0,0,0,0,0,0,0
Tamurejo,Badajoz,Tamurejo,38.991986,-4.952054,0,2,0,3,1,0,0,0,0,0,0,0,0,0,0,0,0,0,0
Torre de Miguel Sesmero,Badajoz,Torre de Miguel Sesmero,38.618778,-6.7956,0,0,0,2,0,0,3,0,0,1,0,0,0,0,0,0,0,0,0
Torremayor,Badajoz,Torremayor,38.900898,-6.538429,0,0,0,2,0,0,0,0,0,3,1,0,0,0,0,0,0,0,0
Torremejía,Badajoz,Torremejía,38.789071,-6.376616,0,0,0,2,0,0,0,0,0,1,3,0,0,0,0,0,0,0,0
Trasierra,Badajoz,Trasierra,38.18333,-6.0,0,0,0,3,1,0,0,0,0,2,0,0,0,0,0,0,0,0,0
Trujillanos,Badajoz,Trujillanos,38.952801,-6.256589,0,0,0,1,0,0,3,0,0,2,0,0,0,0,0,0,0,0,0
Usagre,Badajoz,Usagre,38.355035,-6.165343,0,0,0,2,0,0,3,0,0,1,0,0,0,0,0,0,0,0,0
Valdecaballeros,Badajoz,Valdecaballeros,39.24786,-5.197937,0,0,0,0,0,0,0,0,2,1,3,0,0,0,0,0,0,0,0
Valdelacalzada,Badajoz,Valdelacalzada,38.888955,-6.701348,0,3,0,2,1,0,0,0,0,0,0,0,0,0,0,0,0,0,0
Valdetorres,Badajoz,Valdetorres,38.915545,-6.068961,0,0,0,1,0,3,0,0,0,2,0,0,0,0,0,0,0,0,0
Valencia de las Torres,Badajoz,Valencia de las Torres,38.40454,-6.003675,0,0,0,0,1,0,0,0,3,2,0,0,0,0,0,0,0,0,0
Valencia del Mombuey,Badajoz,Valencia del Mombuey,38.242046,-7.119303,0,0,0,3,1,0,0,0,0,2,0,0,0,0,0,0,0,0,0
Valencia del Ventoso,Badajoz,Valencia del Ventoso,38.26603,-6.47387,0,0,0,2,0,0,0,0,0,1,3,0,0,0,0,0,0,0,0
Valle de la Serena,Badajoz,Valle de la Serena,38.702375,-5.798414,0,0,0,1,0,0,0,0,0,2,3,0,0,0,0,0,0,0,0
Valle de Matamoros,Badajoz,Valle de Matamoros,38.37889,-6.80371,0,0,0,1,3,0,0,0,0,2,0,0,0,0,0,0,0,0,0
Valle de Santa Ana,Badajoz,Valle de Santa Ana,38.363528,-6.787644,0,0,0,2,0,0,0,0,0,1,3,0,0,0,0,0,0,0,0
Valverde de Burguillos,Badajoz,Valverde de Burguillos,38.3271,-6.53648,0,0,0,3,1,0,0,0,0,2,0,0,0,0,0,0,0,0,0
Valverde de Leganés,Badajoz,Valverde de Leganés,38.670196,-6.980389,0,0,0,0,0,1,0,0,2,0,3,0,0,0,0,0,0,0,0
Valverde de Llerena,Badajoz,Valverde de Llerena,38.213203,-5.821879,0,0,0,2,0,0,0,0,0,3,1,0,0,0,0,0,0,0,0
Valverde de Mérida,Badajoz,Valverde de Mérida,38.911671,-6.219633,0,0,0,1,2,0,0,0,0,0,3,0,0,0,0,0,0,0,0
Villafranca de los Barros,Badajoz,Villafranca de los Barros,38.56199,-6.341567,0,0,0,3,0,2,0,0,1,0,0,0,0,0,0,0,0,0,0
Villagarcía de la Torre,Badajoz,Villagarcía de la Torre,38.292562,-6.078689,0,0,0,1,0,2,0,0,3,0,0,0,0,0,0,0,0,0,0
Villagonzalo,Badajoz,Villagonzalo,38.862844,-6.196879,0,0,0,1,0,0,3,0,0,2,0,0,0,0,0,0,0,0,0
Villalba de los Barros,Badajoz,Villalba de los Barros,38.612942,-6.508735,0,0,0,1,0,0,0,0,0,2,3,0,0,0,0,0,0,0,0
Villanueva de la Serena,Badajoz,Villanueva de la Serena,38.975483,-5.797218,0,3,0,1,0,0,2,0,0,0,0,0,0,0,0,0,0,0,0
Villanueva del Fresno,Badajoz,Villanueva del Fresno,38.374526,-7.167092,0,0,0,1,0,2,0,0,0,3,0,0,0,0,0,0,0,0,0
Villar de Rena,Badajoz,Villar de Rena,39.110391,-5.739894,0,0,0,1,2,0,0,0,3,0,0,0,0,0,0,0,0,0,0
Villar del Rey,Badajoz,Villar del Rey,39.131499,-6.849196,0,0,0,0,1,2,0,0,0,0,0,0,0,0,0,0,0,0,0
Villarta de los Montes,Badajoz,Villarta de los Montes,39.21386,-4.79227,0,0,0,0,1,0,0,0,0,2,0,0,0,0,0,0,0,0,0
Zafra,Badajoz,Zafra,38.422232,-6.412671,1,0,0,0,0,0,0,0,2,3,0,0,0,0,0,0,0,0,0
Zahínos,Badajoz,Zahínos,38.330241,-6.9546,2,0,0,0,3,0,0,0,0,0,1,0,0,0,0,0,0,0,0
Zalamea de la Serena,Badajoz,Zalamea de la Serena,38.650717,-5.658486,0,0,0,1,0,0,3,0,0,0,2,0,0,0,0,0,0,0,0
Zarza (La),Badajoz,La Zarza,38.811111,-6.215245,0,0,0,1,0,0,0,0,3,2,0,0,0,0,0,0,0,0,0
Zarza-Capilla,Badajoz,Zarza-Capilla,38.80711,-5.15682,0,0,0,1,0,0,3,0,0,2,0,0,0,0,0,0,0,0,0
Alaior,Illes Balears,Alaior,39.932119,4.13792,1,0,0,0,0,3,0,0,2,0,0,0,0,0,0,0,0,0,0
Alaró,Illes Balears,Alaró,39.7049,2.793441,1,0,0,0,0,0,0,0,3,0,0,2,0,0,0,0,0,0,0
Alcúdia,Illes Balears,Alcúdia,39.86072,3.118993,0,0,0,3,2,0,0,0,0,1,0,0,0,0,0,0,0,0,0
Algaida,Illes Balears,Algaida,39.55894,2.892537,1,0,0,0,0,0,0,0,2,0,3,0,0,0,0,0,0,0,0
Andratx,Illes Balears,Andratx,39.57429,2.420509,1,0,0,0,0,0,0,0,2,0,3,0,0,0,0,0,0,0,0
Ariany,Illes Balears,Ariany,39.650915,3.11245,1,0,0,0,0,3,0,0,0,0,2,0,0,0,0,0,0,0,0
Artà,Illes Balears,Artà,39.69293,3.350646,2,0,0,0,0,3,0,0,1,0,0,0,0,0,0,0,0,0,0
Banyalbufar,Illes Balears,Banyalbufar,39.68734,2.51409,2,0,3,0,0,0,0,0,1,0,0,0,0,0,0,0,0,0,0
Binissalem,Illes Balears,Binissalem,39.689121,2.843071,0,0,0,0,0,0,0,0,1,3,2,0,0,0,0,0,0,0,0
Búger,Illes Balears,Búger,39.75809,2.98349,0,1,0,0,2,3,0,0,0,0,0,0,0,0,0,0,0,0,0
Bunyola,Illes Balears,Bunyola,39.694825,2.700963,1,0,0,0,0,3,0,0,2,0,0,0,0,0,0,0,0,0,0
Calvià,Illes Balears,Calvià,39.566048,2.506248,0,0,0,2,0,0,0,0,3,0,1,0,0,0,0,0,0,0,0
Campanet,Illes Balears,Campanet,39.775651,2.964347,3,0,0,0,0,0,0,0,1,0,2,0,0,0,0,0,0,0,0
Campos,Illes Balears,Campos,39.430852,3.019209,1,0,0,0,0,3,0,0,2,0,0,0,0,0,0,0,0,0,0
Capdepera,Illes Balears,Capdepera,39.714978,3.461558,1,0,0,0,0,0,0,0,3,2,0,0,0,0,0,0,0,0,0
Castell (Es),Illes Balears,Es Castell,39.8776,4.2899,2,0,0,0,0,3,0,0,1,0,0,0,0,0,0,0,0,0,0
Ciutadella de Menorca,Illes Balears,Ciutadella de Menorca,40.001435,3.838817,2,0,0,0,0,0,0,3,1,0,0,0,0,0,0,0,0,0,0
Consell,Illes Balears,Consell,39.668236,2.812239,3,0,0,0,0,0,0,0,1,0,2,0,0,0,0,0,0,0,0
Costitx,Illes Balears,Costitx,39.65675,2.94953,2,0,0,3,0,0,0,0,0,1,0,0,0,0,0,0,0,0,0
Deià,Illes Balears,Deià,39.74806,2.64823,0,0,3,0,0,0,0,0,2,0,0,1,0,0,0,0,0,0,0
Eivissa,Illes Balears,Eivissa,38.908487,1.431386,1,0,0,0,0,2,0,0,3,0,0,0,0,0,0,0,0,0,0
Escorca,Illes Balears,Escorca,39.842018,2.779031,0,0,0,0,1,0,0,0,3,0,0,0,2,0,0,0,0,0,0
Esporles,Illes Balears,Esporles,39.66702,2.579695,1,0,0,0,0,0,0,0,3,0,2,0,0,0,0,0,0,0,0
Estellencs,Illes Balears,Estellencs,39.653465,2.481365,0,0,0,1,0,0,0,0,3,0,2,0,0,0,0,0,0,0,0
Felanitx,Illes Balears,Felanitx,39.470625,3.148632,1,0,0,0,0,3,0,0,2,0,0,0,0,0,0,0,0,0,0
Ferreries,Illes Balears,Ferreries,39.983462,4.012557,2,0,0,3,0,0,0,0,0,0,0,1,0,0,0,0,0,0,0
Formentera,Illes Balears,Formentera,38.703041,1.427104,0,0,0,0,0,2,0,0,1,3,0,0,0,0,0,0,0,0,0
Fornalutx,Illes Balears,Fornalutx,39.78232,2.74107,0,0,0,0,0,3,0,0,2,1,0,0,0,0,0,0,0,0,0
Inca,Illes Balears,Inca,39.718621,2.90814,2,0,0,0,0,0,0,0,1,0,3,0,0,0,0,0,0,0,0
Lloret de Vistalegre,Illes Balears,Lloret de Vistalegre,39.617377,2.975041,0,0,0,0,3,0,0,0,0,2,1,0,0,0,0,0,0,0,0
Lloseta,Illes Balears,Lloseta,39.718307,2.869172,1,0,0,0,0,0,0,0,2,0,3,0,0,0,0,0,0,0,0
Llubí,Illes Balears,Llubí,39.700055,3.005589,0,0,0,3,0,0,0,0,2,0,1,0,0,0,0,0,0,0,0
Llucmajor,Illes Balears,Llucmajor,39.490416,2.889804,2,0,0,0,0,3,0,0,1,0,0,0,0,0,0,0,0,0,0
Manacor,Illes Balears,Manacor,39.569516,3.206466,1,0,0,0,0,0,0,0,3,0,2,0,0,0,0,0,0,0,0
Mancor de la Vall,Illes Balears,Mancor de la Vall,39.749956,2.873383,0,0,0,0,0,0,0,0,3,1,2,0,0,0,0,0,0,0,0
Maó-Mahón,Illes Balears,Maó-Mahón,39.886087,4.261187,0,0,0,2,0,0,0,0,0,3,0,1,0,0,0,0,0,0,0
Maria de la Salut,Illes Balears,Maria de la Salut,39.665506,3.071064,1,0,0,0,0,0,0,0,3,0,2,0,0,0,0,0,0,0,0
Marratxí,Illes Balears,Marratxí,39.638159,2.754566,0,0,3,0,2,0,0,0,0,0,0,1,0,0,0,0,0,0,0
Mercadal (Es),Illes Balears,Es Mercadal,39.988204,4.093772,2,0,0,0,0,0,0,0,3,0,0,1,0,0,0,0,0,0,0
Migjorn Gran (Es),Illes Balears,Es Migjorn Gran,39.94698,4.049753,0,0,0,0,0,2,0,0,0,0,3,1,0,0,0,0,0,0,0
Montuïri,Illes Balears,Montuïri,39.563663,2.980121,0,0,0,0,0,0,0,0,2,3,1,0,0,0,0,0,0,0,0
Muro,Illes Balears,Muro,39.734756,3.055532,1,0,0,0,0,0,0,0,3,0,2,0,0,0,0,0,0,0,0
Palma,Illes Balears,Palma,39.575748,2.656644,1,0,0,0,0,0,0,0,3,2,0,0,0,0,0,0,0,0,0
Petra,Illes Balears,Petra,39.613472,3.113692,3,0,0,0,0,2,0,0,1,0,0,0,0,0,0,0,0,0,0
Pobla (Sa),Illes Balears,Sa Pobla,39.7692,3.02394,2,0,0,0,0,3,0,0,1,0,0,0,0,0,0,0,0,0,0
Pollença,Illes Balears,Pollença,39.877882,3.015565,2,3,0,0,0,0,0,0,1,0,0,0,0,0,0,0,0,0,0
Porreres,Illes Balears,Porreres,39.514881,3.023458,0,0,0,0,0,3,0,0,1,0,2,0,0,0,0,0,0,0,0
Puigpunyent,Illes Balears,Puigpunyent,39.622266,2.523958,0,0,0,3,1,0,0,0,2,0,0,0,0,0,0,0,0,0,0
Salines (Ses),Illes Balears,Ses Salines,39.338559,3.051021,2,0,0,3,0,0,0,0,1,0,0,0,0,0,0,0,0,0,0
Sant Antoni de Portmany,Illes Balears,Sant Antoni de Portmany,38.968799,1.290567,0,0,1,0,0,0,0,0,2,3,0,0,0,0,0,0,0,0,0
Sant Joan,Illes Balears,Sant Joan,39.595726,3.039081,3,0,0,0,0,0,0,0,1,0,2,0,0,0,0,0,0,0,0
Sant Joan de Labritja,Illes Balears,Sant Joan de Labritja,39.077698,1.513265,0,0,0,0,2,0,0,0,3,0,0,1,0,0,0,0,0,0,0
Sant Josep de sa Talaia,Illes Balears,Sant Josep de sa Talaia,38.918679,1.291823,0,0,0,0,3,0,0,0,1,0,0,2,0,0,0,0,0,0,0
Sant Llorenç des Cardassar,Illes Balears,Sant Llorenç des Cardassar,39.610844,3.285971,2,0,0,0,0,0,0,0,1,3,0,0,0,0,0,0,0,0,0
Sant Lluís,Illes Balears,Sant Lluís,39.849761,4.257916,1,0,0,0,0,2,0,0,3,0,0,0,0,0,0,0,0,0,0
Santa Eugènia,Illes Balears,Santa Eugènia,39.623846,2.838577,0,0,0,0,0,3,0,0,0,1,2,0,0,0,0,0,0,0,0
Santa Eulària des Riu,Illes Balears,Santa Eulària des Riu,38.987302,1.542442,0,0,0,3,0,0,0,0,1,2,0,0,0,0,0,0,0,0,0
Santa Margalida,Illes Balears,Santa Margalida,39.703191,3.103177,1,0,0,0,0,3,0,0,0,0,2,0,0,0,0,0,0,0,0
Santa María del Camí,Illes Balears,Santa María del Camí,39.648828,2.775023,2,0,0,3,0,0,0,0,0,0,0,1,0,0,0,0,0,0,0
Santanyí,Illes Balears,Santanyí,39.355946,3.129117,1,0,3,0,0,2,0,0,0,0,0,0,0,0,0,0,0,0,0
Selva,Illes Balears,Selva,39.75436,2.889076,0,0,0,0,1,0,0,0,0,3,0,2,0,0,0,0,0,0,0
Sencelles,Illes Balears,Sencelles,39.646892,2.899581,0,3,0,0,0,0,0,0,0,2,1,0,0,0,0,0,0,0,0
Sineu,Illes Balears,Sineu,39.643647,3.010668,2,0,0,0,0,0,0,0,3,0,1,0,0,0,0,0,0,0,0
Sóller,Illes Balears,Sóller,39.767345,2.715649,1,0,3,0,0,0,0,0,2,0,0,0,0,0,0,0,0,0,0
Son Servera,Illes Balears,Son Servera,39.61802,3.364648,1,0,0,0,0,0,0,0,2,0,3,0,0,0,0,0,0,0,0
Valldemossa,Illes Balears,Valldemossa,39.710098,2.625143,0,1,0,0,2,0,0,0,3,0,0,0,0,0,0,0,0,0,0
Vilafranca de Bonany,Illes Balears,Vilafranca de Bonany,39.569607,3.088169,2,0,0,0,0,3,0,0,1,0,0,0,0,0,0,0,0,0,0
Abrera,Barcelona,Abrera,41.49669,1.900894,0,0,0,0,1,0,0,0,0,0,2,3,0,0,0,0,0,0,0
Aguilar de Segarra,Barcelona,Aguilar de Segarra,41.74822,1.62919,0,3,0,0,1,0,0,0,0,2,0,0,0,0,0,0,0,0,0
Aiguafreda,Barcelona,Aiguafreda,41.768409,2.25115,1,3,0,0,0,0,0,0,2,0,0,0,0,0,0,0,0,0,0
Alella,Barcelona,Alella,41.496137,2.291909,0,0,0,2,0,0,0,0,0,1,0,3,0,0,0,0,0,0,0
Alpens,Barcelona,Alpens,42.1193,2.10135,3,2,0,0,1,0,0,0,0,0,0,0,0,0,0,0,0,0,0
Ametlla del Vallès (L'),Barcelona,L' Ametlla del Vallès,41.668354,2.259358,0,0,0,3,2,0,0,0,0,0,0,1,0,0,0,0,0,0,0
Arenys de Mar,Barcelona,Arenys de Mar,41.582411,2.551104,0,0,0,2,0,0,0,3,0,1,0,0,0,0,0,0,0,0,0
Arenys de Munt,Barcelona,Arenys de Munt,41.608144,2.539527,0,0,0,1,0,3,0,0,2,0,0,0,0,0,0,0,0,0,0
Argençola,Barcelona,Argençola,41.59486,1.46953,0,2,0,0,1,0,0,0,0,3,0,0,0,0,0,0,0,0,0
Argentona,Barcelona,Argentona,41.550913,2.398359,0,0,0,2,0,0,0,0,0,1,0,0,0,0,0,0,0,0,0
Artés,Barcelona,Artés,41.796591,1.95034,3,0,0,0,0,0,0,0,2,1,0,0,0,0,0,0,0,0,0
Avià,Barcelona,Avià,42.07452,1.825439,0,0,0,3,0,0,0,0,2,1,0,0,0,0,0,0,0,0,0
Avinyó,Barcelona,Avinyó,41.863596,1.971087,1,0,0,2,0,0,0,0,3,0,0,0,0,0,0,0,0,0,0
Avinyonet del Penedès,Barcelona,Avinyonet del Penedès,41.34284,1.812017,0,2,0,3,1,0,0,0,0,0,0,0,0,0,0,0,0,0,0
Badalona,Barcelona,Badalona,41.443092,2.231575,3,0,0,0,0,0,0,0,2,1,0,0,0,0,0,0,0,0,0
Badia del Vallès,Barcelona,Badia del Vallès,41.508766,2.116891,2,0,0,1,0,3,0,0,0,0,0,0,0,0,0,0,0,0,0
Bagà,Barcelona,Bagà,42.251064,1.865122,1,0,0,3,2,0,0,0,0,0,0,0,0,0,0,0,0,0,0
Balenyà,Barcelona,Balenyà,41.813418,2.234902,3,0,0,0,1,2,0,0,0,0,0,0,0,0,0,0,0,0,0
Balsareny,Barcelona,Balsareny,41.862399,1.874544,1,0,0,0,0,0,0,0,2,3,0,0,0,0,0,0,0,0,0
Barberà del Vallès,Barcelona,Barberà del Vallès,41.517308,2.125243,2,0,0,1,0,0,0,0,0,3,0,0,0,0,0,0,0,0,0
Barcelona,Barcelona,Barcelona,41.3825,2.176944,1,0,0,0,0,3,0,0,2,0,0,0,0,0,0,0,0,0,0
Begues,Barcelona,Begues,41.333881,1.916065,0,0,0,0,0,0,0,0,0,1,2,0,0,0,0,0,0,0,0
Bellprat,Barcelona,Bellprat,41.51695,1.43333,0,0,0,0,1,0,0,0,0,0,3,0,2,0,0,0,0,0,0
Berga,Barcelona,Berga,42.101496,1.844016,1,2,0,0,0,0,0,0,3,0,0,0,0,0,0,0,0,0,0
Bigues i Riells,Barcelona,Bigues i Riells,41.670439,2.201504,0,0,0,0,3,0,0,0,0,2,0,1,0,0,0,0,0,0,0
Borredà,Barcelona,Borredà,42.13564,1.99428,0,0,0,0,1,0,0,0,0,2,3,0,0,0,0,0,0,0,0
Bruc (El),Barcelona,El Bruc,41.58333,1.78333,2,0,0,0,1,0,0,0,3,0,0,0,0,0,0,0,0,0,0
Brull (El),Barcelona,El Brull,41.81657,2.30531,0,0,0,0,1,0,0,0,0,2,0,3,0,0,0,0,0,0,0
Cabanyes (Les),Barcelona,Les Cabanyes,41.37287,1.688919,0,2,0,3,1,0,0,0,0,0,0,0,0,0,0,0,0,0,0
Cabrera d'Anoia,Barcelona,Cabrera d'Anoia,41.485582,1.709933,0,3,0,0,1,0,0,0,0,2,0,0,0,0,0,0,0,0,0
Cabrera de Mar,Barcelona,Cabrera de Mar,41.527272,2.397678,0,0,0,0,2,0,0,0,0,1,0,0,0,0,0,0,0,0,0
Cabrils,Barcelona,Cabrils,41.52819,2.368618,1,0,0,0,0,0,0,0,0,2,0,3,0,0,0,0,0,0,0
Calaf,Barcelona,Calaf,41.731601,1.516317,0,0,0,2,0,3,0,0,0,1,0,0,0,0,0,0,0,0,0
Calders,Barcelona,Calders,41.783381,1.98081,0,0,0,0,1,0,0,0,0,2,3,0,0,0,0,0,0,0,0
Caldes de Montbui,Barcelona,Caldes de Montbui,41.630059,2.16897,0,0,0,2,0,0,0,0,1,0,3,0,0,0,0,0,0,0,0
Caldes d'Estrac,Barcelona,Caldes d'Estrac,41.56506,2.513271,0,0,0,2,0,0,0,0,0,1,0,0,0,0,0,0,0,0,0
Calella,Barcelona,Calella,41.614211,2.655708,1,0,0,0,0,2,0,0,0,3,0,0,0,0,0,0,0,0,0
Calldetenes,Barcelona,Calldetenes,41.952271,2.280429,2,0,0,0,1,0,0,0,0,3,0,0,0,0,0,0,0,0,0
Callús,Barcelona,Callús,41.782097,1.783982,0,0,0,0,1,0,0,0,3,2,0,0,0,0,0,0,0,0,0
Calonge de Segarra,Barcelona,Calonge de Segarra,41.76132,1.47715,0,2,0,0,1,0,0,0,0,0,3,0,0,0,0,0,0,0,0
Campins,Barcelona,Campins,41.71667,2.46667,0,0,0,3,1,0,0,0,0,2,0,0,0,0,0,0,0,0,0
Canet de Mar,Barcelona,Canet de Mar,41.590931,2.580201,1,0,0,3,0,0,0,0,0,2,0,0,0,0,0,0,0,0,0
Canovelles,Barcelona,Canovelles,41.61667,2.28333,2,0,0,1,0,0,0,0,3,0,0,0,0,0,0,0,0,0,0
Cànoves i Samalús,Barcelona,Cànoves i Samalús,41.68333,2.35,0,0,0,0,1,0,0,0,0,3,0,2,0,0,0,0,0,0,0
Canyelles,Barcelona,Canyelles,41.272894,1.713749,0,1,0,3,2,0,0,0,0,0,0,0,0,0,0,0,0,0,0
Capellades,Barcelona,Capellades,41.530204,1.685225,0,0,0,2,3,0,0,0,0,1,0,0,0,0,0,0,0,0,0
Capolat,Barcelona,Capolat,42.0772,1.75352,0,2,0,0,1,0,0,0,0,3,0,0,0,0,0,0,0,0,0
Cardedeu,Barcelona,Cardedeu,41.641295,2.358295,1,0,0,2,0,0,0,0,3,0,0,0,0,0,0,0,0,0,0
Cardona,Barcelona,Cardona,41.910243,1.675859,0,3,0,0,2,0,0,0,0,1,0,0,0,0,0,0,0,0,0
Carme,Barcelona,Carme,41.53198,1.62074,0,1,0,3,2,0,0,0,0,0,0,0,0,0,0,0,0,0,0
Casserres,Barcelona,Casserres,42.013164,1.841182,1,0,0,3,2,0,0,0,0,0,0,0,0,0,0,0,0,0,0
Castell de l'Areny,Barcelona,Castell de l'Areny,42.17291,1.94529,0,3,0,2,1,0,0,0,0,0,0,0,0,0,0,0,0,0,0
Castellar de n'Hug,Barcelona,Castellar de n'Hug,42.28333,2.01667,3,1,0,0,2,0,0,0,0,0,0,0,0,0,0,0,0,0,0
Castellar del Riu,Barcelona,Castellar del Riu,42.12299,1.77378,0,2,0,0,1,0,0,0,0,0,0,0,0,0,0,0,0,0,0
Castellar del Vallès,Barcelona,Castellar del Vallès,41.614909,2.086842,1,0,0,0,0,2,0,0,3,0,0,0,0,0,0,0,0,0,0
Castellbell i el Vilar,Barcelona,Castellbell i el Vilar,41.63395,1.86394,3,0,0,0,1,0,0,0,0,2,0,0,0,0,0,0,0,0,0
Castellbisbal,Barcelona,Castellbisbal,41.474096,1.981281,0,0,0,1,0,0,0,0,0,2,3,0,0,0,0,0,0,0,0
Castellcir,Barcelona,Castellcir,41.76074,2.16128,2,0,0,3,1,0,0,0,0,0,0,0,0,0,0,0,0,0,0
Castelldefels,Barcelona,Castelldefels,41.277848,1.972694,2,0,0,3,0,0,0,0,1,0,0,0,0,0,0,0,0,0,0
Castellet i la Gornal,Barcelona,Castellet i la Gornal,41.266732,1.650145,0,0,0,2,1,0,0,0,0,0,0,0,0,0,0,0,0,0,0
Castellfollit de Riubregós,Barcelona,Castellfollit de Riubregós,41.76667,1.43333,0,0,0,0,1,0,0,0,0,2,3,0,0,0,0,0,0,0,0
Castellfollit del Boix,Barcelona,Castellfollit del Boix,41.66667,1.7,0,3,0,0,1,0,0,0,0,2,0,0,0,0,0,0,0,0,0
Castellgalí,Barcelona,Castellgalí,41.67492,1.82103,0,2,0,0,1,0,0,0,0,0,3,0,0,0,0,0,0,0,0
Castellnou de Bages,Barcelona,Castellnou de Bages,41.83444,1.83721,0,3,0,0,1,0,0,0,0,2,0,0,0,0,0,0,0,0,0
Castellolí,Barcelona,Castellolí,41.59829,1.70057,3,0,0,0,1,0,0,0,0,2,0,0,0,0,0,0,0,0,0
Castellterçol,Barcelona,Castellterçol,41.75209,2.119968,2,0,0,1,0,0,0,0,0,0,3,0,0,0,0,0,0,0,0
Castellví de la Marca,Barcelona,Castellví de la Marca,41.33366,1.61265,0,0,0,1,3,0,0,0,0,2,0,0,0,0,0,0,0,0,0
Castellví de Rosanes,Barcelona,Castellví de Rosanes,41.45,1.9,0,2,0,0,1,3,0,0,0,0,0,0,0,0,0,0,0,0,0
Centelles,Barcelona,Centelles,41.797367,2.223586,1,0,0,0,2,0,0,0,3,0,0,0,0,0,0,0,0,0,0
Cercs,Barcelona,Cercs,42.12749,1.86782,0,2,0,0,1,0,0,0,0,0,0,0,0,0,0,0,0,0,0
Cerdanyola del Vallès,Barcelona,Cerdanyola del Vallès,41.493535,2.137145,1,0,0,3,0,0,0,0,0,2,0,0,0,0,0,0,0,0,0
Cervelló,Barcelona,Cervelló,41.397172,1.960812,0,0,0,3,0,0,0,0,0,1,2,0,0,0,0,0,0,0,0
Collbató,Barcelona,Collbató,41.57009,1.82712,0,0,0,1,2,0,0,0,0,0,3,0,0,0,0,0,0,0,0
Collsuspina,Barcelona,Collsuspina,41.8258,2.17546,0,0,0,0,1,0,0,0,2,3,0,0,0,0,0,0,0,0,0
Copons,Barcelona,Copons,41.63662,1.5181,0,2,0,0,1,0,0,0,0,0,3,0,0,0,0,0,0,0,0
Corbera de Llobregat,Barcelona,Corbera de Llobregat,41.415472,1.928995,0,0,0,2,0,0,0,0,0,1,3,0,0,0,0,0,0,0,0
Cornellà de Llobregat,Barcelona,Cornellà de Llobregat,41.354399,2.072954,2,0,0,1,0,3,0,0,0,0,0,0,0,0,0,0,0,0,0
Cubelles,Barcelona,Cubelles,41.206673,1.676196,0,0,0,0,1,3,0,0,2,0,0,0,0,0,0,0,0,0,0
Dosrius,Barcelona,Dosrius,41.594429,2.405796,0,0,0,3,1,0,0,0,2,0,0,0,0,0,0,0,0,0,0
Esparreguera,Barcelona,Esparreguera,41.537869,1.867658,0,0,0,2,1,0,0,0,0,0,3,0,0,0,0,0,0,0,0
Esplugues de Llobregat,Barcelona,Esplugues de Llobregat,41.36804,2.080015,0,0,0,1,0,3,0,0,0,2,0,0,0,0,0,0,0,0,0
Espunyola (L'),Barcelona,L' Espunyola,41.409602,2.203027,0,0,0,1,0,2,0,0,0,3,0,0,0,0,0,0,0,0,0
Esquirol (L'),Barcelona,L' Esquirol,41.366322,2.012836,0,0,0,2,1,0,0,0,3,0,0,0,0,0,0,0,0,0,0
Estany (L'),Barcelona,L' Estany,42.43665,1.927325,0,0,2,1,3,0,0,0,0,0,0,0,0,0,0,0,0,0,0
Figaró-Montmany,Barcelona,Figaró-Montmany,41.71253,2.247515,0,0,0,0,1,0,0,0,0,2,3,0,0,0,0,0,0,0,0
Fígols,Barcelona,Fígols,42.18102,1.83605,0,0,0,0,1,0,0,0,0,2,3,0,0,0,0,0,0,0,0
Fogars de la Selva,Barcelona,Fogars de la Selva,41.739019,2.679752,0,0,0,0,2,0,0,0,0,3,0,1,0,0,0,0,0,0,0
Fogars de Montclús,Barcelona,Fogars de Montclús,41.73333,2.45,0,0,0,3,1,0,0,0,0,2,0,0,0,0,0,0,0,0,0
Folgueroles,Barcelona,Folgueroles,41.938264,2.314687,2,0,0,0,3,0,0,0,0,1,0,0,0,0,0,0,0,0,0
Fonollosa,Barcelona,Fonollosa,41.759157,1.742004,0,0,0,0,1,0,0,0,0,2,3,0,0,0,0,0,0,0,0
Font-rubí,Barcelona,Font-rubí,41.4343,1.59096,0,1,0,0,2,0,0,0,0,0,3,0,0,0,0,0,0,0,0
Franqueses del Vallès (Les),Barcelona,Les Franqueses del Vallès,41.645286,2.299086,0,0,0,3,2,0,0,0,0,1,0,0,0,0,0,0,0,0,0
Gaià,Barcelona,Gaià,41.91667,1.93333,0,0,0,0,1,0,0,0,2,0,0,0,0,0,0,0,0,0,0
Gallifa,Barcelona,Gallifa,41.693163,2.115456,0,0,0,3,1,0,0,0,0,0,2,0,0,0,0,0,0,0,0
Garriga (La),Barcelona,La Garriga,41.681392,2.285161,2,0,0,3,0,0,0,0,0,0,0,1,0,0,0,0,0,0,0
Gavà,Barcelona,Gavà,41.308083,2.008065,0,0,0,1,0,3,0,0,0,2,0,0,0,0,0,0,0,0,0
Gelida,Barcelona,Gelida,41.445502,1.869174,0,0,0,0,2,0,0,0,0,3,0,1,0,0,0,0,0,0,0
Gironella,Barcelona,Gironella,42.032792,1.880694,1,0,0,0,0,3,0,0,2,0,0,0,0,0,0,0,0,0,0
Gisclareny,Barcelona,Gisclareny,42.26092,1.79821,0,2,0,3,1,0,0,0,0,0,0,0,0,0,0,0,0,0,0
Granada (La),Barcelona,La Granada,41.376935,1.72,1,0,0,3,0,0,0,0,2,0,0,0,0,0,0,0,0,0,0
Granera,Barcelona,Granera,41.72741,2.05924,0,0,0,0,1,0,0,0,0,2,3,0,0,0,0,0,0,0,0
Granollers,Barcelona,Granollers,41.608586,2.297085,0,0,0,2,0,3,0,0,0,1,0,0,0,0,0,0,0,0,0
Gualba,Barcelona,Gualba,41.73333,2.5,0,0,0,0,2,0,0,0,3,1,0,0,0,0,0,0,0,0,0
Guardiola de Berguedà,Barcelona,Guardiola de Berguedà,42.235131,1.876536,0,0,0,0,1,0,0,0,0,0,3,0,0,2,0,0,0,0,0
Gurb,Barcelona,Gurb,41.956196,2.232554,0,0,0,0,1,0,0,0,0,2,3,0,0,0,0,0,0,0,0
Hospitalet de Llobregat (L'),Barcelona,L' Hospitalet de Llobregat,41.361337,2.116416,0,0,0,1,0,2,0,0,0,0,0,0,0,3,0,0,0,0,0
Hostalets de Pierola (Els),Barcelona,Els Hostalets de Pierola,41.541536,1.796359,0,0,0,0,1,0,0,0,2,0,0,0,0,0,0,0,0,0,0
Igualada,Barcelona,Igualada,41.585445,1.623363,1,0,0,0,0,2,0,0,0,3,0,0,0,0,0,0,0,0,0
Jorba,Barcelona,Jorba,41.60193,1.5475,0,0,0,0,1,3,0,0,0,2,0,0,0,0,0,0,0,0,0
Llacuna (La),Barcelona,La Llacuna,41.471035,1.532805,0,2,0,0,1,0,0,0,3,0,0,0,0,0,0,0,0,0,0
Llagosta (La),Barcelona,La Llagosta,41.516109,2.198783,3,0,0,2,0,0,0,0,0,1,0,0,0,0,0,0,0,0,0
Lliçà d'Amunt,Barcelona,Lliçà d'Amunt,41.604612,2.241653,0,0,0,1,3,0,0,0,0,2,0,0,0,0,0,0,0,0,0
Lliçà de Vall,Barcelona,Lliçà de Vall,41.582033,2.237176,0,0,0,1,2,0,0,0,0,0,3,0,0,0,0,0,0,0,0
Llinars del Vallès,Barcelona,Llinars del Vallès,41.642212,2.399957,1,0,0,3,2,0,0,0,0,0,0,0,0,0,0,0,0,0,0
Lluçà,Barcelona,Lluçà,42.05,2.03333,0,3,0,0,1,0,0,0,0,0,2,0,0,0,0,0,0,0,0
Malgrat de Mar,Barcelona,Malgrat de Mar,41.645758,2.739721,3,0,0,1,0,0,0,0,0,2,0,0,0,0,0,0,0,0,0
Malla,Barcelona,Malla,41.89461,2.2437,3,2,0,0,1,0,0,0,0,0,0,0,0,0,0,0,0,0,0
Manlleu,Barcelona,Manlleu,42.002677,2.286046,1,0,0,3,0,0,0,0,0,0,0,0,0,2,0,0,0,0,0
Manresa,Barcelona,Manresa,41.730648,1.831997,1,0,0,3,0,2,0,0,0,0,0,0,0,0,0,0,0,0,0
Marganell,Barcelona,Marganell,41.63388,1.80427,0,2,0,3,1,0,0,0,0,0,0,0,0,0,0,0,0,0,0
Martorell,Barcelona,Martorell,41.481731,1.916816,2,0,0,3,0,0,0,0,0,0,0,0,0,1,0,0,0,0,0
Martorelles,Barcelona,Martorelles,41.529028,2.231623,0,0,0,2,0,0,0,0,0,1,0,0,0,3,0,0,0,0,0
Masies de Roda (Les),Barcelona,Le Masies de Rodas,42.01944,2.23546,0,0,0,2,0,0,0,0,0,1,0,0,0,3,0,0,0,0,0
Masies de Voltregà (Les),Barcelona,Le Masies de Voltregàs,42.024167,2.236111,0,0,0,2,3,0,0,0,0,1,0,0,0,0,0,0,0,0,0
Masnou (El),Barcelona,El Masnou,41.482393,2.312081,0,0,0,2,0,0,0,0,0,1,0,0,0,0,0,0,0,0,0
Masquefa,Barcelona,Masquefa,41.500363,1.812874,2,0,0,3,0,0,0,0,1,0,0,0,0,0,0,0,0,0,0
Matadepera,Barcelona,Matadepera,41.616911,2.012558,0,0,0,3,1,0,0,0,0,2,0,0,0,0,0,0,0,0,0
Mataró,Barcelona,Mataró,41.540517,2.435491,0,2,0,1,0,3,0,0,0,0,0,0,0,0,0,0,0,0,0
Mediona,Barcelona,Mediona,41.483122,1.627702,0,2,0,0,1,0,0,0,0,3,0,0,0,0,0,0,0,0,0
Moià,Barcelona,Moià,41.812045,2.098455,0,0,0,0,1,2,0,0,3,0,0,0,0,0,0,0,0,0,0
Molins de Rei,Barcelona,Molins de Rei,41.41011,2.021963,0,0,0,3,0,2,0,0,0,1,0,0,0,0,0,0,0,0,0
Mollet del Vallès,Barcelona,Mollet del Vallès,41.54126,2.215969,1,0,0,0,0,0,0,0,2,0,0,3,0,0,0,0,0,0,0
Monistrol de Calders,Barcelona,Monistrol de Calders,41.755199,2.015227,0,0,0,3,1,0,0,0,0,0,0,0,0,2,0,0,0,0,0
Monistrol de Montserrat,Barcelona,Monistrol de Montserrat,41.614616,1.848522,0,0,0,0,1,0,0,0,3,2,0,0,0,0,0,0,0,0,0
Montcada i Reixac,Barcelona,Montcada i Reixac,41.482157,2.188071,3,0,0,1,0,0,0,0,0,0,0,2,0,0,0,0,0,0,0
Montclar,Barcelona,Montclar,42.01754,1.76365,0,0,0,0,1,0,0,0,0,0,0,0,0,0,0,0,0,0,0
Montesquiu,Barcelona,Montesquiu,42.11667,2.21667,0,0,0,2,1,0,0,0,0,3,0,0,0,0,0,0,0,0,0
Montgat,Barcelona,Montgat,41.469472,2.282422,3,0,0,0,0,0,0,0,2,0,0,1,0,0,0,0,0,0,0
Montmajor,Barcelona,Montmajor,42.01748,1.73502,2,0,0,0,1,0,0,0,3,0,0,0,0,0,0,0,0,0,0
Montmaneu,Barcelona,Montmaneu,41.71253,2.247515,0,0,0,0,1,0,0,0,0,2,3,0,0,0,0,0,0,0,0
Montmeló,Barcelona,Montmeló,41.560166,2.26475,0,0,0,1,2,3,0,0,0,0,0,0,0,0,0,0,0,0,0
Montornès del Vallès,Barcelona,Montornès del Vallès,41.54147,2.266694,3,0,0,1,0,0,0,0,0,2,0,0,0,0,0,0,0,0,0
Montseny,Barcelona,Montseny,41.75726,2.39944,0,0,0,0,1,3,0,0,2,0,0,0,0,0,0,0,0,0,0
Muntanyola,Barcelona,Muntanyola,41.88333,2.18333,0,0,0,0,1,0,0,0,0,0,3,2,0,0,0,0,0,0,0
Mura,Barcelona,Mura,41.69943,1.97612,3,0,0,0,1,0,0,0,2,0,0,0,0,0,0,0,0,0,0
Navarcles,Barcelona,Navarcles,41.754559,1.908955,0,0,0,2,3,0,0,0,0,1,0,0,0,0,0,0,0,0,0
Navàs,Barcelona,Navàs,41.898534,1.875536,1,0,0,0,0,0,0,0,2,3,0,0,0,0,0,0,0,0,0
Nou de Berguedà (La),Barcelona,La Nou de Berguedà,42.16667,1.88333,0,0,3,0,1,0,0,0,0,2,0,0,0,0,0,0,0,0,0
Òdena,Barcelona,Òdena,41.606033,1.640768,0,0,0,2,1,0,0,0,0,3,0,0,0,0,0,0,0,0,0
Olèrdola,Barcelona,Olèrdola,41.31667,1.71667,0,2,0,3,1,0,0,0,0,0,0,0,0,0,0,0,0,0,0
Olesa de Bonesvalls,Barcelona,Olesa de Bonesvalls,41.35435,1.84907,0,0,0,2,1,0,0,0,0,3,0,0,0,0,0,0,0,0,0
Olesa de Montserrat,Barcelona,Olesa de Montserrat,41.546024,1.887374,0,0,0,1,3,0,0,0,0,2,0,0,0,0,0,0,0,0,0
Olivella,Barcelona,Olivella,41.309904,1.807034,0,2,0,0,1,3,0,0,0,0,0,0,0,0,0,0,0,0,0
Olost,Barcelona,Olost,41.985226,2.094532,0,0,0,3,2,0,0,0,0,1,0,0,0,0,0,0,0,0,0
Olvan,Barcelona,Olvan,42.06667,1.9,0,0,0,0,1,0,0,0,0,2,0,0,3,0,0,0,0,0,0
Orís,Barcelona,Orís,42.05967,2.22066,0,3,0,2,1,0,0,0,0,0,0,0,0,0,0,0,0,0,0
Oristà,Barcelona,Oristà,41.93333,2.06667,2,0,0,0,1,0,0,0,3,0,0,0,0,0,0,0,0,0,0
Orpí,Barcelona,Orpí,41.5187,1.57536,0,1,0,0,2,0,0,0,0,0,0,3,0,0,0,0,0,0,0
Òrrius,Barcelona,Òrrius,41.555313,2.352949,0,0,0,0,2,0,0,0,3,1,0,0,0,0,0,0,0,0,0
Pacs del Penedès,Barcelona,Pacs del Penedès,41.36023,1.65906,2,0,0,0,1,3,0,0,0,0,0,0,0,0,0,0,0,0,0
Palafolls,Barcelona,Palafolls,41.668069,2.751671,0,0,0,2,0,3,0,0,0,0,0,1,0,0,0,0,0,0,0
Palau-solità i Plegamans,Barcelona,Palau-solità i Plegamans,41.582768,2.171902,0,0,0,1,0,0,0,0,0,2,3,0,0,0,0,0,0,0,0
Pallejà,Barcelona,Pallejà,41.419962,1.996692,0,0,0,2,0,0,0,0,3,1,0,0,0,0,0,0,0,0,0
Palma de Cervelló (La),Barcelona,La Palma de Cervelló,41.410722,1.969937,0,2,0,3,0,0,0,0,0,0,0,1,0,0,0,0,0,0,0
Papiol (El),Barcelona,El Papiol,41.438706,2.007361,3,0,0,2,1,0,0,0,0,0,0,0,0,0,0,0,0,0,0
Parets del Vallès,Barcelona,Parets del Vallès,41.572636,2.234415,0,0,0,1,0,0,0,0,3,2,0,0,0,0,0,0,0,0,0
Perafita,Barcelona,Perafita,42.042655,2.106529,0,0,0,3,1,0,0,0,0,0,2,0,0,0,0,0,0,0,0
Piera,Barcelona,Piera,41.524672,1.749059,0,0,0,1,0,2,0,0,0,0,3,0,0,0,0,0,0,0,0
Pineda de Mar,Barcelona,Pineda de Mar,41.630397,2.690832,0,0,0,2,0,3,0,0,0,1,0,0,0,0,0,0,0,0,0
Pla del Penedès (El),Barcelona,El Pla del Penedès,41.41667,1.71667,0,0,0,0,1,2,0,0,3,0,0,0,0,0,0,0,0,0,0
Pobla de Claramunt (La),Barcelona,La Pobla de Claramunt,41.553908,1.677239,0,2,0,0,1,0,0,0,3,0,0,0,0,0,0,0,0,0,0
Pobla de Lillet (La),Barcelona,La Pobla de Lillet,42.243751,1.97636,1,0,0,0,2,0,0,0,3,0,0,0,0,0,0,0,0,0,0
Polinyà,Barcelona,Polinyà,41.542608,2.162721,0,0,0,0,1,3,0,0,0,0,2,0,0,0,0,0,0,0,0
Pont de Vilomara i Rocafort (El),Barcelona,El Pont de Vilomara i Rocafort,41.70726,1.90889,0,2,0,3,1,0,0,0,0,0,0,0,0,0,0,0,0,0,0
Pontons,Barcelona,Pontons,41.41313,1.51458,0,2,0,0,1,0,0,0,0,3,0,0,0,0,0,0,0,0,0
Prat de Llobregat (El),Barcelona,El Prat de Llobregat,41.330291,2.093821,0,0,0,1,2,0,0,0,0,3,0,0,0,0,0,0,0,0,0
Prats de Lluçanès,Barcelona,Prats de Lluçanès,42.008826,2.030915,3,0,0,0,0,0,0,0,2,0,1,0,0,0,0,0,0,0,0
Prats de Rei (Els),Barcelona,Els Prats de Rei,41.70592,1.54319,0,2,0,0,1,0,0,0,0,3,0,0,0,0,0,0,0,0,0
Premià de Dalt,Barcelona,Premià de Dalt,41.5,2.35,0,0,0,2,0,0,0,0,0,1,0,0,0,0,0,0,0,0,0
Premià de Mar,Barcelona,Premià de Mar,41.494808,2.357761,3,0,0,1,0,0,0,0,0,2,0,0,0,0,0,0,0,0,0
Puigdàlber,Barcelona,Puigdàlber,41.4,1.7,0,0,0,3,1,2,0,0,0,0,0,0,0,0,0,0,0,0,0
Puig-reig,Barcelona,Puig-reig,41.968962,1.882443,0,0,0,3,2,0,0,0,0,1,0,0,0,0,0,0,0,0,0
Pujalt,Barcelona,Pujalt,41.7171,1.42088,0,2,0,0,1,0,0,0,0,0,3,0,0,0,0,0,0,0,0
Quar (La),Barcelona,La Quar,42.1,1.98333,0,3,0,0,1,0,0,0,0,0,0,0,2,0,0,0,0,0,0
Rajadell,Barcelona,Rajadell,41.72802,1.70621,0,0,0,0,1,0,0,0,2,0,0,3,0,0,0,0,0,0,0
Rellinars,Barcelona,Rellinars,41.634372,1.908365,0,2,0,0,1,0,0,0,0,0,3,0,0,0,0,0,0,0,0
Ripollet,Barcelona,Ripollet,41.488396,2.167641,0,0,0,1,3,0,0,0,0,0,0,2,0,0,0,0,0,0,0
Roca del Vallès (La),Barcelona,La Roca del Vallès,41.584137,2.32705,2,0,0,0,0,0,0,0,0,1,0,0,0,0,0,0,0,0,0
Roda de Ter,Barcelona,Roda de Ter,41.982193,2.308657,0,0,0,0,2,3,0,0,0,1,0,0,0,0,0,0,0,0,0
Rubí,Barcelona,Rubí,41.489885,2.03218,1,0,0,0,0,2,0,0,3,0,0,0,0,0,0,0,0,0,0
Rubió,Barcelona,Rubió,41.656054,1.571038,0,2,0,0,1,0,0,0,0,0,3,0,0,0,0,0,0,0,0
Rupit i Pruit,Barcelona,Rupit i Pruit,42.01649,2.46005,0,3,0,0,1,0,0,0,2,0,0,0,0,0,0,0,0,0,0
Sabadell,Barcelona,Sabadell,41.544526,2.104533,1,0,0,0,0,0,0,0,3,2,0,0,0,0,0,0,0,0,0
Sagàs,Barcelona,Sagàs,42.05,1.96667,0,0,0,0,1,0,0,0,3,0,0,2,0,0,0,0,0,0,0
Saldes,Barcelona,Saldes,42.23333,1.73333,1,3,0,2,0,0,0,0,0,0,0,0,0,0,0,0,0,0,0
Sallent,Barcelona,Sallent,41.824291,1.894494,0,0,0,2,1,3,0,0,0,0,0,0,0,0,0,0,0,0,0
Sant Adrià de Besòs,Barcelona,Sant Adrià de Besòs,41.4333,2.23333,2,0,0,0,0,0,0,0,1,0,3,0,0,0,0,0,0,0,0
Sant Agustí de Lluçanès,Barcelona,Sant Agustí de Lluçanès,42.08333,2.13333,0,0,0,0,1,0,0,0,2,3,0,0,0,0,0,0,0,0,0
Sant Andreu de la Barca,Barcelona,Sant Andreu de la Barca,41.456871,1.969413,0,0,0,1,0,3,0,0,0,0,2,0,0,0,0,0,0,0,0
Sant Andreu de Llavaneres,Barcelona,Sant Andreu de Llavaneres,41.56667,2.48333,0,0,0,0,0,0,0,0,0,1,0,0,0,0,0,0,0,0,0
Sant Antoni de Vilamajor,Barcelona,Sant Antoni de Vilamajor,41.684875,2.396083,0,0,0,0,1,0,0,0,0,0,0,0,0,0,0,0,0,0,0
Sant Bartomeu del Grau,Barcelona,Sant Bartomeu del Grau,41.983353,2.175229,0,3,0,0,1,0,0,0,0,0,2,0,0,0,0,0,0,0,0
Sant Boi de Llobregat,Barcelona,Sant Boi de Llobregat,41.343215,2.042572,0,0,0,2,0,0,0,0,0,1,0,3,0,0,0,0,0,0,0
Sant Boi de Lluçanès,Barcelona,Sant Boi de Lluçanès,42.05,2.15,3,0,0,2,1,0,0,0,0,0,0,0,0,0,0,0,0,0,0
Sant Cebrià de Vallalta,Barcelona,Sant Cebrià de Vallalta,41.619861,2.600738,0,0,0,0,1,0,0,0,3,2,0,0,0,0,0,0,0,0,0
Sant Celoni,Barcelona,Sant Celoni,41.686636,2.489442,3,0,0,1,0,2,0,0,0,0,0,0,0,0,0,0,0,0,0
Sant Climent de Llobregat,Barcelona,Sant Climent de Llobregat,41.336103,1.997091,0,0,0,0,3,0,0,0,0,2,1,0,0,0,0,0,0,0,0
Sant Cugat del Vallès,Barcelona,Sant Cugat del Vallès,41.471349,2.081398,2,0,0,0,0,3,0,0,1,0,0,0,0,0,0,0,0,0,0
Sant Cugat Sesgarrigues,Barcelona,Sant Cugat Sesgarrigues,41.361038,1.764484,0,0,0,0,1,0,0,0,0,3,2,0,0,0,0,0,0,0,0
Sant Esteve de Palautordera,Barcelona,Sant Esteve de Palautordera,41.703263,2.436219,0,0,0,2,3,0,0,0,1,0,0,0,0,0,0,0,0,0,0
Sant Esteve Sesrovires,Barcelona,Sant Esteve Sesrovires,41.493495,1.872702,0,0,0,2,1,0,0,0,0,3,0,0,0,0,0,0,0,0,0
Sant Feliu de Codines,Barcelona,Sant Feliu de Codines,41.689415,2.16297,1,0,0,0,0,3,0,0,2,0,0,0,0,0,0,0,0,0,0
Sant Feliu de Llobregat,Barcelona,Sant Feliu de Llobregat,41.382246,2.048811,0,0,0,1,0,2,0,0,3,0,0,0,0,0,0,0,0,0,0
Sant Feliu Sasserra,Barcelona,Sant Feliu Sasserra,41.95,2.03333,1,0,0,0,2,0,0,0,0,3,0,0,0,0,0,0,0,0,0
Sant Fost de Campsentelles,Barcelona,Sant Fost de Campsentelles,41.522217,2.220305,0,0,0,1,2,0,0,0,3,0,0,0,0,0,0,0,0,0,0
Sant Fruitós de Bages,Barcelona,Sant Fruitós de Bages,41.751519,1.872893,0,0,0,2,0,3,0,0,1,0,0,0,0,0,0,0,0,0,0
Sant Hipòlit de Voltregà,Barcelona,Sant Hipòlit de Voltregà,42.012228,2.242763,0,0,0,1,0,0,0,0,0,2,3,0,0,0,0,0,0,0,0
Sant Iscle de Vallalta,Barcelona,Sant Iscle de Vallalta,41.654107,2.569281,0,0,3,2,1,0,0,0,0,0,0,0,0,0,0,0,0,0,0
Sant Jaume de Frontanyà,Barcelona,Sant Jaume de Frontanyà,42.18742,2.02389,0,2,3,0,1,0,0,0,0,0,0,0,0,0,0,0,0,0,0
Sant Joan de Vilatorrada,Barcelona,Sant Joan de Vilatorrada,41.73926,1.802822,1,0,0,0,0,0,0,0,2,0,0,3,0,0,0,0,0,0,0
Sant Joan Despí,Barcelona,Sant Joan Despí,41.368263,2.060764,0,0,0,2,0,0,0,0,0,1,0,0,0,3,0,0,0,0,0
Sant Julià de Cerdanyola,Barcelona,Sant Julià de Cerdanyola,42.243751,1.97636,1,0,0,0,2,0,0,0,3,0,0,0,0,0,0,0,0,0,0
Sant Julià de Vilatorta,Barcelona,Sant Julià de Vilatorta,41.923958,2.320305,0,0,0,2,3,0,0,0,0,0,1,0,0,0,0,0,0,0,0
Sant Just Desvern,Barcelona,Sant Just Desvern,41.382692,2.075829,2,0,0,3,0,0,0,0,0,1,0,0,0,0,0,0,0,0,0
Sant Llorenç d'Hortons,Barcelona,Sant Llorenç d'Hortons,41.465757,1.823102,2,3,0,0,0,0,0,0,0,1,0,0,0,0,0,0,0,0,0
